{
   "plus_code" : {
      "compound_code" : "F9W4+WC Bologna, Metropolitan City of Bologna, Italy",
      "global_code" : "8FPHF9W4+WC"
   },
   "results" : [
      {
         "address_components" : [
            {
               "long_name" : "7",
               "short_name" : "7",
               "types" : [ "street_number" ]
            },
            {
               "long_name" : "Mura Anteo Zamboni",
               "short_name" : "Mura Anteo Zamboni",
               "types" : [ "route" ]
            },
            {
               "long_name" : "Bologna",
               "short_name" : "Bologna",
               "types" : [ "locality", "political" ]
            },
            {
               "long_name" : "Bologna",
               "short_name" : "Bologna",
               "types" : [ "administrative_area_level_3", "political" ]
            },
            {
               "long_name" : "Città Metropolitana di Bologna",
               "short_name" : "BO",
               "types" : [ "administrative_area_level_2", "political" ]
            },
            {
               "long_name" : "Emilia-Romagna",
               "short_name" : "Emilia-Romagna",
               "types" : [ "administrative_area_level_1", "political" ]
            },
            {
               "long_name" : "Italy",
               "short_name" : "IT",
               "types" : [ "country", "political" ]
            },
            {
               "long_name" : "40126",
               "short_name" : "40126",
               "types" : [ "postal_code" ]
            }
         ],
         "formatted_address" : "Mura Anteo Zamboni, 7, 40126 Bologna BO, Italy",
         "geometry" : {
            "location" : {
               "lat" : 44.4972641,
               "lng" : 11.3560468
            },
            "location_type" : "ROOFTOP",
            "viewport" : {
               "northeast" : {
                  "lat" : 44.49861308029151,
                  "lng" : 11.3573957802915
               },
               "southwest" : {
                  "lat" : 44.49591511970851,
                  "lng" : 11.3546978197085
               }
            }
         },
         "place_id" : "ChIJSdIWg7rUf0cRjRXgU18xUgw",
         "plus_code" : {
            "compound_code" : "F9W4+WC Bologna, Metropolitan City of Bologna, Italy",
            "global_code" : "8FPHF9W4+WC"
         },
         "types" : [ "establishment", "point_of_interest" ]
      },
      {
         "address_components" : [
            {
               "long_name" : "7",
               "short_name" : "7",
               "types" : [ "street_number" ]
            },
            {
               "long_name" : "Mura Anteo Zamboni",
               "short_name" : "Mura Anteo Zamboni",
               "types" : [ "route" ]
            },
            {
               "long_name" : "Bologna",
               "short_name" : "Bologna",
               "types" : [ "locality", "political" ]
            },
            {
               "long_name" : "Bologna",
               "short_name" : "Bologna",
               "types" : [ "administrative_area_level_3", "political" ]
            },
            {
               "long_name" : "Città Metropolitana di Bologna",
               "short_name" : "BO",
               "types" : [ "administrative_area_level_2", "political" ]
            },
            {
               "long_name" : "Emilia-Romagna",
               "short_name" : "Emilia-Romagna",
               "types" : [ "administrative_area_level_1", "political" ]
            },
            {
               "long_name" : "Italy",
               "short_name" : "IT",
               "types" : [ "country", "political" ]
            },
            {
               "long_name" : "40126",
               "short_name" : "40126",
               "types" : [ "postal_code" ]
            }
         ],
         "formatted_address" : "Mura Anteo Zamboni, 7, 40126 Bologna BO, Italy",
         "geometry" : {
            "location" : {
               "lat" : 44.4972641,
               "lng" : 11.3560468
            },
            "location_type" : "ROOFTOP",
            "viewport" : {
               "northeast" : {
                  "lat" : 44.49861308029151,
                  "lng" : 11.3573957802915
               },
               "southwest" : {
                  "lat" : 44.49591511970851,
                  "lng" : 11.3546978197085
               }
            }
         },
         "place_id" : "ChIJA-ZPfrDUf0cRRyFNnJbWW3s",
         "plus_code" : {
            "compound_code" : "F9W4+WC Bologna, Metropolitan City of Bologna, Italy",
            "global_code" : "8FPHF9W4+WC"
         },
         "types" : [ "street_address" ]
      },
      {
         "address_components" : [
            {
               "long_name" : "2",
               "short_name" : "2",
               "types" : [ "street_number" ]
            },
            {
               "long_name" : "Mura Anteo Zamboni",
               "short_name" : "Mura Anteo Zamboni",
               "types" : [ "route" ]
            },
            {
               "long_name" : "Bologna",
               "short_name" : "Bologna",
               "types" : [ "locality", "political" ]
            },
            {
               "long_name" : "Bologna",
               "short_name" : "Bologna",
               "types" : [ "administrative_area_level_3", "political" ]
            },
            {
               "long_name" : "Città Metropolitana di Bologna",
               "short_name" : "BO",
               "types" : [ "administrative_area_level_2", "political" ]
            },
            {
               "long_name" : "Italy",
               "short_name" : "IT",
               "types" : [ "country", "political" ]
            },
            {
               "long_name" : "40126",
               "short_name" : "40126",
               "types" : [ "postal_code" ]
            }
         ],
         "formatted_address" : "Mura Anteo Zamboni, 2, 40126 Bologna BO, Italy",
         "geometry" : {
            "location" : {
               "lat" : 44.4975569,
               "lng" : 11.3562372
            },
            "location_type" : "RANGE_INTERPOLATED",
            "viewport" : {
               "northeast" : {
                  "lat" : 44.4989058802915,
                  "lng" : 11.3575861802915
               },
               "southwest" : {
                  "lat" : 44.4962079197085,
                  "lng" : 11.3548882197085
               }
            }
         },
         "place_id" : "Ei9NdXJhIEFudGVvIFphbWJvbmksIDIsIDQwMTI2IEJvbG9nbmEgQk8sIEl0YWxpYSIaEhgKFAoSCUvsQ5261H9HEX01BVjzXNMtEAI",
         "types" : [ "street_address" ]
      },
      {
         "address_components" : [
            {
               "long_name" : "40126",
               "short_name" : "40126",
               "types" : [ "postal_code" ]
            },
            {
               "long_name" : "Bologna",
               "short_name" : "Bologna",
               "types" : [ "locality", "political" ]
            },
            {
               "long_name" : "Bologna",
               "short_name" : "Bologna",
               "types" : [ "administrative_area_level_3", "political" ]
            },
            {
               "long_name" : "Metropolitan City of Bologna",
               "short_name" : "BO",
               "types" : [ "administrative_area_level_2", "political" ]
            },
            {
               "long_name" : "Emilia-Romagna",
               "short_name" : "Emilia-Romagna",
               "types" : [ "administrative_area_level_1", "political" ]
            },
            {
               "long_name" : "Italy",
               "short_name" : "IT",
               "types" : [ "country", "political" ]
            }
         ],
         "formatted_address" : "40126 Bologna, Metropolitan City of Bologna, Italy",
         "geometry" : {
            "bounds" : {
               "northeast" : {
                  "lat" : 44.50576,
                  "lng" : 11.3597429
               },
               "southwest" : {
                  "lat" : 44.494072,
                  "lng" : 11.3428119
               }
            },
            "location" : {
               "lat" : 44.5019424,
               "lng" : 11.3493327
            },
            "location_type" : "APPROXIMATE",
            "viewport" : {
               "northeast" : {
                  "lat" : 44.50576,
                  "lng" : 11.3597429
               },
               "southwest" : {
                  "lat" : 44.494072,
                  "lng" : 11.3428119
               }
            }
         },
         "place_id" : "ChIJz_3RVaPUf0cRkLnKUQ-bBxw",
         "types" : [ "postal_code" ]
      },
      {
         "address_components" : [
            {
               "long_name" : "Bologna",
               "short_name" : "Bologna",
               "types" : [ "locality", "political" ]
            },
            {
               "long_name" : "Bologna",
               "short_name" : "Bologna",
               "types" : [ "administrative_area_level_3", "political" ]
            },
            {
               "long_name" : "Metropolitan City of Bologna",
               "short_name" : "BO",
               "types" : [ "administrative_area_level_2", "political" ]
            },
            {
               "long_name" : "Emilia-Romagna",
               "short_name" : "Emilia-Romagna",
               "types" : [ "administrative_area_level_1", "political" ]
            },
            {
               "long_name" : "Italy",
               "short_name" : "IT",
               "types" : [ "country", "political" ]
            }
         ],
         "formatted_address" : "Bologna, Metropolitan City of Bologna, Italy",
         "geometry" : {
            "bounds" : {
               "northeast" : {
                  "lat" : 44.5561987,
                  "lng" : 11.4337169
               },
               "southwest" : {
                  "lat" : 44.4420377,
                  "lng" : 11.2296541
               }
            },
            "location" : {
               "lat" : 44.494887,
               "lng" : 11.3426162
            },
            "location_type" : "APPROXIMATE",
            "viewport" : {
               "northeast" : {
                  "lat" : 44.5561987,
                  "lng" : 11.4337169
               },
               "southwest" : {
                  "lat" : 44.4420377,
                  "lng" : 11.2296541
               }
            }
         },
         "place_id" : "ChIJC8RR6ZjUf0cRQZSkWwF84aI",
         "types" : [ "locality", "political" ]
      },
      {
         "address_components" : [
            {
               "long_name" : "Bologna",
               "short_name" : "Bologna",
               "types" : [ "administrative_area_level_3", "political" ]
            },
            {
               "long_name" : "Metropolitan City of Bologna",
               "short_name" : "BO",
               "types" : [ "administrative_area_level_2", "political" ]
            },
            {
               "long_name" : "Emilia-Romagna",
               "short_name" : "Emilia-Romagna",
               "types" : [ "administrative_area_level_1", "political" ]
            },
            {
               "long_name" : "Italy",
               "short_name" : "IT",
               "types" : [ "country", "political" ]
            }
         ],
         "formatted_address" : "Bologna, Metropolitan City of Bologna, Italy",
         "geometry" : {
            "bounds" : {
               "northeast" : {
                  "lat" : 44.5561987,
                  "lng" : 11.4337169
               },
               "southwest" : {
                  "lat" : 44.4211025,
                  "lng" : 11.2296541
               }
            },
            "location" : {
               "lat" : 44.4910083,
               "lng" : 11.3419883
            },
            "location_type" : "APPROXIMATE",
            "viewport" : {
               "northeast" : {
                  "lat" : 44.5561987,
                  "lng" : 11.4337169
               },
               "southwest" : {
                  "lat" : 44.4211025,
                  "lng" : 11.2296541
               }
            }
         },
         "place_id" : "ChIJlZsuvpvUf0cRQTlgdngybdw",
         "types" : [ "administrative_area_level_3", "political" ]
      },
      {
         "address_components" : [
            {
               "long_name" : "Metropolitan City of Bologna",
               "short_name" : "Metropolitan City of Bologna",
               "types" : [ "administrative_area_level_2", "political" ]
            },
            {
               "long_name" : "Emilia-Romagna",
               "short_name" : "Emilia-Romagna",
               "types" : [ "administrative_area_level_1", "political" ]
            },
            {
               "long_name" : "Italy",
               "short_name" : "IT",
               "types" : [ "country", "political" ]
            }
         ],
         "formatted_address" : "Metropolitan City of Bologna, Italy",
         "geometry" : {
            "bounds" : {
               "northeast" : {
                  "lat" : 44.80474479999999,
                  "lng" : 11.8420608
               },
               "southwest" : {
                  "lat" : 44.0622307,
                  "lng" : 10.8037083
               }
            },
            "location" : {
               "lat" : 44.50051010000001,
               "lng" : 11.3047836
            },
            "location_type" : "APPROXIMATE",
            "viewport" : {
               "northeast" : {
                  "lat" : 44.80474479999999,
                  "lng" : 11.8420608
               },
               "southwest" : {
                  "lat" : 44.0622307,
                  "lng" : 10.8037083
               }
            }
         },
         "place_id" : "ChIJIYCpTkrVKhMRsH-6_AubBwM",
         "types" : [ "administrative_area_level_2", "political" ]
      },
      {
         "address_components" : [
            {
               "long_name" : "Emilia-Romagna",
               "short_name" : "Emilia-Romagna",
               "types" : [ "administrative_area_level_1", "political" ]
            },
            {
               "long_name" : "Italy",
               "short_name" : "IT",
               "types" : [ "country", "political" ]
            }
         ],
         "formatted_address" : "Emilia-Romagna, Italy",
         "geometry" : {
            "bounds" : {
               "northeast" : {
                  "lat" : 45.1391189,
                  "lng" : 12.7556401
               },
               "southwest" : {
                  "lat" : 43.7318908,
                  "lng" : 9.197932999999999
               }
            },
            "location" : {
               "lat" : 44.5967607,
               "lng" : 11.2186396
            },
            "location_type" : "APPROXIMATE",
            "viewport" : {
               "northeast" : {
                  "lat" : 45.1391189,
                  "lng" : 12.7556401
               },
               "southwest" : {
                  "lat" : 43.7318908,
                  "lng" : 9.197932999999999
               }
            }
         },
         "place_id" : "ChIJ3YXzRny1KhMRoHy6_AubBwE",
         "types" : [ "administrative_area_level_1", "political" ]
      },
      {
         "address_components" : [
            {
               "long_name" : "Italy",
               "short_name" : "IT",
               "types" : [ "country", "political" ]
            }
         ],
         "formatted_address" : "Italy",
         "geometry" : {
            "bounds" : {
               "northeast" : {
                  "lat" : 47.092,
                  "lng" : 18.7975999
               },
               "southwest" : {
                  "lat" : 35.4897,
                  "lng" : 6.6267201
               }
            },
            "location" : {
               "lat" : 41.87194,
               "lng" : 12.56738
            },
            "location_type" : "APPROXIMATE",
            "viewport" : {
               "northeast" : {
                  "lat" : 47.092,
                  "lng" : 18.7975999
               },
               "southwest" : {
                  "lat" : 35.4897,
                  "lng" : 6.6267201
               }
            }
         },
         "place_id" : "ChIJA9KNRIL-1BIRb15jJFz1LOI",
         "types" : [ "country", "political" ]
      }
   ],
   "status" : "OK"
}
