{
   "plus_code" : {
      "compound_code" : "G9Q9+XF Wuchang, Wuhan, Hubei, China",
      "global_code" : "8P2PG9Q9+XF"
   },
   "results" : [
      {
         "address_components" : [
            {
               "long_name" : "Hubin Road",
               "short_name" : "Hubin Rd",
               "types" : [ "route" ]
            },
            {
               "long_name" : "Wuchang Qu",
               "short_name" : "Wuchang Qu",
               "types" : [ "political", "sublocality", "sublocality_level_1" ]
            },
            {
               "long_name" : "Wuhan Shi",
               "short_name" : "Wuhan Shi",
               "types" : [ "locality", "political" ]
            },
            {
               "long_name" : "Hubei Sheng",
               "short_name" : "Hubei Sheng",
               "types" : [ "administrative_area_level_1", "political" ]
            },
            {
               "long_name" : "China",
               "short_name" : "CN",
               "types" : [ "country", "political" ]
            },
            {
               "long_name" : "430072",
               "short_name" : "430072",
               "types" : [ "postal_code" ]
            }
         ],
         "formatted_address" : "Hubin Rd, Wuchang Qu, Wuhan Shi, Hubei Sheng, China, 430072",
         "geometry" : {
            "bounds" : {
               "northeast" : {
                  "lat" : 30.5413947,
                  "lng" : 114.3705234
               },
               "southwest" : {
                  "lat" : 30.5404413,
                  "lng" : 114.3678759
               }
            },
            "location" : {
               "lat" : 30.540918,
               "lng" : 114.3691996
            },
            "location_type" : "GEOMETRIC_CENTER",
            "viewport" : {
               "northeast" : {
                  "lat" : 30.5422669802915,
                  "lng" : 114.3705486302915
               },
               "southwest" : {
                  "lat" : 30.5395690197085,
                  "lng" : 114.3678506697085
               }
            }
         },
         "place_id" : "ChIJ8d4YEBClLjQRlsd8B9BLSYU",
         "types" : [ "route" ]
      },
      {
         "address_components" : [
            {
               "long_name" : "430073",
               "short_name" : "430073",
               "types" : [ "postal_code" ]
            },
            {
               "long_name" : "Hongshan",
               "short_name" : "Hongshan",
               "types" : [ "political", "sublocality", "sublocality_level_1" ]
            },
            {
               "long_name" : "Wuhan",
               "short_name" : "Wuhan",
               "types" : [ "locality", "political" ]
            },
            {
               "long_name" : "Hubei",
               "short_name" : "Hubei",
               "types" : [ "administrative_area_level_1", "political" ]
            },
            {
               "long_name" : "China",
               "short_name" : "CN",
               "types" : [ "country", "political" ]
            }
         ],
         "formatted_address" : "Hongshan, Wuhan, Hubei, China, 430073",
         "geometry" : {
            "bounds" : {
               "northeast" : {
                  "lat" : 30.5593979,
                  "lng" : 114.439612
               },
               "southwest" : {
                  "lat" : 30.4540557,
                  "lng" : 114.3341433
               }
            },
            "location" : {
               "lat" : 30.5039657,
               "lng" : 114.415143
            },
            "location_type" : "APPROXIMATE",
            "viewport" : {
               "northeast" : {
                  "lat" : 30.5593979,
                  "lng" : 114.439612
               },
               "southwest" : {
                  "lat" : 30.4540557,
                  "lng" : 114.3341433
               }
            }
         },
         "place_id" : "ChIJs8AtRrKkLjQRr2SDPggSfMY",
         "types" : [ "postal_code" ]
      },
      {
         "address_components" : [
            {
               "long_name" : "Wuchang",
               "short_name" : "Wuchang",
               "types" : [ "political", "sublocality", "sublocality_level_1" ]
            },
            {
               "long_name" : "Wuhan",
               "short_name" : "Wuhan",
               "types" : [ "locality", "political" ]
            },
            {
               "long_name" : "Hubei",
               "short_name" : "Hubei",
               "types" : [ "administrative_area_level_1", "political" ]
            },
            {
               "long_name" : "China",
               "short_name" : "CN",
               "types" : [ "country", "political" ]
            }
         ],
         "formatted_address" : "Wuchang, Wuhan, Hubei, China",
         "geometry" : {
            "bounds" : {
               "northeast" : {
                  "lat" : 30.6280787,
                  "lng" : 114.4203103
               },
               "southwest" : {
                  "lat" : 30.4957891,
                  "lng" : 114.260424
               }
            },
            "location" : {
               "lat" : 30.554299,
               "lng" : 114.316513
            },
            "location_type" : "APPROXIMATE",
            "viewport" : {
               "northeast" : {
                  "lat" : 30.6280787,
                  "lng" : 114.4203103
               },
               "southwest" : {
                  "lat" : 30.4957891,
                  "lng" : 114.260424
               }
            }
         },
         "place_id" : "ChIJDURAiJevLjQRfsK-EevtCSE",
         "types" : [ "political", "sublocality", "sublocality_level_1" ]
      },
      {
         "address_components" : [
            {
               "long_name" : "Wuhan",
               "short_name" : "Wuhan",
               "types" : [ "locality", "political" ]
            },
            {
               "long_name" : "Hubei",
               "short_name" : "Hubei",
               "types" : [ "administrative_area_level_1", "political" ]
            },
            {
               "long_name" : "China",
               "short_name" : "CN",
               "types" : [ "country", "political" ]
            }
         ],
         "formatted_address" : "Wuhan, Hubei, China",
         "geometry" : {
            "bounds" : {
               "northeast" : {
                  "lat" : 31.3612604,
                  "lng" : 115.0825727
               },
               "southwest" : {
                  "lat" : 29.9690766,
                  "lng" : 113.7022811
               }
            },
            "location" : {
               "lat" : 30.592849,
               "lng" : 114.305539
            },
            "location_type" : "APPROXIMATE",
            "viewport" : {
               "northeast" : {
                  "lat" : 31.3612604,
                  "lng" : 115.0825727
               },
               "southwest" : {
                  "lat" : 29.9690766,
                  "lng" : 113.7022811
               }
            }
         },
         "place_id" : "ChIJb_KF3fiuLjQRECJYbKzJwjk",
         "types" : [ "locality", "political" ]
      },
      {
         "address_components" : [
            {
               "long_name" : "Hubei",
               "short_name" : "Hubei",
               "types" : [ "administrative_area_level_1", "political" ]
            },
            {
               "long_name" : "China",
               "short_name" : "CN",
               "types" : [ "country", "political" ]
            }
         ],
         "formatted_address" : "Hubei, China",
         "geometry" : {
            "bounds" : {
               "northeast" : {
                  "lat" : 33.275616,
                  "lng" : 116.1351876
               },
               "southwest" : {
                  "lat" : 29.0294881,
                  "lng" : 108.3669642
               }
            },
            "location" : {
               "lat" : 30.7378118,
               "lng" : 112.2384017
            },
            "location_type" : "APPROXIMATE",
            "viewport" : {
               "northeast" : {
                  "lat" : 33.275616,
                  "lng" : 116.1351876
               },
               "southwest" : {
                  "lat" : 29.0294881,
                  "lng" : 108.3669642
               }
            }
         },
         "place_id" : "ChIJb_KF3fiuLjQRPpKqljdJeeU",
         "types" : [ "administrative_area_level_1", "political" ]
      },
      {
         "address_components" : [
            {
               "long_name" : "China",
               "short_name" : "CN",
               "types" : [ "country", "political" ]
            }
         ],
         "formatted_address" : "China",
         "geometry" : {
            "bounds" : {
               "northeast" : {
                  "lat" : 53.5609739,
                  "lng" : 134.7754563
               },
               "southwest" : {
                  "lat" : 17.9996,
                  "lng" : 73.4994136
               }
            },
            "location" : {
               "lat" : 35.86166,
               "lng" : 104.195397
            },
            "location_type" : "APPROXIMATE",
            "viewport" : {
               "northeast" : {
                  "lat" : 53.5609739,
                  "lng" : 134.7754563
               },
               "southwest" : {
                  "lat" : 17.9996,
                  "lng" : 73.4994136
               }
            }
         },
         "place_id" : "ChIJwULG5WSOUDERbzafNHyqHZU",
         "types" : [ "country", "political" ]
      }
   ],
   "status" : "OK"
}
