{
   "plus_code" : {
      "compound_code" : "CXV9+WP Sakahogi, Gifu Prefecture, Japan",
      "global_code" : "8Q7RCXV9+WP"
   },
   "results" : [
      {
         "address_components" : [
            {
               "long_name" : "1301",
               "short_name" : "1301",
               "types" : [ "premise" ]
            },
            {
               "long_name" : "Fukagaya",
               "short_name" : "Fukagaya",
               "types" : [ "political", "sublocality", "sublocality_level_2" ]
            },
            {
               "long_name" : "Sakahogi",
               "short_name" : "Sakahogi",
               "types" : [ "locality", "political" ]
            },
            {
               "long_name" : "Kamo District",
               "short_name" : "Kamo District",
               "types" : [ "administrative_area_level_2", "political" ]
            },
            {
               "long_name" : "Gifu Prefecture",
               "short_name" : "Gifu Prefecture",
               "types" : [ "administrative_area_level_1", "political" ]
            },
            {
               "long_name" : "Japan",
               "short_name" : "JP",
               "types" : [ "country", "political" ]
            },
            {
               "long_name" : "505-0077",
               "short_name" : "505-0077",
               "types" : [ "postal_code" ]
            }
         ],
         "formatted_address" : "1301 Fukagaya, Sakahogi, Kamo District, Gifu Prefecture 505-0077, Japan",
         "geometry" : {
            "location" : {
               "lat" : 35.4448645,
               "lng" : 136.9692682
            },
            "location_type" : "ROOFTOP",
            "viewport" : {
               "northeast" : {
                  "lat" : 35.4462134802915,
                  "lng" : 136.9706171802915
               },
               "southwest" : {
                  "lat" : 35.44351551970851,
                  "lng" : 136.9679192197085
               }
            }
         },
         "place_id" : "ChIJn3nVRvAPA2AR2YcYnTOPIXg",
         "plus_code" : {
            "compound_code" : "CXV9+WP Kamo District, Gifu Prefecture, Japan",
            "global_code" : "8Q7RCXV9+WP"
         },
         "types" : [ "establishment", "point_of_interest", "university" ]
      },
      {
         "address_components" : [
            {
               "long_name" : "1301",
               "short_name" : "1301",
               "types" : [ "premise" ]
            },
            {
               "long_name" : "Fukagaya",
               "short_name" : "Fukagaya",
               "types" : [ "political", "sublocality", "sublocality_level_2" ]
            },
            {
               "long_name" : "Sakahogi-chō",
               "short_name" : "Sakahogi-chō",
               "types" : [ "locality", "political" ]
            },
            {
               "long_name" : "Kamo-gun",
               "short_name" : "Kamo-gun",
               "types" : [ "administrative_area_level_2", "political" ]
            },
            {
               "long_name" : "Gifu-ken",
               "short_name" : "Gifu-ken",
               "types" : [ "administrative_area_level_1", "political" ]
            },
            {
               "long_name" : "Japan",
               "short_name" : "JP",
               "types" : [ "country", "political" ]
            },
            {
               "long_name" : "505-0077",
               "short_name" : "505-0077",
               "types" : [ "postal_code" ]
            }
         ],
         "formatted_address" : "1301 Fukagaya, Sakahogi-chō, Kamo-gun, Gifu-ken 505-0077, Japan",
         "geometry" : {
            "location" : {
               "lat" : 35.4448756,
               "lng" : 136.9692187
            },
            "location_type" : "ROOFTOP",
            "viewport" : {
               "northeast" : {
                  "lat" : 35.4462245802915,
                  "lng" : 136.9705676802915
               },
               "southwest" : {
                  "lat" : 35.4435266197085,
                  "lng" : 136.9678697197085
               }
            }
         },
         "place_id" : "ChIJY6vcRvAPA2AR5XwmnvMzBsU",
         "plus_code" : {
            "compound_code" : "CXV9+XM Sakahogi, Gifu Prefecture, Japan",
            "global_code" : "8Q7RCXV9+XM"
         },
         "types" : [ "street_address" ]
      },
      {
         "address_components" : [
            {
               "long_name" : "Unnamed Road",
               "short_name" : "Unnamed Road",
               "types" : [ "route" ]
            },
            {
               "long_name" : "Gifu-ken",
               "short_name" : "Gifu-ken",
               "types" : [ "administrative_area_level_1", "political" ]
            },
            {
               "long_name" : "Japan",
               "short_name" : "JP",
               "types" : [ "country", "political" ]
            }
         ],
         "formatted_address" : "Unnamed Road, Gifu-ken, Japan",
         "geometry" : {
            "bounds" : {
               "northeast" : {
                  "lat" : 35.4463179,
                  "lng" : 136.9702114
               },
               "southwest" : {
                  "lat" : 35.4454292,
                  "lng" : 136.9684388
               }
            },
            "location" : {
               "lat" : 35.4458736,
               "lng" : 136.9693251
            },
            "location_type" : "GEOMETRIC_CENTER",
            "viewport" : {
               "northeast" : {
                  "lat" : 35.4472225302915,
                  "lng" : 136.9706740802915
               },
               "southwest" : {
                  "lat" : 35.44452456970851,
                  "lng" : 136.9679761197085
               }
            }
         },
         "place_id" : "ChIJa0z29fAPA2ARHrAqOYkX-0o",
         "types" : [ "route" ]
      },
      {
         "address_components" : [
            {
               "long_name" : "Fukagaya",
               "short_name" : "Fukagaya",
               "types" : [ "political", "sublocality", "sublocality_level_2" ]
            },
            {
               "long_name" : "Sakahogi",
               "short_name" : "Sakahogi",
               "types" : [ "locality", "political" ]
            },
            {
               "long_name" : "Kamo District",
               "short_name" : "Kamo District",
               "types" : [ "administrative_area_level_2", "political" ]
            },
            {
               "long_name" : "Gifu Prefecture",
               "short_name" : "Gifu Prefecture",
               "types" : [ "administrative_area_level_1", "political" ]
            },
            {
               "long_name" : "Japan",
               "short_name" : "JP",
               "types" : [ "country", "political" ]
            },
            {
               "long_name" : "505-0077",
               "short_name" : "505-0077",
               "types" : [ "postal_code" ]
            }
         ],
         "formatted_address" : "Fukagaya, Sakahogi, Kamo District, Gifu Prefecture 505-0077, Japan",
         "geometry" : {
            "bounds" : {
               "northeast" : {
                  "lat" : 35.4468918,
                  "lng" : 136.9783585
               },
               "southwest" : {
                  "lat" : 35.4303572,
                  "lng" : 136.9548036
               }
            },
            "location" : {
               "lat" : 35.4374207,
               "lng" : 136.9646802
            },
            "location_type" : "APPROXIMATE",
            "viewport" : {
               "northeast" : {
                  "lat" : 35.4468918,
                  "lng" : 136.9783585
               },
               "southwest" : {
                  "lat" : 35.4303572,
                  "lng" : 136.9548036
               }
            }
         },
         "place_id" : "ChIJo13Xuu4PA2ARfXo2uKjT6l4",
         "types" : [ "political", "sublocality", "sublocality_level_2" ]
      },
      {
         "address_components" : [
            {
               "long_name" : "505-0077",
               "short_name" : "505-0077",
               "types" : [ "postal_code" ]
            },
            {
               "long_name" : "Fukagaya",
               "short_name" : "Fukagaya",
               "types" : [ "political", "sublocality", "sublocality_level_2" ]
            },
            {
               "long_name" : "Sakahogi",
               "short_name" : "Sakahogi",
               "types" : [ "locality", "political" ]
            },
            {
               "long_name" : "Kamo District",
               "short_name" : "Kamo District",
               "types" : [ "administrative_area_level_2", "political" ]
            },
            {
               "long_name" : "Gifu Prefecture",
               "short_name" : "Gifu Prefecture",
               "types" : [ "administrative_area_level_1", "political" ]
            },
            {
               "long_name" : "Japan",
               "short_name" : "JP",
               "types" : [ "country", "political" ]
            }
         ],
         "formatted_address" : "505-0077, Japan",
         "geometry" : {
            "bounds" : {
               "northeast" : {
                  "lat" : 35.4468918,
                  "lng" : 136.9783585
               },
               "southwest" : {
                  "lat" : 35.4303572,
                  "lng" : 136.9548036
               }
            },
            "location" : {
               "lat" : 35.438823,
               "lng" : 136.9635092
            },
            "location_type" : "APPROXIMATE",
            "viewport" : {
               "northeast" : {
                  "lat" : 35.4468918,
                  "lng" : 136.9783585
               },
               "southwest" : {
                  "lat" : 35.4303572,
                  "lng" : 136.9548036
               }
            }
         },
         "place_id" : "ChIJQf9Pc-wPA2ARWnQPjL8XWoQ",
         "types" : [ "postal_code" ]
      },
      {
         "address_components" : [
            {
               "long_name" : "Sakahogi",
               "short_name" : "Sakahogi",
               "types" : [ "locality", "political" ]
            },
            {
               "long_name" : "Kamo District",
               "short_name" : "Kamo District",
               "types" : [ "administrative_area_level_2", "political" ]
            },
            {
               "long_name" : "Gifu Prefecture",
               "short_name" : "Gifu Prefecture",
               "types" : [ "administrative_area_level_1", "political" ]
            },
            {
               "long_name" : "Japan",
               "short_name" : "JP",
               "types" : [ "country", "political" ]
            }
         ],
         "formatted_address" : "Sakahogi, Kamo District, Gifu Prefecture, Japan",
         "geometry" : {
            "bounds" : {
               "northeast" : {
                  "lat" : 35.452801,
                  "lng" : 137.007208
               },
               "southwest" : {
                  "lat" : 35.4141173,
                  "lng" : 136.9485432
               }
            },
            "location" : {
               "lat" : 35.4266621,
               "lng" : 136.9854591
            },
            "location_type" : "APPROXIMATE",
            "viewport" : {
               "northeast" : {
                  "lat" : 35.452801,
                  "lng" : 137.007208
               },
               "southwest" : {
                  "lat" : 35.4141173,
                  "lng" : 136.9485432
               }
            }
         },
         "place_id" : "ChIJi4GTKNkPA2AR7fOOQZ86DS0",
         "types" : [ "locality", "political" ]
      },
      {
         "address_components" : [
            {
               "long_name" : "Kamo District",
               "short_name" : "Kamo District",
               "types" : [ "administrative_area_level_2", "political" ]
            },
            {
               "long_name" : "Gifu Prefecture",
               "short_name" : "Gifu Prefecture",
               "types" : [ "administrative_area_level_1", "political" ]
            },
            {
               "long_name" : "Japan",
               "short_name" : "JP",
               "types" : [ "country", "political" ]
            }
         ],
         "formatted_address" : "Kamo District, Gifu Prefecture, Japan",
         "geometry" : {
            "bounds" : {
               "northeast" : {
                  "lat" : 35.7107882,
                  "lng" : 137.4128008
               },
               "southwest" : {
                  "lat" : 35.4141173,
                  "lng" : 136.9472223
               }
            },
            "location" : {
               "lat" : 35.5789876,
               "lng" : 137.1752123
            },
            "location_type" : "APPROXIMATE",
            "viewport" : {
               "northeast" : {
                  "lat" : 35.7107882,
                  "lng" : 137.4128008
               },
               "southwest" : {
                  "lat" : 35.4141173,
                  "lng" : 136.9472223
               }
            }
         },
         "place_id" : "ChIJO4RK9iEjA2AR8FOnTylWhgI",
         "types" : [ "administrative_area_level_2", "political" ]
      },
      {
         "address_components" : [
            {
               "long_name" : "Gifu Prefecture",
               "short_name" : "Gifu Prefecture",
               "types" : [ "administrative_area_level_1", "political" ]
            },
            {
               "long_name" : "Japan",
               "short_name" : "JP",
               "types" : [ "country", "political" ]
            }
         ],
         "formatted_address" : "Gifu Prefecture, Japan",
         "geometry" : {
            "bounds" : {
               "northeast" : {
                  "lat" : 36.4649704,
                  "lng" : 137.6529394
               },
               "southwest" : {
                  "lat" : 35.1337286,
                  "lng" : 136.2761468
               }
            },
            "location" : {
               "lat" : 35.3912272,
               "lng" : 136.7222906
            },
            "location_type" : "APPROXIMATE",
            "viewport" : {
               "northeast" : {
                  "lat" : 36.4649704,
                  "lng" : 137.6529394
               },
               "southwest" : {
                  "lat" : 35.1337286,
                  "lng" : 136.2761468
               }
            }
         },
         "place_id" : "ChIJi8OICvLxAmARZ9bM7q0UJ68",
         "types" : [ "administrative_area_level_1", "political" ]
      },
      {
         "address_components" : [
            {
               "long_name" : "Japan",
               "short_name" : "JP",
               "types" : [ "country", "political" ]
            }
         ],
         "formatted_address" : "Japan",
         "geometry" : {
            "bounds" : {
               "northeast" : {
                  "lat" : 45.6412626,
                  "lng" : 154.0031455
               },
               "southwest" : {
                  "lat" : 20.3585295,
                  "lng" : 122.8554688
               }
            },
            "location" : {
               "lat" : 36.204824,
               "lng" : 138.252924
            },
            "location_type" : "APPROXIMATE",
            "viewport" : {
               "northeast" : {
                  "lat" : 45.6412626,
                  "lng" : 154.0031455
               },
               "southwest" : {
                  "lat" : 20.3585295,
                  "lng" : 122.8554688
               }
            }
         },
         "place_id" : "ChIJLxl_1w9OZzQRRFJmfNR1QvU",
         "types" : [ "country", "political" ]
      }
   ],
   "status" : "OK"
}
