{
   "plus_code" : {
      "compound_code" : "F2PR+J4 Owerri, Nigeria",
      "global_code" : "6FQ9F2PR+J4"
   },
   "results" : [
      {
         "address_components" : [
            {
               "long_name" : "1",
               "short_name" : "1",
               "types" : [ "street_number" ]
            },
            {
               "long_name" : "Umuoba Uratta Road",
               "short_name" : "Umuoba Uratta Rd",
               "types" : [ "route" ]
            },
            {
               "long_name" : "Owerri",
               "short_name" : "Owerri",
               "types" : [ "locality", "political" ]
            },
            {
               "long_name" : "Owerri Municipal",
               "short_name" : "Owerri Municipal",
               "types" : [ "administrative_area_level_2", "political" ]
            },
            {
               "long_name" : "Imo",
               "short_name" : "IM",
               "types" : [ "administrative_area_level_1", "political" ]
            },
            {
               "long_name" : "Nigeria",
               "short_name" : "NG",
               "types" : [ "country", "political" ]
            }
         ],
         "formatted_address" : "1 Umuoba Uratta Rd, Owerri, Nigeria",
         "geometry" : {
            "location" : {
               "lat" : 5.4865415,
               "lng" : 7.0403031
            },
            "location_type" : "ROOFTOP",
            "viewport" : {
               "northeast" : {
                  "lat" : 5.487890480291502,
                  "lng" : 7.041652080291502
               },
               "southwest" : {
                  "lat" : 5.485192519708497,
                  "lng" : 7.038954119708498
               }
            }
         },
         "place_id" : "ChIJi47qnq9ZQhARulAoV-YwYSs",
         "plus_code" : {
            "compound_code" : "F2PR+J4 Owerri, Nigeria",
            "global_code" : "6FQ9F2PR+J4"
         },
         "types" : [ "establishment", "hospital", "point_of_interest" ]
      },
      {
         "address_components" : [
            {
               "long_name" : "1",
               "short_name" : "1",
               "types" : [ "street_number" ]
            },
            {
               "long_name" : "Umuoba Uratta Road",
               "short_name" : "Umuoba Uratta Rd",
               "types" : [ "route" ]
            },
            {
               "long_name" : "Owerri",
               "short_name" : "Owerri",
               "types" : [ "locality", "political" ]
            },
            {
               "long_name" : "Owerri Municipal",
               "short_name" : "Owerri Municipal",
               "types" : [ "administrative_area_level_2", "political" ]
            },
            {
               "long_name" : "Imo",
               "short_name" : "IM",
               "types" : [ "administrative_area_level_1", "political" ]
            },
            {
               "long_name" : "Nigeria",
               "short_name" : "NG",
               "types" : [ "country", "political" ]
            }
         ],
         "formatted_address" : "1 Umuoba Uratta Rd, Owerri, Nigeria",
         "geometry" : {
            "location" : {
               "lat" : 5.4862285,
               "lng" : 7.0402434
            },
            "location_type" : "ROOFTOP",
            "viewport" : {
               "northeast" : {
                  "lat" : 5.487577480291502,
                  "lng" : 7.041592380291502
               },
               "southwest" : {
                  "lat" : 5.484879519708498,
                  "lng" : 7.038894419708497
               }
            }
         },
         "place_id" : "ChIJDQMunq9ZQhARMe7FQ_UVye8",
         "plus_code" : {
            "compound_code" : "F2PR+F3 Owerri, Nigeria",
            "global_code" : "6FQ9F2PR+F3"
         },
         "types" : [ "street_address" ]
      },
      {
         "address_components" : [
            {
               "long_name" : "9",
               "short_name" : "9",
               "types" : [ "street_number" ]
            },
            {
               "long_name" : "Harcourt White Street",
               "short_name" : "Harcourt White St",
               "types" : [ "route" ]
            },
            {
               "long_name" : "Owerri",
               "short_name" : "Owerri",
               "types" : [ "locality", "political" ]
            },
            {
               "long_name" : "Nigeria",
               "short_name" : "NG",
               "types" : [ "country", "political" ]
            }
         ],
         "formatted_address" : "9 Harcourt White St, Owerri, Nigeria",
         "geometry" : {
            "location" : {
               "lat" : 5.4868384,
               "lng" : 7.040264899999999
            },
            "location_type" : "RANGE_INTERPOLATED",
            "viewport" : {
               "northeast" : {
                  "lat" : 5.488187380291502,
                  "lng" : 7.041613880291502
               },
               "southwest" : {
                  "lat" : 5.485489419708498,
                  "lng" : 7.038915919708497
               }
            }
         },
         "place_id" : "EiQ5IEhhcmNvdXJ0IFdoaXRlIFN0LCBPd2VycmksIE5pZ2VyaWEiGhIYChQKEgnTFoqYr1lCEBEO8JHrbnvCqRAJ",
         "types" : [ "street_address" ]
      },
      {
         "address_components" : [
            {
               "long_name" : "Ikenegbu I",
               "short_name" : "Ikenegbu I",
               "types" : [ "administrative_area_level_3", "political" ]
            },
            {
               "long_name" : "Owerri",
               "short_name" : "Owerri",
               "types" : [ "locality", "political" ]
            },
            {
               "long_name" : "Owerri Municipal",
               "short_name" : "Owerri Municipal",
               "types" : [ "administrative_area_level_2", "political" ]
            },
            {
               "long_name" : "Imo",
               "short_name" : "IM",
               "types" : [ "administrative_area_level_1", "political" ]
            },
            {
               "long_name" : "Nigeria",
               "short_name" : "NG",
               "types" : [ "country", "political" ]
            }
         ],
         "formatted_address" : "Ikenegbu I, Owerri, Nigeria",
         "geometry" : {
            "bounds" : {
               "northeast" : {
                  "lat" : 5.4936303,
                  "lng" : 7.0419886
               },
               "southwest" : {
                  "lat" : 5.482076699999999,
                  "lng" : 7.0291814
               }
            },
            "location" : {
               "lat" : 5.487551799999999,
               "lng" : 7.0350582
            },
            "location_type" : "APPROXIMATE",
            "viewport" : {
               "northeast" : {
                  "lat" : 5.4936303,
                  "lng" : 7.0419886
               },
               "southwest" : {
                  "lat" : 5.482076699999999,
                  "lng" : 7.0291814
               }
            }
         },
         "place_id" : "ChIJKRt8w6RZQhARX1QgDyiNzEQ",
         "types" : [ "administrative_area_level_3", "political" ]
      },
      {
         "address_components" : [
            {
               "long_name" : "Owerri Municipal",
               "short_name" : "Owerri Municipal",
               "types" : [ "administrative_area_level_2", "political" ]
            },
            {
               "long_name" : "Imo",
               "short_name" : "IM",
               "types" : [ "administrative_area_level_1", "political" ]
            },
            {
               "long_name" : "Nigeria",
               "short_name" : "NG",
               "types" : [ "country", "political" ]
            }
         ],
         "formatted_address" : "Owerri Municipal, Nigeria",
         "geometry" : {
            "bounds" : {
               "northeast" : {
                  "lat" : 5.522708100000001,
                  "lng" : 7.0650175
               },
               "southwest" : {
                  "lat" : 5.4386758,
                  "lng" : 6.971503299999999
               }
            },
            "location" : {
               "lat" : 5.4682267,
               "lng" : 7.0175879
            },
            "location_type" : "APPROXIMATE",
            "viewport" : {
               "northeast" : {
                  "lat" : 5.522708100000001,
                  "lng" : 7.0650175
               },
               "southwest" : {
                  "lat" : 5.4386758,
                  "lng" : 6.971503299999999
               }
            }
         },
         "place_id" : "ChIJVQhiJZ1ZQhARDXOfOx2e9D0",
         "types" : [ "administrative_area_level_2", "political" ]
      },
      {
         "address_components" : [
            {
               "long_name" : "Owerri",
               "short_name" : "Owerri",
               "types" : [ "locality", "political" ]
            },
            {
               "long_name" : "Imo",
               "short_name" : "IM",
               "types" : [ "administrative_area_level_1", "political" ]
            },
            {
               "long_name" : "Nigeria",
               "short_name" : "NG",
               "types" : [ "country", "political" ]
            }
         ],
         "formatted_address" : "Owerri, Nigeria",
         "geometry" : {
            "bounds" : {
               "northeast" : {
                  "lat" : 5.545704799999999,
                  "lng" : 7.0719338
               },
               "southwest" : {
                  "lat" : 5.4562311,
                  "lng" : 6.980438200000001
               }
            },
            "location" : {
               "lat" : 5.489059,
               "lng" : 7.0175879
            },
            "location_type" : "APPROXIMATE",
            "viewport" : {
               "northeast" : {
                  "lat" : 5.545704799999999,
                  "lng" : 7.0719338
               },
               "southwest" : {
                  "lat" : 5.4562311,
                  "lng" : 6.980438200000001
               }
            }
         },
         "place_id" : "ChIJoaQCAphZQhARsQ5mJIn9lys",
         "types" : [ "locality", "political" ]
      },
      {
         "address_components" : [
            {
               "long_name" : "Imo",
               "short_name" : "Imo",
               "types" : [ "administrative_area_level_1", "political" ]
            },
            {
               "long_name" : "Nigeria",
               "short_name" : "NG",
               "types" : [ "country", "political" ]
            }
         ],
         "formatted_address" : "Imo, Nigeria",
         "geometry" : {
            "bounds" : {
               "northeast" : {
                  "lat" : 5.939476099999999,
                  "lng" : 7.431560699999999
               },
               "southwest" : {
                  "lat" : 5.1951668,
                  "lng" : 6.6383424
               }
            },
            "location" : {
               "lat" : 5.6038994,
               "lng" : 7.0068393
            },
            "location_type" : "APPROXIMATE",
            "viewport" : {
               "northeast" : {
                  "lat" : 5.939476099999999,
                  "lng" : 7.431560699999999
               },
               "southwest" : {
                  "lat" : 5.1951668,
                  "lng" : 6.6383424
               }
            }
         },
         "place_id" : "ChIJ_ylxZRmOQhAR2VN1FpalMZQ",
         "types" : [ "administrative_area_level_1", "political" ]
      },
      {
         "address_components" : [
            {
               "long_name" : "Nigeria",
               "short_name" : "NG",
               "types" : [ "country", "political" ]
            }
         ],
         "formatted_address" : "Nigeria",
         "geometry" : {
            "bounds" : {
               "northeast" : {
                  "lat" : 13.8856449,
                  "lng" : 14.677982
               },
               "southwest" : {
                  "lat" : 4.1821001,
                  "lng" : 2.676932
               }
            },
            "location" : {
               "lat" : 9.081999,
               "lng" : 8.675276999999999
            },
            "location_type" : "APPROXIMATE",
            "viewport" : {
               "northeast" : {
                  "lat" : 13.8856449,
                  "lng" : 14.677982
               },
               "southwest" : {
                  "lat" : 4.1821001,
                  "lng" : 2.676932
               }
            }
         },
         "place_id" : "ChIJDY2kfa8LThARyAvFaEH-qJk",
         "types" : [ "country", "political" ]
      }
   ],
   "status" : "OK"
}
