{
   "plus_code" : {
      "compound_code" : "QW72+P8 West Palm Beach, FL, USA",
      "global_code" : "76RXQW72+P8"
   },
   "results" : [
      {
         "address_components" : [
            {
               "long_name" : "1501",
               "short_name" : "1501",
               "types" : [ "street_number" ]
            },
            {
               "long_name" : "Northpoint Parkway",
               "short_name" : "Northpoint Pkwy",
               "types" : [ "route" ]
            },
            {
               "long_name" : "West Palm Beach",
               "short_name" : "West Palm Beach",
               "types" : [ "locality", "political" ]
            },
            {
               "long_name" : "Palm Beach County",
               "short_name" : "Palm Beach County",
               "types" : [ "administrative_area_level_2", "political" ]
            },
            {
               "long_name" : "Florida",
               "short_name" : "FL",
               "types" : [ "administrative_area_level_1", "political" ]
            },
            {
               "long_name" : "United States",
               "short_name" : "US",
               "types" : [ "country", "political" ]
            },
            {
               "long_name" : "33407",
               "short_name" : "33407",
               "types" : [ "postal_code" ]
            },
            {
               "long_name" : "1955",
               "short_name" : "1955",
               "types" : [ "postal_code_suffix" ]
            }
         ],
         "formatted_address" : "1501 Northpoint Pkwy, West Palm Beach, FL 33407, USA",
         "geometry" : {
            "location" : {
               "lat" : 26.76435,
               "lng" : -80.099159
            },
            "location_type" : "ROOFTOP",
            "viewport" : {
               "northeast" : {
                  "lat" : 26.7656989802915,
                  "lng" : -80.09781001970849
               },
               "southwest" : {
                  "lat" : 26.7630010197085,
                  "lng" : -80.10050798029151
               }
            }
         },
         "place_id" : "ChIJOeGeM3Yq2YgRbev1cDTILRI",
         "plus_code" : {
            "compound_code" : "QW72+P8 West Palm Beach, Florida, United States",
            "global_code" : "76RXQW72+P8"
         },
         "types" : [ "establishment", "point_of_interest" ]
      },
      {
         "address_components" : [
            {
               "long_name" : "1501",
               "short_name" : "1501",
               "types" : [ "street_number" ]
            },
            {
               "long_name" : "Northpoint Parkway",
               "short_name" : "Northpoint Pkwy",
               "types" : [ "route" ]
            },
            {
               "long_name" : "West Palm Beach",
               "short_name" : "West Palm Beach",
               "types" : [ "locality", "political" ]
            },
            {
               "long_name" : "Palm Beach County",
               "short_name" : "Palm Beach County",
               "types" : [ "administrative_area_level_2", "political" ]
            },
            {
               "long_name" : "Florida",
               "short_name" : "FL",
               "types" : [ "administrative_area_level_1", "political" ]
            },
            {
               "long_name" : "United States",
               "short_name" : "US",
               "types" : [ "country", "political" ]
            },
            {
               "long_name" : "33407",
               "short_name" : "33407",
               "types" : [ "postal_code" ]
            }
         ],
         "formatted_address" : "1501 Northpoint Pkwy, West Palm Beach, FL 33407, USA",
         "geometry" : {
            "bounds" : {
               "northeast" : {
                  "lat" : 26.7646777,
                  "lng" : -80.0985883
               },
               "southwest" : {
                  "lat" : 26.7641406,
                  "lng" : -80.0998043
               }
            },
            "location" : {
               "lat" : 26.7643591,
               "lng" : -80.09905959999999
            },
            "location_type" : "ROOFTOP",
            "viewport" : {
               "northeast" : {
                  "lat" : 26.7657581302915,
                  "lng" : -80.09784731970849
               },
               "southwest" : {
                  "lat" : 26.7630601697085,
                  "lng" : -80.1005452802915
               }
            }
         },
         "place_id" : "ChIJZ8B6M3Yq2YgRrhmAZOSTV-o",
         "types" : [ "premise" ]
      },
      {
         "address_components" : [
            {
               "long_name" : "Village Boulevard",
               "short_name" : "Village Blvd",
               "types" : [ "route" ]
            },
            {
               "long_name" : "West Palm Beach",
               "short_name" : "West Palm Beach",
               "types" : [ "locality", "political" ]
            },
            {
               "long_name" : "Palm Beach County",
               "short_name" : "Palm Beach County",
               "types" : [ "administrative_area_level_2", "political" ]
            },
            {
               "long_name" : "Florida",
               "short_name" : "FL",
               "types" : [ "administrative_area_level_1", "political" ]
            },
            {
               "long_name" : "United States",
               "short_name" : "US",
               "types" : [ "country", "political" ]
            },
            {
               "long_name" : "33407",
               "short_name" : "33407",
               "types" : [ "postal_code" ]
            }
         ],
         "formatted_address" : "Village Blvd, West Palm Beach, FL 33407, USA",
         "geometry" : {
            "bounds" : {
               "northeast" : {
                  "lat" : 26.7647996,
                  "lng" : -80.09846400000001
               },
               "southwest" : {
                  "lat" : 26.7639569,
                  "lng" : -80.0998125
               }
            },
            "location" : {
               "lat" : 26.7643782,
               "lng" : -80.0991382
            },
            "location_type" : "GEOMETRIC_CENTER",
            "viewport" : {
               "northeast" : {
                  "lat" : 26.7657272302915,
                  "lng" : -80.0977892697085
               },
               "southwest" : {
                  "lat" : 26.7630292697085,
                  "lng" : -80.10048723029151
               }
            }
         },
         "place_id" : "ChIJGwULM3Yq2YgRuIf6quscu6I",
         "types" : [ "route" ]
      },
      {
         "address_components" : [
            {
               "long_name" : "33407",
               "short_name" : "33407",
               "types" : [ "postal_code" ]
            },
            {
               "long_name" : "Riviera Beach",
               "short_name" : "Riviera Beach",
               "types" : [ "locality", "political" ]
            },
            {
               "long_name" : "Palm Beach County",
               "short_name" : "Palm Beach County",
               "types" : [ "administrative_area_level_2", "political" ]
            },
            {
               "long_name" : "Florida",
               "short_name" : "FL",
               "types" : [ "administrative_area_level_1", "political" ]
            },
            {
               "long_name" : "United States",
               "short_name" : "US",
               "types" : [ "country", "political" ]
            }
         ],
         "formatted_address" : "Riviera Beach, FL 33407, USA",
         "geometry" : {
            "bounds" : {
               "northeast" : {
                  "lat" : 26.795804,
                  "lng" : -80.0458658
               },
               "southwest" : {
                  "lat" : 26.7241969,
                  "lng" : -80.134393
               }
            },
            "location" : {
               "lat" : 26.7619563,
               "lng" : -80.1037721
            },
            "location_type" : "APPROXIMATE",
            "viewport" : {
               "northeast" : {
                  "lat" : 26.795804,
                  "lng" : -80.0458658
               },
               "southwest" : {
                  "lat" : 26.7241969,
                  "lng" : -80.134393
               }
            }
         },
         "place_id" : "ChIJcbqKrYvV2IgRJItdHL_xAF4",
         "postcode_localities" : [ "Riviera Beach", "West Palm Beach" ],
         "types" : [ "postal_code" ]
      },
      {
         "address_components" : [
            {
               "long_name" : "West Palm Beach",
               "short_name" : "West Palm Beach",
               "types" : [ "locality", "political" ]
            },
            {
               "long_name" : "Palm Beach County",
               "short_name" : "Palm Beach County",
               "types" : [ "administrative_area_level_2", "political" ]
            },
            {
               "long_name" : "Florida",
               "short_name" : "FL",
               "types" : [ "administrative_area_level_1", "political" ]
            },
            {
               "long_name" : "United States",
               "short_name" : "US",
               "types" : [ "country", "political" ]
            }
         ],
         "formatted_address" : "West Palm Beach, FL, USA",
         "geometry" : {
            "bounds" : {
               "northeast" : {
                  "lat" : 26.839332,
                  "lng" : -80.043463
               },
               "southwest" : {
                  "lat" : 26.6445439,
                  "lng" : -80.2146168
               }
            },
            "location" : {
               "lat" : 26.7153424,
               "lng" : -80.0533746
            },
            "location_type" : "APPROXIMATE",
            "viewport" : {
               "northeast" : {
                  "lat" : 26.839332,
                  "lng" : -80.043463
               },
               "southwest" : {
                  "lat" : 26.6445439,
                  "lng" : -80.2146168
               }
            }
         },
         "place_id" : "ChIJwa2VtczV2IgR3mvhH7XH7xU",
         "types" : [ "locality", "political" ]
      },
      {
         "address_components" : [
            {
               "long_name" : "Palm Beach County",
               "short_name" : "Palm Beach County",
               "types" : [ "administrative_area_level_2", "political" ]
            },
            {
               "long_name" : "Florida",
               "short_name" : "FL",
               "types" : [ "administrative_area_level_1", "political" ]
            },
            {
               "long_name" : "United States",
               "short_name" : "US",
               "types" : [ "country", "political" ]
            }
         ],
         "formatted_address" : "Palm Beach County, FL, USA",
         "geometry" : {
            "bounds" : {
               "northeast" : {
                  "lat" : 26.9709431,
                  "lng" : -79.974306
               },
               "southwest" : {
                  "lat" : 26.3207559,
                  "lng" : -80.88623199999999
               }
            },
            "location" : {
               "lat" : 26.6514503,
               "lng" : -80.2767327
            },
            "location_type" : "APPROXIMATE",
            "viewport" : {
               "northeast" : {
                  "lat" : 26.9709431,
                  "lng" : -79.974306
               },
               "southwest" : {
                  "lat" : 26.3207559,
                  "lng" : -80.88623199999999
               }
            }
         },
         "place_id" : "ChIJ89agzq663ogRA5AghqgXmok",
         "types" : [ "administrative_area_level_2", "political" ]
      },
      {
         "address_components" : [
            {
               "long_name" : "Florida",
               "short_name" : "Florida",
               "types" : [ "administrative_area_level_1", "political" ]
            },
            {
               "long_name" : "United States",
               "short_name" : "US",
               "types" : [ "country", "political" ]
            }
         ],
         "formatted_address" : "Florida, USA",
         "geometry" : {
            "bounds" : {
               "northeast" : {
                  "lat" : 31.000968,
                  "lng" : -79.974306
               },
               "southwest" : {
                  "lat" : 24.396308,
                  "lng" : -87.634896
               }
            },
            "location" : {
               "lat" : 27.6648274,
               "lng" : -81.5157535
            },
            "location_type" : "APPROXIMATE",
            "viewport" : {
               "northeast" : {
                  "lat" : 31.000968,
                  "lng" : -79.974306
               },
               "southwest" : {
                  "lat" : 24.396308,
                  "lng" : -87.634896
               }
            }
         },
         "place_id" : "ChIJvypWkWV2wYgR0E7HW9MTLvc",
         "types" : [ "administrative_area_level_1", "political" ]
      },
      {
         "address_components" : [
            {
               "long_name" : "United States",
               "short_name" : "US",
               "types" : [ "country", "political" ]
            }
         ],
         "formatted_address" : "United States",
         "geometry" : {
            "bounds" : {
               "northeast" : {
                  "lat" : 71.5388001,
                  "lng" : -66.885417
               },
               "southwest" : {
                  "lat" : 18.7763,
                  "lng" : 170.5957
               }
            },
            "location" : {
               "lat" : 37.09024,
               "lng" : -95.712891
            },
            "location_type" : "APPROXIMATE",
            "viewport" : {
               "northeast" : {
                  "lat" : 71.5388001,
                  "lng" : -66.885417
               },
               "southwest" : {
                  "lat" : 18.7763,
                  "lng" : 170.5957
               }
            }
         },
         "place_id" : "ChIJCzYy5IS16lQRQrfeQ5K5Oxw",
         "types" : [ "country", "political" ]
      }
   ],
   "status" : "OK"
}
