{
   "plus_code" : {
      "compound_code" : "P55F+8Q Orsay, France",
      "global_code" : "8FW4P55F+8Q"
   },
   "results" : [
      {
         "address_components" : [
            {
               "long_name" : "20",
               "short_name" : "20",
               "types" : [ "street_number" ]
            },
            {
               "long_name" : "Rue Jean Rostand",
               "short_name" : "Rue Jean Rostand",
               "types" : [ "route" ]
            },
            {
               "long_name" : "Orsay",
               "short_name" : "Orsay",
               "types" : [ "locality", "political" ]
            },
            {
               "long_name" : "Essonne",
               "short_name" : "Essonne",
               "types" : [ "administrative_area_level_2", "political" ]
            },
            {
               "long_name" : "Île-de-France",
               "short_name" : "Île-de-France",
               "types" : [ "administrative_area_level_1", "political" ]
            },
            {
               "long_name" : "France",
               "short_name" : "FR",
               "types" : [ "country", "political" ]
            },
            {
               "long_name" : "91400",
               "short_name" : "91400",
               "types" : [ "postal_code" ]
            }
         ],
         "formatted_address" : "20 Rue Jean Rostand, 91400 Orsay, France",
         "geometry" : {
            "location" : {
               "lat" : 48.7082912,
               "lng" : 2.1744168
            },
            "location_type" : "ROOFTOP",
            "viewport" : {
               "northeast" : {
                  "lat" : 48.70964018029149,
                  "lng" : 2.175765780291502
               },
               "southwest" : {
                  "lat" : 48.7069422197085,
                  "lng" : 2.173067819708498
               }
            }
         },
         "place_id" : "ChIJ4x1gn1J_5kcRO30Z9XxAGLQ",
         "plus_code" : {
            "compound_code" : "P55F+8Q Orsay, France",
            "global_code" : "8FW4P55F+8Q"
         },
         "types" : [ "street_address" ]
      },
      {
         "address_components" : [
            {
               "long_name" : "18",
               "short_name" : "18",
               "types" : [ "street_number" ]
            },
            {
               "long_name" : "Rue Jean Rostand",
               "short_name" : "Rue Jean Rostand",
               "types" : [ "route" ]
            },
            {
               "long_name" : "Orsay",
               "short_name" : "Orsay",
               "types" : [ "locality", "political" ]
            },
            {
               "long_name" : "France",
               "short_name" : "FR",
               "types" : [ "country", "political" ]
            },
            {
               "long_name" : "91400",
               "short_name" : "91400",
               "types" : [ "postal_code" ]
            }
         ],
         "formatted_address" : "18 Rue Jean Rostand, 91400 Orsay, France",
         "geometry" : {
            "location" : {
               "lat" : 48.7085184,
               "lng" : 2.1745063
            },
            "location_type" : "RANGE_INTERPOLATED",
            "viewport" : {
               "northeast" : {
                  "lat" : 48.70986738029149,
                  "lng" : 2.175855280291502
               },
               "southwest" : {
                  "lat" : 48.70716941970849,
                  "lng" : 2.173157319708498
               }
            }
         },
         "place_id" : "EigxOCBSdWUgSmVhbiBSb3N0YW5kLCA5MTQwMCBPcnNheSwgRnJhbmNlIhoSGAoUChIJMSKfXk1_5kcRQzWy525Ir0QQEg",
         "types" : [ "street_address" ]
      },
      {
         "address_components" : [
            {
               "long_name" : "Orsay",
               "short_name" : "Orsay",
               "types" : [ "locality", "political" ]
            },
            {
               "long_name" : "Essonne",
               "short_name" : "Essonne",
               "types" : [ "administrative_area_level_2", "political" ]
            },
            {
               "long_name" : "Île-de-France",
               "short_name" : "Île-de-France",
               "types" : [ "administrative_area_level_1", "political" ]
            },
            {
               "long_name" : "France",
               "short_name" : "FR",
               "types" : [ "country", "political" ]
            },
            {
               "long_name" : "91400",
               "short_name" : "91400",
               "types" : [ "postal_code" ]
            }
         ],
         "formatted_address" : "91400 Orsay, France",
         "geometry" : {
            "bounds" : {
               "northeast" : {
                  "lat" : 48.7188341,
                  "lng" : 2.209617
               },
               "southwest" : {
                  "lat" : 48.675408,
                  "lng" : 2.169593
               }
            },
            "location" : {
               "lat" : 48.697161,
               "lng" : 2.189617
            },
            "location_type" : "APPROXIMATE",
            "viewport" : {
               "northeast" : {
                  "lat" : 48.7188341,
                  "lng" : 2.209617
               },
               "southwest" : {
                  "lat" : 48.675408,
                  "lng" : 2.169593
               }
            }
         },
         "place_id" : "ChIJzTVrmB3W5UcRAEOLaMOCCwQ",
         "types" : [ "locality", "political" ]
      },
      {
         "address_components" : [
            {
               "long_name" : "91400",
               "short_name" : "91400",
               "types" : [ "postal_code" ]
            },
            {
               "long_name" : "Gometz-la-Ville",
               "short_name" : "Gometz-la-Ville",
               "types" : [ "locality", "political" ]
            },
            {
               "long_name" : "Essonne",
               "short_name" : "Essonne",
               "types" : [ "administrative_area_level_2", "political" ]
            },
            {
               "long_name" : "Île-de-France",
               "short_name" : "Île-de-France",
               "types" : [ "administrative_area_level_1", "political" ]
            },
            {
               "long_name" : "France",
               "short_name" : "FR",
               "types" : [ "country", "political" ]
            }
         ],
         "formatted_address" : "91400 Gometz-la-Ville, France",
         "geometry" : {
            "bounds" : {
               "northeast" : {
                  "lat" : 48.7587514,
                  "lng" : 2.2096794
               },
               "southwest" : {
                  "lat" : 48.6520249,
                  "lng" : 2.0818301
               }
            },
            "location" : {
               "lat" : 48.7135995,
               "lng" : 2.1819647
            },
            "location_type" : "APPROXIMATE",
            "viewport" : {
               "northeast" : {
                  "lat" : 48.7587514,
                  "lng" : 2.2096794
               },
               "southwest" : {
                  "lat" : 48.6520249,
                  "lng" : 2.0818301
               }
            }
         },
         "place_id" : "ChIJe7bEZ2R_5kcRIHzY4caCCxw",
         "postcode_localities" : [ "Gometz-la-Ville", "Orsay", "Saclay" ],
         "types" : [ "postal_code" ]
      },
      {
         "address_components" : [
            {
               "long_name" : "Essonne",
               "short_name" : "Essonne",
               "types" : [ "administrative_area_level_2", "political" ]
            },
            {
               "long_name" : "Île-de-France",
               "short_name" : "Île-de-France",
               "types" : [ "administrative_area_level_1", "political" ]
            },
            {
               "long_name" : "France",
               "short_name" : "FR",
               "types" : [ "country", "political" ]
            }
         ],
         "formatted_address" : "Essonne, France",
         "geometry" : {
            "bounds" : {
               "northeast" : {
                  "lat" : 48.7761319,
                  "lng" : 2.5856331
               },
               "southwest" : {
                  "lat" : 48.28455599999999,
                  "lng" : 1.9145131
               }
            },
            "location" : {
               "lat" : 48.4585698,
               "lng" : 2.1569416
            },
            "location_type" : "APPROXIMATE",
            "viewport" : {
               "northeast" : {
                  "lat" : 48.7761319,
                  "lng" : 2.5856331
               },
               "southwest" : {
                  "lat" : 48.28455599999999,
                  "lng" : 1.9145131
               }
            }
         },
         "place_id" : "ChIJH3mvlvjP5UcRMCuLaMOCCwM",
         "types" : [ "administrative_area_level_2", "political" ]
      },
      {
         "address_components" : [
            {
               "long_name" : "Île-de-France",
               "short_name" : "Île-de-France",
               "types" : [ "administrative_area_level_1", "political" ]
            },
            {
               "long_name" : "France",
               "short_name" : "FR",
               "types" : [ "country", "political" ]
            }
         ],
         "formatted_address" : "Île-de-France, France",
         "geometry" : {
            "bounds" : {
               "northeast" : {
                  "lat" : 49.241504,
                  "lng" : 3.5590069
               },
               "southwest" : {
                  "lat" : 48.1200811,
                  "lng" : 1.44617
               }
            },
            "location" : {
               "lat" : 48.8499198,
               "lng" : 2.6370411
            },
            "location_type" : "APPROXIMATE",
            "viewport" : {
               "northeast" : {
                  "lat" : 49.241504,
                  "lng" : 3.5590069
               },
               "southwest" : {
                  "lat" : 48.1200811,
                  "lng" : 1.44617
               }
            }
         },
         "place_id" : "ChIJF4ymA8Th5UcRcCWLaMOCCwE",
         "types" : [ "administrative_area_level_1", "political" ]
      },
      {
         "address_components" : [
            {
               "long_name" : "France",
               "short_name" : "FR",
               "types" : [ "country", "political" ]
            }
         ],
         "formatted_address" : "France",
         "geometry" : {
            "bounds" : {
               "northeast" : {
                  "lat" : 51.1241999,
                  "lng" : 9.6624999
               },
               "southwest" : {
                  "lat" : 41.31433,
                  "lng" : -5.5591
               }
            },
            "location" : {
               "lat" : 46.227638,
               "lng" : 2.213749
            },
            "location_type" : "APPROXIMATE",
            "viewport" : {
               "northeast" : {
                  "lat" : 51.1241999,
                  "lng" : 9.6624999
               },
               "southwest" : {
                  "lat" : 41.31433,
                  "lng" : -5.5591
               }
            }
         },
         "place_id" : "ChIJMVd4MymgVA0R99lHx5Y__Ws",
         "types" : [ "country", "political" ]
      }
   ],
   "status" : "OK"
}
