{
   "plus_code" : {
      "compound_code" : "VHC3+JX Parsippany-Troy Hills, NJ, USA",
      "global_code" : "87G7VHC3+JX"
   },
   "results" : [
      {
         "address_components" : [
            {
               "long_name" : "100",
               "short_name" : "100",
               "types" : [ "street_number" ]
            },
            {
               "long_name" : "Interpace Parkway",
               "short_name" : "Interpace Pkwy",
               "types" : [ "route" ]
            },
            {
               "long_name" : "Parsippany",
               "short_name" : "Parsippany",
               "types" : [ "neighborhood", "political" ]
            },
            {
               "long_name" : "Parsippany-Troy Hills",
               "short_name" : "Parsippany-Troy Hills",
               "types" : [ "locality", "political" ]
            },
            {
               "long_name" : "Morris County",
               "short_name" : "Morris County",
               "types" : [ "administrative_area_level_2", "political" ]
            },
            {
               "long_name" : "New Jersey",
               "short_name" : "NJ",
               "types" : [ "administrative_area_level_1", "political" ]
            },
            {
               "long_name" : "United States",
               "short_name" : "US",
               "types" : [ "country", "political" ]
            },
            {
               "long_name" : "07054",
               "short_name" : "07054",
               "types" : [ "postal_code" ]
            }
         ],
         "formatted_address" : "100 Interpace Pkwy, Parsippany, NJ 07054, USA",
         "geometry" : {
            "bounds" : {
               "northeast" : {
                  "lat" : 40.871807,
                  "lng" : -74.4440831
               },
               "southwest" : {
                  "lat" : 40.8709246,
                  "lng" : -74.4460605
               }
            },
            "location" : {
               "lat" : 40.8712071,
               "lng" : -74.44578469999999
            },
            "location_type" : "ROOFTOP",
            "viewport" : {
               "northeast" : {
                  "lat" : 40.8727147802915,
                  "lng" : -74.4437228197085
               },
               "southwest" : {
                  "lat" : 40.8700168197085,
                  "lng" : -74.44642078029152
               }
            }
         },
         "place_id" : "ChIJmzTxpzEIw4kRczthYLDAxlo",
         "types" : [ "premise" ]
      },
      {
         "address_components" : [
            {
               "long_name" : "100",
               "short_name" : "100",
               "types" : [ "street_number" ]
            },
            {
               "long_name" : "Interpace Parkway",
               "short_name" : "Interpace Pkwy",
               "types" : [ "route" ]
            },
            {
               "long_name" : "Parsippany",
               "short_name" : "Parsippany",
               "types" : [ "neighborhood", "political" ]
            },
            {
               "long_name" : "Parsippany-Troy Hills",
               "short_name" : "Parsippany-Troy Hills",
               "types" : [ "locality", "political" ]
            },
            {
               "long_name" : "Morris County",
               "short_name" : "Morris County",
               "types" : [ "administrative_area_level_2", "political" ]
            },
            {
               "long_name" : "New Jersey",
               "short_name" : "NJ",
               "types" : [ "administrative_area_level_1", "political" ]
            },
            {
               "long_name" : "United States",
               "short_name" : "US",
               "types" : [ "country", "political" ]
            },
            {
               "long_name" : "07054",
               "short_name" : "07054",
               "types" : [ "postal_code" ]
            }
         ],
         "formatted_address" : "100 Interpace Pkwy, Parsippany, NJ 07054, USA",
         "geometry" : {
            "location" : {
               "lat" : 40.8715517,
               "lng" : -74.44520740000002
            },
            "location_type" : "ROOFTOP",
            "viewport" : {
               "northeast" : {
                  "lat" : 40.8729006802915,
                  "lng" : -74.44385841970852
               },
               "southwest" : {
                  "lat" : 40.8702027197085,
                  "lng" : -74.44655638029153
               }
            }
         },
         "place_id" : "ChIJod8gEnKnw4kRfVJ7qMiECZw",
         "plus_code" : {
            "compound_code" : "VHC3+JW Parsippany-Troy Hills, New Jersey, United States",
            "global_code" : "87G7VHC3+JW"
         },
         "types" : [ "establishment", "health", "point_of_interest" ]
      },
      {
         "address_components" : [
            {
               "long_name" : "96",
               "short_name" : "96",
               "types" : [ "street_number" ]
            },
            {
               "long_name" : "Upper Pond Road",
               "short_name" : "Upper Pond Rd",
               "types" : [ "route" ]
            },
            {
               "long_name" : "Parsippany",
               "short_name" : "Parsippany",
               "types" : [ "neighborhood", "political" ]
            },
            {
               "long_name" : "New Jersey",
               "short_name" : "NJ",
               "types" : [ "administrative_area_level_1", "political" ]
            },
            {
               "long_name" : "United States",
               "short_name" : "US",
               "types" : [ "country", "political" ]
            },
            {
               "long_name" : "07054",
               "short_name" : "07054",
               "types" : [ "postal_code" ]
            },
            {
               "long_name" : "1051",
               "short_name" : "1051",
               "types" : [ "postal_code_suffix" ]
            }
         ],
         "formatted_address" : "96 Upper Pond Rd, Parsippany, NJ 07054, USA",
         "geometry" : {
            "location" : {
               "lat" : 40.872115,
               "lng" : -74.4454076
            },
            "location_type" : "RANGE_INTERPOLATED",
            "viewport" : {
               "northeast" : {
                  "lat" : 40.8734639802915,
                  "lng" : -74.44405861970849
               },
               "southwest" : {
                  "lat" : 40.8707660197085,
                  "lng" : -74.44675658029151
               }
            }
         },
         "place_id" : "Eis5NiBVcHBlciBQb25kIFJkLCBQYXJzaXBwYW55LCBOSiAwNzA1NCwgVVNBIhoSGAoUChIJoQ28cDEIw4kRdgkIdSn5va0QYA",
         "types" : [ "street_address" ]
      },
      {
         "address_components" : [
            {
               "long_name" : "07054",
               "short_name" : "07054",
               "types" : [ "postal_code" ]
            },
            {
               "long_name" : "Parsippany",
               "short_name" : "Parsippany",
               "types" : [ "neighborhood", "political" ]
            },
            {
               "long_name" : "Morris County",
               "short_name" : "Morris County",
               "types" : [ "administrative_area_level_2", "political" ]
            },
            {
               "long_name" : "New Jersey",
               "short_name" : "NJ",
               "types" : [ "administrative_area_level_1", "political" ]
            },
            {
               "long_name" : "United States",
               "short_name" : "US",
               "types" : [ "country", "political" ]
            }
         ],
         "formatted_address" : "Parsippany, NJ 07054, USA",
         "geometry" : {
            "bounds" : {
               "northeast" : {
                  "lat" : 40.892651,
                  "lng" : -74.338036
               },
               "southwest" : {
                  "lat" : 40.824991,
                  "lng" : -74.46842599999999
               }
            },
            "location" : {
               "lat" : 40.8620476,
               "lng" : -74.39393389999999
            },
            "location_type" : "APPROXIMATE",
            "viewport" : {
               "northeast" : {
                  "lat" : 40.892651,
                  "lng" : -74.338036
               },
               "southwest" : {
                  "lat" : 40.824991,
                  "lng" : -74.46842599999999
               }
            }
         },
         "place_id" : "ChIJX7YN__4Hw4kRTyYqISFz2Zc",
         "types" : [ "postal_code" ]
      },
      {
         "address_components" : [
            {
               "long_name" : "Parsippany-Troy Hills",
               "short_name" : "Parsippany-Troy Hills",
               "types" : [ "locality", "political" ]
            },
            {
               "long_name" : "Morris County",
               "short_name" : "Morris County",
               "types" : [ "administrative_area_level_2", "political" ]
            },
            {
               "long_name" : "New Jersey",
               "short_name" : "NJ",
               "types" : [ "administrative_area_level_1", "political" ]
            },
            {
               "long_name" : "United States",
               "short_name" : "US",
               "types" : [ "country", "political" ]
            }
         ],
         "formatted_address" : "Parsippany-Troy Hills, NJ, USA",
         "geometry" : {
            "bounds" : {
               "northeast" : {
                  "lat" : 40.9019109,
                  "lng" : -74.34088
               },
               "southwest" : {
                  "lat" : 40.824991,
                  "lng" : -74.533554
               }
            },
            "location" : {
               "lat" : 40.8652865,
               "lng" : -74.41738769999999
            },
            "location_type" : "APPROXIMATE",
            "viewport" : {
               "northeast" : {
                  "lat" : 40.9019109,
                  "lng" : -74.34088
               },
               "southwest" : {
                  "lat" : 40.824991,
                  "lng" : -74.533554
               }
            }
         },
         "place_id" : "ChIJwyhwKCQIw4kR8CRjsZCYpfY",
         "types" : [ "locality", "political" ]
      },
      {
         "address_components" : [
            {
               "long_name" : "Morris County",
               "short_name" : "Morris County",
               "types" : [ "administrative_area_level_2", "political" ]
            },
            {
               "long_name" : "New Jersey",
               "short_name" : "NJ",
               "types" : [ "administrative_area_level_1", "political" ]
            },
            {
               "long_name" : "United States",
               "short_name" : "US",
               "types" : [ "country", "political" ]
            }
         ],
         "formatted_address" : "Morris County, NJ, USA",
         "geometry" : {
            "bounds" : {
               "northeast" : {
                  "lat" : 41.0860019,
                  "lng" : -74.266638
               },
               "southwest" : {
                  "lat" : 40.649516,
                  "lng" : -74.88975289999999
               }
            },
            "location" : {
               "lat" : 40.8336038,
               "lng" : -74.54632819999999
            },
            "location_type" : "APPROXIMATE",
            "viewport" : {
               "northeast" : {
                  "lat" : 41.0860019,
                  "lng" : -74.266638
               },
               "southwest" : {
                  "lat" : 40.649516,
                  "lng" : -74.88975289999999
               }
            }
         },
         "place_id" : "ChIJye24g0OWw4kRa6osNwPLVyM",
         "types" : [ "administrative_area_level_2", "political" ]
      },
      {
         "address_components" : [
            {
               "long_name" : "New Jersey",
               "short_name" : "New Jersey",
               "types" : [ "administrative_area_level_1", "political" ]
            },
            {
               "long_name" : "United States",
               "short_name" : "US",
               "types" : [ "country", "political" ]
            }
         ],
         "formatted_address" : "New Jersey, USA",
         "geometry" : {
            "bounds" : {
               "northeast" : {
                  "lat" : 41.357423,
                  "lng" : -73.88506
               },
               "southwest" : {
                  "lat" : 38.788657,
                  "lng" : -75.56358609999999
               }
            },
            "location" : {
               "lat" : 40.0583238,
               "lng" : -74.4056612
            },
            "location_type" : "APPROXIMATE",
            "viewport" : {
               "northeast" : {
                  "lat" : 41.357423,
                  "lng" : -73.88506
               },
               "southwest" : {
                  "lat" : 38.788657,
                  "lng" : -75.56358609999999
               }
            }
         },
         "place_id" : "ChIJn0AAnpX7wIkRjW0_-Ad70iw",
         "types" : [ "administrative_area_level_1", "political" ]
      },
      {
         "address_components" : [
            {
               "long_name" : "United States",
               "short_name" : "US",
               "types" : [ "country", "political" ]
            }
         ],
         "formatted_address" : "United States",
         "geometry" : {
            "bounds" : {
               "northeast" : {
                  "lat" : 71.5388001,
                  "lng" : -66.885417
               },
               "southwest" : {
                  "lat" : 18.7763,
                  "lng" : 170.5957
               }
            },
            "location" : {
               "lat" : 37.09024,
               "lng" : -95.712891
            },
            "location_type" : "APPROXIMATE",
            "viewport" : {
               "northeast" : {
                  "lat" : 71.5388001,
                  "lng" : -66.885417
               },
               "southwest" : {
                  "lat" : 18.7763,
                  "lng" : 170.5957
               }
            }
         },
         "place_id" : "ChIJCzYy5IS16lQRQrfeQ5K5Oxw",
         "types" : [ "country", "political" ]
      }
   ],
   "status" : "OK"
}
