{
   "plus_code" : {
      "compound_code" : "JV6G+8M Montpellier, France",
      "global_code" : "8FM5JV6G+8M"
   },
   "results" : [
      {
         "address_components" : [
            {
               "long_name" : "38",
               "short_name" : "38",
               "types" : [ "street_number" ]
            },
            {
               "long_name" : "Rue Pitot",
               "short_name" : "Rue Pitot",
               "types" : [ "route" ]
            },
            {
               "long_name" : "Montpellier",
               "short_name" : "Montpellier",
               "types" : [ "locality", "political" ]
            },
            {
               "long_name" : "France",
               "short_name" : "FR",
               "types" : [ "country", "political" ]
            },
            {
               "long_name" : "34000",
               "short_name" : "34000",
               "types" : [ "postal_code" ]
            }
         ],
         "formatted_address" : "Bis, 38 Rue Pitot, 34000 Montpellier, France",
         "geometry" : {
            "location" : {
               "lat" : 43.610769,
               "lng" : 3.876716
            },
            "location_type" : "ROOFTOP",
            "viewport" : {
               "northeast" : {
                  "lat" : 43.61211798029149,
                  "lng" : 3.878064980291502
               },
               "southwest" : {
                  "lat" : 43.6094200197085,
                  "lng" : 3.875367019708498
               }
            }
         },
         "place_id" : "ChIJWTVwGQivthIRo-AkSjGB_AI",
         "plus_code" : {
            "compound_code" : "JV6G+8M Montpellier, France",
            "global_code" : "8FM5JV6G+8M"
         },
         "types" : [ "establishment", "point_of_interest", "store" ]
      },
      {
         "address_components" : [
            {
               "long_name" : "8",
               "short_name" : "8",
               "types" : [ "street_number" ]
            },
            {
               "long_name" : "Place Martyrs de la Résistance",
               "short_name" : "Place Martyrs de la Résistance",
               "types" : [ "route" ]
            },
            {
               "long_name" : "Montpellier",
               "short_name" : "Montpellier",
               "types" : [ "locality", "political" ]
            },
            {
               "long_name" : "Hérault",
               "short_name" : "Hérault",
               "types" : [ "administrative_area_level_2", "political" ]
            },
            {
               "long_name" : "Occitanie",
               "short_name" : "Occitanie",
               "types" : [ "administrative_area_level_1", "political" ]
            },
            {
               "long_name" : "France",
               "short_name" : "FR",
               "types" : [ "country", "political" ]
            },
            {
               "long_name" : "34000",
               "short_name" : "34000",
               "types" : [ "postal_code" ]
            }
         ],
         "formatted_address" : "8 Place Martyrs de la Résistance, 34000 Montpellier, France",
         "geometry" : {
            "location" : {
               "lat" : 43.6106554,
               "lng" : 3.8767274
            },
            "location_type" : "ROOFTOP",
            "viewport" : {
               "northeast" : {
                  "lat" : 43.6120043802915,
                  "lng" : 3.878076380291502
               },
               "southwest" : {
                  "lat" : 43.6093064197085,
                  "lng" : 3.875378419708498
               }
            }
         },
         "place_id" : "ChIJoV5LGQivthIR85qlpb368BU",
         "plus_code" : {
            "compound_code" : "JV6G+7M Montpellier, France",
            "global_code" : "8FM5JV6G+7M"
         },
         "types" : [ "street_address" ]
      },
      {
         "address_components" : [
            {
               "long_name" : "8",
               "short_name" : "8",
               "types" : [ "street_number" ]
            },
            {
               "long_name" : "Place Martyrs de la Résistance",
               "short_name" : "Place Martyrs de la Résistance",
               "types" : [ "route" ]
            },
            {
               "long_name" : "Montpellier",
               "short_name" : "Montpellier",
               "types" : [ "locality", "political" ]
            },
            {
               "long_name" : "France",
               "short_name" : "FR",
               "types" : [ "country", "political" ]
            },
            {
               "long_name" : "34000",
               "short_name" : "34000",
               "types" : [ "postal_code" ]
            }
         ],
         "formatted_address" : "8 Place Martyrs de la Résistance, 34000 Montpellier, France",
         "geometry" : {
            "location" : {
               "lat" : 43.6106077,
               "lng" : 3.8767652
            },
            "location_type" : "RANGE_INTERPOLATED",
            "viewport" : {
               "northeast" : {
                  "lat" : 43.6119566802915,
                  "lng" : 3.878114180291503
               },
               "southwest" : {
                  "lat" : 43.6092587197085,
                  "lng" : 3.875416219708498
               }
            }
         },
         "place_id" : "Ejw4IFBsYWNlIE1hcnR5cnMgZGUgbGEgUsOpc2lzdGFuY2UsIDM0MDAwIE1vbnRwZWxsaWVyLCBGcmFuY2UiGhIYChQKEgnv0t8YCK-2EhHABH7xj-UJTBAI",
         "types" : [ "street_address" ]
      },
      {
         "address_components" : [
            {
               "long_name" : "Centre Historique",
               "short_name" : "Ctre Historique",
               "types" : [ "neighborhood", "political" ]
            },
            {
               "long_name" : "Montpellier",
               "short_name" : "Montpellier",
               "types" : [ "locality", "political" ]
            },
            {
               "long_name" : "Hérault",
               "short_name" : "Hérault",
               "types" : [ "administrative_area_level_2", "political" ]
            },
            {
               "long_name" : "Occitanie",
               "short_name" : "Occitanie",
               "types" : [ "administrative_area_level_1", "political" ]
            },
            {
               "long_name" : "France",
               "short_name" : "FR",
               "types" : [ "country", "political" ]
            }
         ],
         "formatted_address" : "Ctre Historique, Montpellier, France",
         "geometry" : {
            "bounds" : {
               "northeast" : {
                  "lat" : 43.6154015,
                  "lng" : 3.882959
               },
               "southwest" : {
                  "lat" : 43.6061962,
                  "lng" : 3.8719725
               }
            },
            "location" : {
               "lat" : 43.6115418,
               "lng" : 3.8769847
            },
            "location_type" : "APPROXIMATE",
            "viewport" : {
               "northeast" : {
                  "lat" : 43.6154015,
                  "lng" : 3.882959
               },
               "southwest" : {
                  "lat" : 43.6061962,
                  "lng" : 3.8719725
               }
            }
         },
         "place_id" : "ChIJIWlNdgevthIRkrtGAk-mTqQ",
         "types" : [ "neighborhood", "political" ]
      },
      {
         "address_components" : [
            {
               "long_name" : "34000",
               "short_name" : "34000",
               "types" : [ "postal_code" ]
            },
            {
               "long_name" : "Montpellier",
               "short_name" : "Montpellier",
               "types" : [ "locality", "political" ]
            },
            {
               "long_name" : "Hérault",
               "short_name" : "Hérault",
               "types" : [ "administrative_area_level_2", "political" ]
            },
            {
               "long_name" : "Occitanie",
               "short_name" : "Occitanie",
               "types" : [ "administrative_area_level_1", "political" ]
            },
            {
               "long_name" : "France",
               "short_name" : "FR",
               "types" : [ "country", "political" ]
            }
         ],
         "formatted_address" : "34000 Montpellier, France",
         "geometry" : {
            "bounds" : {
               "northeast" : {
                  "lat" : 43.6290512,
                  "lng" : 3.941479699999999
               },
               "southwest" : {
                  "lat" : 43.5778294,
                  "lng" : 3.8462237
               }
            },
            "location" : {
               "lat" : 43.6047275,
               "lng" : 3.9011747
            },
            "location_type" : "APPROXIMATE",
            "viewport" : {
               "northeast" : {
                  "lat" : 43.6290512,
                  "lng" : 3.941479699999999
               },
               "southwest" : {
                  "lat" : 43.5778294,
                  "lng" : 3.8462237
               }
            }
         },
         "place_id" : "ChIJ766yDpuvthIR0OKMaSSIBxw",
         "types" : [ "postal_code" ]
      },
      {
         "address_components" : [
            {
               "long_name" : "Montpellier",
               "short_name" : "Montpellier",
               "types" : [ "locality", "political" ]
            },
            {
               "long_name" : "Hérault",
               "short_name" : "Hérault",
               "types" : [ "administrative_area_level_2", "political" ]
            },
            {
               "long_name" : "Occitanie",
               "short_name" : "Occitanie",
               "types" : [ "administrative_area_level_1", "political" ]
            },
            {
               "long_name" : "France",
               "short_name" : "FR",
               "types" : [ "country", "political" ]
            }
         ],
         "formatted_address" : "Montpellier, France",
         "geometry" : {
            "bounds" : {
               "northeast" : {
                  "lat" : 43.6532999,
                  "lng" : 3.941279
               },
               "southwest" : {
                  "lat" : 43.566744,
                  "lng" : 3.807044
               }
            },
            "location" : {
               "lat" : 43.610769,
               "lng" : 3.876716
            },
            "location_type" : "APPROXIMATE",
            "viewport" : {
               "northeast" : {
                  "lat" : 43.6532999,
                  "lng" : 3.941279
               },
               "southwest" : {
                  "lat" : 43.566744,
                  "lng" : 3.807044
               }
            }
         },
         "place_id" : "ChIJsZ3dJQevthIRAuiUKHRWh60",
         "types" : [ "locality", "political" ]
      },
      {
         "address_components" : [
            {
               "long_name" : "Hérault",
               "short_name" : "Hérault",
               "types" : [ "administrative_area_level_2", "political" ]
            },
            {
               "long_name" : "Occitanie",
               "short_name" : "Occitanie",
               "types" : [ "administrative_area_level_1", "political" ]
            },
            {
               "long_name" : "France",
               "short_name" : "FR",
               "types" : [ "country", "political" ]
            }
         ],
         "formatted_address" : "Hérault, France",
         "geometry" : {
            "bounds" : {
               "northeast" : {
                  "lat" : 43.9727599,
                  "lng" : 4.1945401
               },
               "southwest" : {
                  "lat" : 43.2102099,
                  "lng" : 2.539549
               }
            },
            "location" : {
               "lat" : 43.5912356,
               "lng" : 3.2583626
            },
            "location_type" : "APPROXIMATE",
            "viewport" : {
               "northeast" : {
                  "lat" : 43.9727599,
                  "lng" : 4.1945401
               },
               "southwest" : {
                  "lat" : 43.2102099,
                  "lng" : 2.539549
               }
            }
         },
         "place_id" : "ChIJ7TGrfiZmsRIRoCdlFiGIBwM",
         "types" : [ "administrative_area_level_2", "political" ]
      },
      {
         "address_components" : [
            {
               "long_name" : "Occitanie",
               "short_name" : "Occitanie",
               "types" : [ "administrative_area_level_1", "political" ]
            },
            {
               "long_name" : "France",
               "short_name" : "FR",
               "types" : [ "country", "political" ]
            }
         ],
         "formatted_address" : "Occitanie, France",
         "geometry" : {
            "bounds" : {
               "northeast" : {
                  "lat" : 45.046684,
                  "lng" : 4.8455639
               },
               "southwest" : {
                  "lat" : 42.333014,
                  "lng" : -0.327159
               }
            },
            "location" : {
               "lat" : 43.8927232,
               "lng" : 3.2827625
            },
            "location_type" : "APPROXIMATE",
            "viewport" : {
               "northeast" : {
                  "lat" : 45.046684,
                  "lng" : 4.8455639
               },
               "southwest" : {
                  "lat" : 42.333014,
                  "lng" : -0.327159
               }
            }
         },
         "place_id" : "ChIJR21206wDshIRXMk7aLMSs6s",
         "types" : [ "administrative_area_level_1", "political" ]
      },
      {
         "address_components" : [
            {
               "long_name" : "France",
               "short_name" : "FR",
               "types" : [ "country", "political" ]
            }
         ],
         "formatted_address" : "France",
         "geometry" : {
            "bounds" : {
               "northeast" : {
                  "lat" : 51.1241999,
                  "lng" : 9.6624999
               },
               "southwest" : {
                  "lat" : 41.31433,
                  "lng" : -5.5591
               }
            },
            "location" : {
               "lat" : 46.227638,
               "lng" : 2.213749
            },
            "location_type" : "APPROXIMATE",
            "viewport" : {
               "northeast" : {
                  "lat" : 51.1241999,
                  "lng" : 9.6624999
               },
               "southwest" : {
                  "lat" : 41.31433,
                  "lng" : -5.5591
               }
            }
         },
         "place_id" : "ChIJMVd4MymgVA0R99lHx5Y__Ws",
         "types" : [ "country", "political" ]
      }
   ],
   "status" : "OK"
}
