{
   "plus_code" : {
      "compound_code" : "6H5C+53 Qiryat Shemona, Israel",
      "global_code" : "8G5Q6H5C+53"
   },
   "results" : [
      {
         "address_components" : [
            {
               "long_name" : "Qiryat Shemona",
               "short_name" : "ק\"ש",
               "types" : [ "locality", "political" ]
            },
            {
               "long_name" : "Israel",
               "short_name" : "IL",
               "types" : [ "country", "political" ]
            }
         ],
         "formatted_address" : "קניון נחמיה, Qiryat Shemona, Israel",
         "geometry" : {
            "location" : {
               "lat" : 33.207933,
               "lng" : 35.570246
            },
            "location_type" : "GEOMETRIC_CENTER",
            "viewport" : {
               "northeast" : {
                  "lat" : 33.20928198029149,
                  "lng" : 35.5715949802915
               },
               "southwest" : {
                  "lat" : 33.20658401970849,
                  "lng" : 35.5688970197085
               }
            }
         },
         "place_id" : "ChIJO7OtEFS9HhURHJTJ0kEaFgA",
         "types" : [ "establishment", "point_of_interest" ]
      },
      {
         "address_components" : [
            {
               "long_name" : "Qiryat Shemona",
               "short_name" : "Qiryat Shemona",
               "types" : [ "locality", "political" ]
            },
            {
               "long_name" : "Tzfat",
               "short_name" : "Tzfat",
               "types" : [ "administrative_area_level_2", "political" ]
            },
            {
               "long_name" : "North District",
               "short_name" : "North District",
               "types" : [ "administrative_area_level_1", "political" ]
            },
            {
               "long_name" : "Israel",
               "short_name" : "IL",
               "types" : [ "country", "political" ]
            }
         ],
         "formatted_address" : "Qiryat Shemona, Israel",
         "geometry" : {
            "bounds" : {
               "northeast" : {
                  "lat" : 33.23238000000001,
                  "lng" : 35.6030119
               },
               "southwest" : {
                  "lat" : 33.1897789,
                  "lng" : 35.549506
               }
            },
            "location" : {
               "lat" : 33.207933,
               "lng" : 35.570246
            },
            "location_type" : "APPROXIMATE",
            "viewport" : {
               "northeast" : {
                  "lat" : 33.23238000000001,
                  "lng" : 35.6030119
               },
               "southwest" : {
                  "lat" : 33.1897789,
                  "lng" : 35.549506
               }
            }
         },
         "place_id" : "ChIJSbStEFS9HhURrbtscsZJZDk",
         "types" : [ "locality", "political" ]
      },
      {
         "address_components" : [
            {
               "long_name" : "Emek Hulah",
               "short_name" : "Emek Hulah",
               "types" : [ "administrative_area_level_3", "political" ]
            },
            {
               "long_name" : "Tzfat",
               "short_name" : "Tzfat",
               "types" : [ "administrative_area_level_2", "political" ]
            },
            {
               "long_name" : "North District",
               "short_name" : "North District",
               "types" : [ "administrative_area_level_1", "political" ]
            },
            {
               "long_name" : "Israel",
               "short_name" : "IL",
               "types" : [ "country", "political" ]
            }
         ],
         "formatted_address" : "Emek Hulah, Israel",
         "geometry" : {
            "bounds" : {
               "northeast" : {
                  "lat" : 33.2908349,
                  "lng" : 35.685049
               },
               "southwest" : {
                  "lat" : 33.014833,
                  "lng" : 35.549506
               }
            },
            "location" : {
               "lat" : 33.1390736,
               "lng" : 35.5876697
            },
            "location_type" : "APPROXIMATE",
            "viewport" : {
               "northeast" : {
                  "lat" : 33.2908349,
                  "lng" : 35.685049
               },
               "southwest" : {
                  "lat" : 33.014833,
                  "lng" : 35.549506
               }
            }
         },
         "place_id" : "ChIJJTYNuO6hHhURPfYAXnMcaDk",
         "types" : [ "administrative_area_level_3", "political" ]
      },
      {
         "address_components" : [
            {
               "long_name" : "Tzfat",
               "short_name" : "Tzfat",
               "types" : [ "administrative_area_level_2", "political" ]
            },
            {
               "long_name" : "North District",
               "short_name" : "North District",
               "types" : [ "administrative_area_level_1", "political" ]
            },
            {
               "long_name" : "Israel",
               "short_name" : "IL",
               "types" : [ "country", "political" ]
            }
         ],
         "formatted_address" : "Tzfat, Israel",
         "geometry" : {
            "bounds" : {
               "northeast" : {
                  "lat" : 33.2908349,
                  "lng" : 35.685049
               },
               "southwest" : {
                  "lat" : 32.8768309,
                  "lng" : 35.3617889
               }
            },
            "location" : {
               "lat" : 33.0229939,
               "lng" : 35.5220012
            },
            "location_type" : "APPROXIMATE",
            "viewport" : {
               "northeast" : {
                  "lat" : 33.2908349,
                  "lng" : 35.685049
               },
               "southwest" : {
                  "lat" : 32.8768309,
                  "lng" : 35.3617889
               }
            }
         },
         "place_id" : "ChIJl21OH7WfHhURUnJ3rYxKBBE",
         "types" : [ "administrative_area_level_2", "political" ]
      },
      {
         "address_components" : [
            {
               "long_name" : "North District",
               "short_name" : "North District",
               "types" : [ "administrative_area_level_1", "political" ]
            },
            {
               "long_name" : "Israel",
               "short_name" : "IL",
               "types" : [ "country", "political" ]
            }
         ],
         "formatted_address" : "North District, Israel",
         "geometry" : {
            "bounds" : {
               "northeast" : {
                  "lat" : 33.33280500000001,
                  "lng" : 35.896244
               },
               "southwest" : {
                  "lat" : 32.3869671,
                  "lng" : 35.0272979
               }
            },
            "location" : {
               "lat" : 32.8972246,
               "lng" : 35.3027226
            },
            "location_type" : "APPROXIMATE",
            "viewport" : {
               "northeast" : {
                  "lat" : 33.33280500000001,
                  "lng" : 35.896244
               },
               "southwest" : {
                  "lat" : 32.3869671,
                  "lng" : 35.0272979
               }
            }
         },
         "place_id" : "ChIJdVSqdIk3HBURL7ZpTXHxZaU",
         "types" : [ "administrative_area_level_1", "political" ]
      },
      {
         "address_components" : [
            {
               "long_name" : "Israel",
               "short_name" : "IL",
               "types" : [ "country", "political" ]
            }
         ],
         "formatted_address" : "Israel",
         "geometry" : {
            "bounds" : {
               "northeast" : {
                  "lat" : 33.33280500000001,
                  "lng" : 35.896244
               },
               "southwest" : {
                  "lat" : 29.47969999999999,
                  "lng" : 34.2673871
               }
            },
            "location" : {
               "lat" : 31.046051,
               "lng" : 34.851612
            },
            "location_type" : "APPROXIMATE",
            "viewport" : {
               "northeast" : {
                  "lat" : 33.33280500000001,
                  "lng" : 35.896244
               },
               "southwest" : {
                  "lat" : 29.47969999999999,
                  "lng" : 34.2673871
               }
            }
         },
         "place_id" : "ChIJi8mnMiRJABURuiw1EyBCa2o",
         "types" : [ "country", "political" ]
      }
   ],
   "status" : "OK"
}
