{
   "plus_code" : {
      "compound_code" : "92HF+68 Seville, Spain",
      "global_code" : "8C9P92HF+68"
   },
   "results" : [
      {
         "address_components" : [
            {
               "long_name" : "1",
               "short_name" : "1",
               "types" : [ "street_number" ]
            },
            {
               "long_name" : "Avenida de Ramón y Cajal",
               "short_name" : "Av. de Ramón y Cajal",
               "types" : [ "route" ]
            },
            {
               "long_name" : "Sevilla",
               "short_name" : "Sevilla",
               "types" : [ "locality", "political" ]
            },
            {
               "long_name" : "Sevilla",
               "short_name" : "Sevilla",
               "types" : [ "administrative_area_level_2", "political" ]
            },
            {
               "long_name" : "Andalucía",
               "short_name" : "AL",
               "types" : [ "administrative_area_level_1", "political" ]
            },
            {
               "long_name" : "Spain",
               "short_name" : "ES",
               "types" : [ "country", "political" ]
            },
            {
               "long_name" : "41018",
               "short_name" : "41018",
               "types" : [ "postal_code" ]
            }
         ],
         "formatted_address" : "Av. de Ramón y Cajal, 1, 41018 Sevilla, Spain",
         "geometry" : {
            "location" : {
               "lat" : 37.37804,
               "lng" : -5.976725
            },
            "location_type" : "ROOFTOP",
            "viewport" : {
               "northeast" : {
                  "lat" : 37.3793889802915,
                  "lng" : -5.975376019708498
               },
               "southwest" : {
                  "lat" : 37.3766910197085,
                  "lng" : -5.978073980291502
               }
            }
         },
         "place_id" : "ChIJn8KWPZluEg0RAPhzSYGpS5s",
         "plus_code" : {
            "compound_code" : "92HF+68 Seville, Spain",
            "global_code" : "8C9P92HF+68"
         },
         "types" : [ "establishment", "point_of_interest", "university" ]
      },
      {
         "address_components" : [
            {
               "long_name" : "Facultad de Ciencias Económicas y Empresariales",
               "short_name" : "Facultad de Ciencias Económicas y Empresariales",
               "types" : [ "premise" ]
            },
            {
               "long_name" : "1",
               "short_name" : "1",
               "types" : [ "street_number" ]
            },
            {
               "long_name" : "Avenida de Ramón y Cajal",
               "short_name" : "Av. de Ramón y Cajal",
               "types" : [ "route" ]
            },
            {
               "long_name" : "Sevilla",
               "short_name" : "Sevilla",
               "types" : [ "locality", "political" ]
            },
            {
               "long_name" : "Sevilla",
               "short_name" : "Sevilla",
               "types" : [ "administrative_area_level_2", "political" ]
            },
            {
               "long_name" : "Andalucía",
               "short_name" : "AL",
               "types" : [ "administrative_area_level_1", "political" ]
            },
            {
               "long_name" : "Spain",
               "short_name" : "ES",
               "types" : [ "country", "political" ]
            },
            {
               "long_name" : "41018",
               "short_name" : "41018",
               "types" : [ "postal_code" ]
            }
         ],
         "formatted_address" : "Facultad de Ciencias Económicas y Empresariales, Av. de Ramón y Cajal, 1, 41018 Sevilla, Spain",
         "geometry" : {
            "bounds" : {
               "northeast" : {
                  "lat" : 37.3786286,
                  "lng" : -5.9757924
               },
               "southwest" : {
                  "lat" : 37.3777954,
                  "lng" : -5.97712
               }
            },
            "location" : {
               "lat" : 37.3783024,
               "lng" : -5.976362
            },
            "location_type" : "ROOFTOP",
            "viewport" : {
               "northeast" : {
                  "lat" : 37.37956098029149,
                  "lng" : -5.975107219708497
               },
               "southwest" : {
                  "lat" : 37.37686301970849,
                  "lng" : -5.977805180291502
               }
            }
         },
         "place_id" : "ChIJm8S8GZluEg0RyXBj7lyfTr4",
         "types" : [ "premise" ]
      },
      {
         "address_components" : [
            {
               "long_name" : "1",
               "short_name" : "1",
               "types" : [ "street_number" ]
            },
            {
               "long_name" : "Avenida de Ramón y Cajal",
               "short_name" : "Av. de Ramón y Cajal",
               "types" : [ "route" ]
            },
            {
               "long_name" : "Sevilla",
               "short_name" : "Sevilla",
               "types" : [ "locality", "political" ]
            },
            {
               "long_name" : "Sevilla",
               "short_name" : "Sevilla",
               "types" : [ "administrative_area_level_2", "political" ]
            },
            {
               "long_name" : "Andalucía",
               "short_name" : "AL",
               "types" : [ "administrative_area_level_1", "political" ]
            },
            {
               "long_name" : "Spain",
               "short_name" : "ES",
               "types" : [ "country", "political" ]
            },
            {
               "long_name" : "41018",
               "short_name" : "41018",
               "types" : [ "postal_code" ]
            }
         ],
         "formatted_address" : "Av. de Ramón y Cajal, 1, 41018 Sevilla, Spain",
         "geometry" : {
            "location" : {
               "lat" : 37.3782297,
               "lng" : -5.9765095
            },
            "location_type" : "ROOFTOP",
            "viewport" : {
               "northeast" : {
                  "lat" : 37.3795786802915,
                  "lng" : -5.975160519708497
               },
               "southwest" : {
                  "lat" : 37.3768807197085,
                  "lng" : -5.977858480291502
               }
            }
         },
         "place_id" : "ChIJYYIiPZluEg0RL128qivGmDU",
         "plus_code" : {
            "compound_code" : "92HF+79 Seville, Spain",
            "global_code" : "8C9P92HF+79"
         },
         "types" : [ "street_address" ]
      },
      {
         "address_components" : [
            {
               "long_name" : "1",
               "short_name" : "1",
               "types" : [ "street_number" ]
            },
            {
               "long_name" : "Avenida de Ramón y Cajal",
               "short_name" : "Av. de Ramón y Cajal",
               "types" : [ "route" ]
            },
            {
               "long_name" : "Sevilla",
               "short_name" : "Sevilla",
               "types" : [ "locality", "political" ]
            },
            {
               "long_name" : "Sevilla",
               "short_name" : "Sevilla",
               "types" : [ "administrative_area_level_2", "political" ]
            },
            {
               "long_name" : "Spain",
               "short_name" : "ES",
               "types" : [ "country", "political" ]
            },
            {
               "long_name" : "41018",
               "short_name" : "41018",
               "types" : [ "postal_code" ]
            }
         ],
         "formatted_address" : "Av. de Ramón y Cajal, 1, 41018 Sevilla, Spain",
         "geometry" : {
            "location" : {
               "lat" : 37.3778468,
               "lng" : -5.9769994
            },
            "location_type" : "RANGE_INTERPOLATED",
            "viewport" : {
               "northeast" : {
                  "lat" : 37.3791957802915,
                  "lng" : -5.975650419708497
               },
               "southwest" : {
                  "lat" : 37.3764978197085,
                  "lng" : -5.978348380291502
               }
            }
         },
         "place_id" : "EjBBdi4gZGUgUmFtw7NuIHkgQ2FqYWwsIDEsIDQxMDE4IFNldmlsbGEsIEVzcGHDsWEiGhIYChQKEglxQcY6mW4SDRE6V9MR-x5zwRAB",
         "types" : [ "street_address" ]
      },
      {
         "address_components" : [
            {
               "long_name" : "41018",
               "short_name" : "41018",
               "types" : [ "postal_code" ]
            },
            {
               "long_name" : "Seville",
               "short_name" : "Seville",
               "types" : [ "locality", "political" ]
            },
            {
               "long_name" : "Seville",
               "short_name" : "Seville",
               "types" : [ "administrative_area_level_2", "political" ]
            },
            {
               "long_name" : "Andalusia",
               "short_name" : "AL",
               "types" : [ "administrative_area_level_1", "political" ]
            },
            {
               "long_name" : "Spain",
               "short_name" : "ES",
               "types" : [ "country", "political" ]
            }
         ],
         "formatted_address" : "41018 Seville, Spain",
         "geometry" : {
            "bounds" : {
               "northeast" : {
                  "lat" : 37.3918132,
                  "lng" : -5.9725139
               },
               "southwest" : {
                  "lat" : 37.3767327,
                  "lng" : -5.9842579
               }
            },
            "location" : {
               "lat" : 37.3838341,
               "lng" : -5.9806139
            },
            "location_type" : "APPROXIMATE",
            "viewport" : {
               "northeast" : {
                  "lat" : 37.3918132,
                  "lng" : -5.9725139
               },
               "southwest" : {
                  "lat" : 37.3767327,
                  "lng" : -5.9842579
               }
            }
         },
         "place_id" : "ChIJfeEPgqFuEg0RsGinyABkBBw",
         "types" : [ "postal_code" ]
      },
      {
         "address_components" : [
            {
               "long_name" : "Seville",
               "short_name" : "Seville",
               "types" : [ "locality", "political" ]
            },
            {
               "long_name" : "Seville",
               "short_name" : "Seville",
               "types" : [ "administrative_area_level_2", "political" ]
            },
            {
               "long_name" : "Andalusia",
               "short_name" : "AL",
               "types" : [ "administrative_area_level_1", "political" ]
            },
            {
               "long_name" : "Spain",
               "short_name" : "ES",
               "types" : [ "country", "political" ]
            }
         ],
         "formatted_address" : "Seville, Spain",
         "geometry" : {
            "bounds" : {
               "northeast" : {
                  "lat" : 37.4355212,
                  "lng" : -5.8884587
               },
               "southwest" : {
                  "lat" : 37.3152203,
                  "lng" : -6.0216578
               }
            },
            "location" : {
               "lat" : 37.3890924,
               "lng" : -5.9844589
            },
            "location_type" : "APPROXIMATE",
            "viewport" : {
               "northeast" : {
                  "lat" : 37.4355212,
                  "lng" : -5.8884587
               },
               "southwest" : {
                  "lat" : 37.3152203,
                  "lng" : -6.0216578
               }
            }
         },
         "place_id" : "ChIJkWK-FBFsEg0RSFb-HGIY8DQ",
         "types" : [ "locality", "political" ]
      },
      {
         "address_components" : [
            {
               "long_name" : "Seville",
               "short_name" : "Seville",
               "types" : [ "administrative_area_level_4", "political" ]
            },
            {
               "long_name" : "Seville",
               "short_name" : "Seville",
               "types" : [ "administrative_area_level_2", "political" ]
            },
            {
               "long_name" : "Andalusia",
               "short_name" : "AL",
               "types" : [ "administrative_area_level_1", "political" ]
            },
            {
               "long_name" : "Spain",
               "short_name" : "ES",
               "types" : [ "country", "political" ]
            }
         ],
         "formatted_address" : "Seville, Spain",
         "geometry" : {
            "bounds" : {
               "northeast" : {
                  "lat" : 37.45295790000001,
                  "lng" : -5.8191571
               },
               "southwest" : {
                  "lat" : 37.30020349999999,
                  "lng" : -6.0329204
               }
            },
            "location" : {
               "lat" : 37.3891038,
               "lng" : -5.9844445
            },
            "location_type" : "APPROXIMATE",
            "viewport" : {
               "northeast" : {
                  "lat" : 37.45295790000001,
                  "lng" : -5.8191571
               },
               "southwest" : {
                  "lat" : 37.30020349999999,
                  "lng" : -6.0329204
               }
            }
         },
         "place_id" : "ChIJLdjgcRFvEg0Rf_ir9yNTdYA",
         "types" : [ "administrative_area_level_4", "political" ]
      },
      {
         "address_components" : [
            {
               "long_name" : "Área Metropolitana de Sevilla",
               "short_name" : "Área Metropolitana de Sevilla",
               "types" : [ "administrative_area_level_3", "political" ]
            },
            {
               "long_name" : "Sevilla",
               "short_name" : "Sevilla",
               "types" : [ "administrative_area_level_2", "political" ]
            },
            {
               "long_name" : "Andalucía",
               "short_name" : "AL",
               "types" : [ "administrative_area_level_1", "political" ]
            },
            {
               "long_name" : "Spain",
               "short_name" : "ES",
               "types" : [ "country", "political" ]
            }
         ],
         "formatted_address" : "Área Metropolitana de Sevilla, Sevilla, Spain",
         "geometry" : {
            "bounds" : {
               "northeast" : {
                  "lat" : 37.5437354,
                  "lng" : -5.649545199999999
               },
               "southwest" : {
                  "lat" : 36.8936488,
                  "lng" : -6.2899214
               }
            },
            "location" : {
               "lat" : 37.3890924,
               "lng" : -5.984430199999999
            },
            "location_type" : "APPROXIMATE",
            "viewport" : {
               "northeast" : {
                  "lat" : 37.5437354,
                  "lng" : -5.649545199999999
               },
               "southwest" : {
                  "lat" : 36.8936488,
                  "lng" : -6.2899214
               }
            }
         },
         "place_id" : "ChIJY-4pqbt2Eg0Rlgb5UqgJnh0",
         "types" : [ "administrative_area_level_3", "political" ]
      },
      {
         "address_components" : [
            {
               "long_name" : "Seville",
               "short_name" : "Seville",
               "types" : [ "administrative_area_level_2", "political" ]
            },
            {
               "long_name" : "Andalusia",
               "short_name" : "AL",
               "types" : [ "administrative_area_level_1", "political" ]
            },
            {
               "long_name" : "Spain",
               "short_name" : "ES",
               "types" : [ "country", "political" ]
            }
         ],
         "formatted_address" : "Seville, Spain",
         "geometry" : {
            "bounds" : {
               "northeast" : {
                  "lat" : 38.1974171,
                  "lng" : -4.6533503
               },
               "southwest" : {
                  "lat" : 36.8421916,
                  "lng" : -6.5385145
               }
            },
            "location" : {
               "lat" : 37.3376829,
               "lng" : -5.5617279
            },
            "location_type" : "APPROXIMATE",
            "viewport" : {
               "northeast" : {
                  "lat" : 38.1974171,
                  "lng" : -4.6533503
               },
               "southwest" : {
                  "lat" : 36.8421916,
                  "lng" : -6.5385145
               }
            }
         },
         "place_id" : "ChIJadFr4dryEg0RwMufjP1jBAM",
         "types" : [ "administrative_area_level_2", "political" ]
      },
      {
         "address_components" : [
            {
               "long_name" : "Andalusia",
               "short_name" : "Andalusia",
               "types" : [ "administrative_area_level_1", "political" ]
            },
            {
               "long_name" : "Spain",
               "short_name" : "ES",
               "types" : [ "country", "political" ]
            }
         ],
         "formatted_address" : "Andalusia, Spain",
         "geometry" : {
            "bounds" : {
               "northeast" : {
                  "lat" : 38.7290872,
                  "lng" : -1.6301238
               },
               "southwest" : {
                  "lat" : 35.9376148,
                  "lng" : -7.522877500000001
               }
            },
            "location" : {
               "lat" : 37.5442706,
               "lng" : -4.7277528
            },
            "location_type" : "APPROXIMATE",
            "viewport" : {
               "northeast" : {
                  "lat" : 38.7290872,
                  "lng" : -1.6301238
               },
               "southwest" : {
                  "lat" : 35.9376148,
                  "lng" : -7.522877500000001
               }
            }
         },
         "place_id" : "ChIJRcWdz7HZEQ0RD_Pxd01lycE",
         "types" : [ "administrative_area_level_1", "political" ]
      },
      {
         "address_components" : [
            {
               "long_name" : "Spain",
               "short_name" : "ES",
               "types" : [ "country", "political" ]
            }
         ],
         "formatted_address" : "Spain",
         "geometry" : {
            "bounds" : {
               "northeast" : {
                  "lat" : 43.8504,
                  "lng" : 4.6362
               },
               "southwest" : {
                  "lat" : 27.4985,
                  "lng" : -18.2648001
               }
            },
            "location" : {
               "lat" : 40.46366700000001,
               "lng" : -3.74922
            },
            "location_type" : "APPROXIMATE",
            "viewport" : {
               "northeast" : {
                  "lat" : 43.8504,
                  "lng" : 4.6362
               },
               "southwest" : {
                  "lat" : 27.4985,
                  "lng" : -18.2648001
               }
            }
         },
         "place_id" : "ChIJi7xhMnjjQgwR7KNoB5Qs7KY",
         "types" : [ "country", "political" ]
      }
   ],
   "status" : "OK"
}
