{
   "plus_code" : {
      "compound_code" : "4RW3+Q4 Montevideo, Montevideo Department, Uruguay",
      "global_code" : "48Q54RW3+Q4"
   },
   "results" : [
      {
         "address_components" : [
            {
               "long_name" : "4014",
               "short_name" : "4014",
               "types" : [ "street_number" ]
            },
            {
               "long_name" : "Avenida Millán",
               "short_name" : "Av Millán",
               "types" : [ "route" ]
            },
            {
               "long_name" : "Montevideo",
               "short_name" : "Montevideo",
               "types" : [ "locality", "political" ]
            },
            {
               "long_name" : "Montevideo",
               "short_name" : "Montevideo",
               "types" : [ "administrative_area_level_1", "political" ]
            },
            {
               "long_name" : "Uruguay",
               "short_name" : "UY",
               "types" : [ "country", "political" ]
            },
            {
               "long_name" : "11700",
               "short_name" : "11700",
               "types" : [ "postal_code" ]
            }
         ],
         "formatted_address" : "Av Millán 4014, 11700 Montevideo, Uruguay",
         "geometry" : {
            "location" : {
               "lat" : -34.8531344,
               "lng" : -56.19714699999999
            },
            "location_type" : "ROOFTOP",
            "viewport" : {
               "northeast" : {
                  "lat" : -34.8517854197085,
                  "lng" : -56.1957980197085
               },
               "southwest" : {
                  "lat" : -34.8544833802915,
                  "lng" : -56.19849598029149
               }
            }
         },
         "place_id" : "ChIJy8qWurYqoJURwIFcySH5Q9A",
         "plus_code" : {
            "compound_code" : "4RW3+P4 Montevideo, Montevideo Department, Uruguay",
            "global_code" : "48Q54RW3+P4"
         },
         "types" : [ "street_address" ]
      },
      {
         "address_components" : [
            {
               "long_name" : "3990",
               "short_name" : "3990",
               "types" : [ "street_number" ]
            },
            {
               "long_name" : "Avenida Millán",
               "short_name" : "Av Millán",
               "types" : [ "route" ]
            },
            {
               "long_name" : "Montevideo",
               "short_name" : "Montevideo",
               "types" : [ "locality", "political" ]
            },
            {
               "long_name" : "Montevideo",
               "short_name" : "Montevideo",
               "types" : [ "administrative_area_level_1", "political" ]
            },
            {
               "long_name" : "Uruguay",
               "short_name" : "UY",
               "types" : [ "country", "political" ]
            },
            {
               "long_name" : "11700",
               "short_name" : "11700",
               "types" : [ "postal_code" ]
            }
         ],
         "formatted_address" : "Av Millán 3990, 11700 Montevideo, Uruguay",
         "geometry" : {
            "location" : {
               "lat" : -34.853328,
               "lng" : -56.197174
            },
            "location_type" : "ROOFTOP",
            "viewport" : {
               "northeast" : {
                  "lat" : -34.8519790197085,
                  "lng" : -56.1958250197085
               },
               "southwest" : {
                  "lat" : -34.8546769802915,
                  "lng" : -56.1985229802915
               }
            }
         },
         "place_id" : "ChIJ53bwS7EqoJURWnD8tQ_YqUE",
         "plus_code" : {
            "compound_code" : "4RW3+M4 Montevideo, Montevideo Department, Uruguay",
            "global_code" : "48Q54RW3+M4"
         },
         "types" : [ "establishment", "point_of_interest" ]
      },
      {
         "address_components" : [
            {
               "long_name" : "4016",
               "short_name" : "4016",
               "types" : [ "street_number" ]
            },
            {
               "long_name" : "Avenida Millán",
               "short_name" : "Av Millán",
               "types" : [ "route" ]
            },
            {
               "long_name" : "Montevideo",
               "short_name" : "Montevideo",
               "types" : [ "locality", "political" ]
            },
            {
               "long_name" : "Montevideo",
               "short_name" : "Montevideo",
               "types" : [ "administrative_area_level_1", "political" ]
            },
            {
               "long_name" : "Uruguay",
               "short_name" : "UY",
               "types" : [ "country", "political" ]
            },
            {
               "long_name" : "11700",
               "short_name" : "11700",
               "types" : [ "postal_code" ]
            }
         ],
         "formatted_address" : "Av Millán 4016, 11700 Montevideo, Uruguay",
         "geometry" : {
            "location" : {
               "lat" : -34.8530768,
               "lng" : -56.19728920000001
            },
            "location_type" : "RANGE_INTERPOLATED",
            "viewport" : {
               "northeast" : {
                  "lat" : -34.8517278197085,
                  "lng" : -56.19594021970851
               },
               "southwest" : {
                  "lat" : -34.85442578029149,
                  "lng" : -56.19863818029151
               }
            }
         },
         "place_id" : "EipBdiBNaWxsw6FuIDQwMTYsIDExNzAwIE1vbnRldmlkZW8sIFVydWd1YXkiGxIZChQKEgnz0kCjtiqglRFIf_z0abOPWBCwHw",
         "types" : [ "street_address" ]
      },
      {
         "address_components" : [
            {
               "long_name" : "Aires Puros",
               "short_name" : "Aires Puros",
               "types" : [ "neighborhood", "political" ]
            },
            {
               "long_name" : "Montevideo",
               "short_name" : "Montevideo",
               "types" : [ "locality", "political" ]
            },
            {
               "long_name" : "Montevideo Department",
               "short_name" : "Montevideo Department",
               "types" : [ "administrative_area_level_1", "political" ]
            },
            {
               "long_name" : "Uruguay",
               "short_name" : "UY",
               "types" : [ "country", "political" ]
            }
         ],
         "formatted_address" : "Aires Puros, Montevideo, Montevideo Department, Uruguay",
         "geometry" : {
            "bounds" : {
               "northeast" : {
                  "lat" : -34.8443455,
                  "lng" : -56.1786319
               },
               "southwest" : {
                  "lat" : -34.8610738,
                  "lng" : -56.1974716
               }
            },
            "location" : {
               "lat" : -34.8538666,
               "lng" : -56.1895778
            },
            "location_type" : "APPROXIMATE",
            "viewport" : {
               "northeast" : {
                  "lat" : -34.8443455,
                  "lng" : -56.1786319
               },
               "southwest" : {
                  "lat" : -34.8610738,
                  "lng" : -56.1974716
               }
            }
         },
         "place_id" : "ChIJcY7RubsqoJURz1snuPYQtBA",
         "types" : [ "neighborhood", "political" ]
      },
      {
         "address_components" : [
            {
               "long_name" : "11700",
               "short_name" : "11700",
               "types" : [ "postal_code" ]
            },
            {
               "long_name" : "Montevideo",
               "short_name" : "Montevideo",
               "types" : [ "locality", "political" ]
            },
            {
               "long_name" : "Montevideo Department",
               "short_name" : "Montevideo Department",
               "types" : [ "administrative_area_level_1", "political" ]
            },
            {
               "long_name" : "Uruguay",
               "short_name" : "UY",
               "types" : [ "country", "political" ]
            }
         ],
         "formatted_address" : "11700 Montevideo, Montevideo Department, Uruguay",
         "geometry" : {
            "bounds" : {
               "northeast" : {
                  "lat" : -34.8464852,
                  "lng" : -56.1681389
               },
               "southwest" : {
                  "lat" : -34.8773673,
                  "lng" : -56.2257957
               }
            },
            "location" : {
               "lat" : -34.8638333,
               "lng" : -56.1979541
            },
            "location_type" : "APPROXIMATE",
            "viewport" : {
               "northeast" : {
                  "lat" : -34.8464852,
                  "lng" : -56.1681389
               },
               "southwest" : {
                  "lat" : -34.8773673,
                  "lng" : -56.2257957
               }
            }
         },
         "place_id" : "ChIJxzdCka4qoJURxRvWc8SDQRY",
         "types" : [ "postal_code" ]
      },
      {
         "address_components" : [
            {
               "long_name" : "Limites Seccional 12 de Policia",
               "short_name" : "Limites Seccional 12 de Policia",
               "types" : [ "political" ]
            },
            {
               "long_name" : "Montevideo",
               "short_name" : "Montevideo",
               "types" : [ "locality", "political" ]
            },
            {
               "long_name" : "Montevideo",
               "short_name" : "Montevideo",
               "types" : [ "administrative_area_level_1", "political" ]
            },
            {
               "long_name" : "Uruguay",
               "short_name" : "UY",
               "types" : [ "country", "political" ]
            }
         ],
         "formatted_address" : "Limites Seccional 12 de Policia, Montevideo, Uruguay",
         "geometry" : {
            "bounds" : {
               "northeast" : {
                  "lat" : -34.8330212,
                  "lng" : -56.1445034
               },
               "southwest" : {
                  "lat" : -34.8713908,
                  "lng" : -56.1975038
               }
            },
            "location" : {
               "lat" : -34.8470362,
               "lng" : -56.175619
            },
            "location_type" : "APPROXIMATE",
            "viewport" : {
               "northeast" : {
                  "lat" : -34.8330212,
                  "lng" : -56.1445034
               },
               "southwest" : {
                  "lat" : -34.8713908,
                  "lng" : -56.1975038
               }
            }
         },
         "place_id" : "ChIJxRyTxJoqoJURD08xyY_kCww",
         "types" : [ "political" ]
      },
      {
         "address_components" : [
            {
               "long_name" : "Montevideo",
               "short_name" : "Montevideo",
               "types" : [ "locality", "political" ]
            },
            {
               "long_name" : "Montevideo Department",
               "short_name" : "Montevideo Department",
               "types" : [ "administrative_area_level_1", "political" ]
            },
            {
               "long_name" : "Uruguay",
               "short_name" : "UY",
               "types" : [ "country", "political" ]
            }
         ],
         "formatted_address" : "Montevideo, Montevideo Department, Uruguay",
         "geometry" : {
            "bounds" : {
               "northeast" : {
                  "lat" : -34.70193,
                  "lng" : -56.023407
               },
               "southwest" : {
                  "lat" : -34.9402666,
                  "lng" : -56.4494704
               }
            },
            "location" : {
               "lat" : -34.9011127,
               "lng" : -56.16453139999999
            },
            "location_type" : "APPROXIMATE",
            "viewport" : {
               "northeast" : {
                  "lat" : -34.70193,
                  "lng" : -56.023407
               },
               "southwest" : {
                  "lat" : -34.9402666,
                  "lng" : -56.4494704
               }
            }
         },
         "place_id" : "ChIJ0_c7xv-An5URmexbNS4bMms",
         "types" : [ "locality", "political" ]
      },
      {
         "address_components" : [
            {
               "long_name" : "Montevideo Department",
               "short_name" : "Montevideo Department",
               "types" : [ "administrative_area_level_1", "political" ]
            },
            {
               "long_name" : "Uruguay",
               "short_name" : "UY",
               "types" : [ "country", "political" ]
            }
         ],
         "formatted_address" : "Montevideo Department, Uruguay",
         "geometry" : {
            "bounds" : {
               "northeast" : {
                  "lat" : -34.673157,
                  "lng" : -56.0026629
               },
               "southwest" : {
                  "lat" : -34.93877,
                  "lng" : -56.42646389999999
               }
            },
            "location" : {
               "lat" : -34.8173171,
               "lng" : -56.1588712
            },
            "location_type" : "APPROXIMATE",
            "viewport" : {
               "northeast" : {
                  "lat" : -34.673157,
                  "lng" : -56.0026629
               },
               "southwest" : {
                  "lat" : -34.93877,
                  "lng" : -56.42646389999999
               }
            }
         },
         "place_id" : "ChIJ0_c7xv-An5URZKZVcui9b2g",
         "types" : [ "administrative_area_level_1", "political" ]
      },
      {
         "address_components" : [
            {
               "long_name" : "Uruguay",
               "short_name" : "UY",
               "types" : [ "country", "political" ]
            }
         ],
         "formatted_address" : "Uruguay",
         "geometry" : {
            "bounds" : {
               "northeast" : {
                  "lat" : -30.0852149,
                  "lng" : -53.0779284
               },
               "southwest" : {
                  "lat" : -35.1558001,
                  "lng" : -58.4913609
               }
            },
            "location" : {
               "lat" : -32.522779,
               "lng" : -55.765835
            },
            "location_type" : "APPROXIMATE",
            "viewport" : {
               "northeast" : {
                  "lat" : -30.0852149,
                  "lng" : -53.0779284
               },
               "southwest" : {
                  "lat" : -35.1558001,
                  "lng" : -58.4913609
               }
            }
         },
         "place_id" : "ChIJCd5f-zoHdZURSlIWYGGWVUo",
         "types" : [ "country", "political" ]
      }
   ],
   "status" : "OK"
}
