{
   "results" : [
      {
         "address_components" : [
            {
               "long_name" : "Saint-François, tunnel O",
               "short_name" : "Saint-François, tunnel O",
               "types" : [ "premise" ]
            },
            {
               "long_name" : "Lausanne",
               "short_name" : "Lausanne",
               "types" : [ "locality", "political" ]
            },
            {
               "long_name" : "Lausanne",
               "short_name" : "Lausanne",
               "types" : [ "administrative_area_level_2", "political" ]
            },
            {
               "long_name" : "Vaud",
               "short_name" : "VD",
               "types" : [ "administrative_area_level_1", "political" ]
            },
            {
               "long_name" : "Switzerland",
               "short_name" : "CH",
               "types" : [ "country", "political" ]
            },
            {
               "long_name" : "1003",
               "short_name" : "1003",
               "types" : [ "postal_code" ]
            }
         ],
         "formatted_address" : "Saint-François, tunnel O, 1003 Lausanne, Switzerland",
         "geometry" : {
            "location" : {
               "lat" : 46.5197087,
               "lng" : 6.6324371
            },
            "location_type" : "ROOFTOP",
            "viewport" : {
               "northeast" : {
                  "lat" : 46.52105768029149,
                  "lng" : 6.633786080291502
               },
               "southwest" : {
                  "lat" : 46.5183597197085,
                  "lng" : 6.631088119708498
               }
            }
         },
         "place_id" : "ChIJ6TJOVDIujEcRyJdGTzQyfeI",
         "types" : [ "premise" ]
      },
      {
         "address_components" : [
            {
               "long_name" : "1003",
               "short_name" : "1003",
               "types" : [ "street_number" ]
            },
            {
               "long_name" : "Tunnel Ouest Saint-François",
               "short_name" : "Tunnel O St-François",
               "types" : [ "route" ]
            },
            {
               "long_name" : "Lausanne",
               "short_name" : "Lausanne",
               "types" : [ "locality", "political" ]
            },
            {
               "long_name" : "Lausanne",
               "short_name" : "Lausanne",
               "types" : [ "administrative_area_level_2", "political" ]
            },
            {
               "long_name" : "Vaud",
               "short_name" : "VD",
               "types" : [ "administrative_area_level_1", "political" ]
            },
            {
               "long_name" : "Switzerland",
               "short_name" : "CH",
               "types" : [ "country", "political" ]
            },
            {
               "long_name" : "1003",
               "short_name" : "1003",
               "types" : [ "postal_code" ]
            }
         ],
         "formatted_address" : "Tunnel O St-François 1003, 1003 Lausanne, Switzerland",
         "geometry" : {
            "location" : {
               "lat" : 46.5196535,
               "lng" : 6.6322734
            },
            "location_type" : "ROOFTOP",
            "viewport" : {
               "northeast" : {
                  "lat" : 46.5210024802915,
                  "lng" : 6.633622380291502
               },
               "southwest" : {
                  "lat" : 46.5183045197085,
                  "lng" : 6.630924419708498
               }
            }
         },
         "place_id" : "ChIJb_x5VjIujEcRwwKvvNl5qgI",
         "types" : [ "street_address" ]
      },
      {
         "address_components" : [
            {
               "long_name" : "Lausanne",
               "short_name" : "Lausanne",
               "types" : [ "locality", "political" ]
            },
            {
               "long_name" : "Lausanne District",
               "short_name" : "Lausanne District",
               "types" : [ "administrative_area_level_2", "political" ]
            },
            {
               "long_name" : "Vaud",
               "short_name" : "VD",
               "types" : [ "administrative_area_level_1", "political" ]
            },
            {
               "long_name" : "Switzerland",
               "short_name" : "CH",
               "types" : [ "country", "political" ]
            }
         ],
         "formatted_address" : "Lausanne, Switzerland",
         "geometry" : {
            "bounds" : {
               "northeast" : {
                  "lat" : 46.60232999999999,
                  "lng" : 6.72084
               },
               "southwest" : {
                  "lat" : 46.45463,
                  "lng" : 6.5841499
               }
            },
            "location" : {
               "lat" : 46.5196535,
               "lng" : 6.6322734
            },
            "location_type" : "APPROXIMATE",
            "viewport" : {
               "northeast" : {
                  "lat" : 46.60232999999999,
                  "lng" : 6.72084
               },
               "southwest" : {
                  "lat" : 46.45463,
                  "lng" : 6.5841499
               }
            }
         },
         "place_id" : "ChIJ5aeJzT4pjEcRXu7iysk_F-s",
         "types" : [ "locality", "political" ]
      },
      {
         "address_components" : [
            {
               "long_name" : "1003",
               "short_name" : "1003",
               "types" : [ "postal_code" ]
            },
            {
               "long_name" : "Lausanne",
               "short_name" : "Lausanne",
               "types" : [ "locality", "political" ]
            },
            {
               "long_name" : "Lausanne District",
               "short_name" : "Lausanne District",
               "types" : [ "administrative_area_level_2", "political" ]
            },
            {
               "long_name" : "Vaud",
               "short_name" : "VD",
               "types" : [ "administrative_area_level_1", "political" ]
            },
            {
               "long_name" : "Switzerland",
               "short_name" : "CH",
               "types" : [ "country", "political" ]
            }
         ],
         "formatted_address" : "1003 Lausanne, Switzerland",
         "geometry" : {
            "bounds" : {
               "northeast" : {
                  "lat" : 46.5245776,
                  "lng" : 6.640228599999999
               },
               "southwest" : {
                  "lat" : 46.5154655,
                  "lng" : 6.621620399999999
               }
            },
            "location" : {
               "lat" : 46.5207933,
               "lng" : 6.6314894
            },
            "location_type" : "APPROXIMATE",
            "viewport" : {
               "northeast" : {
                  "lat" : 46.5245776,
                  "lng" : 6.640228599999999
               },
               "southwest" : {
                  "lat" : 46.5154655,
                  "lng" : 6.621620399999999
               }
            }
         },
         "place_id" : "ChIJW_WaejIujEcRvp86RUpAdIU",
         "types" : [ "postal_code" ]
      },
      {
         "address_components" : [
            {
               "long_name" : "Lausanne District",
               "short_name" : "Lausanne District",
               "types" : [ "administrative_area_level_2", "political" ]
            },
            {
               "long_name" : "Vaud",
               "short_name" : "VD",
               "types" : [ "administrative_area_level_1", "political" ]
            },
            {
               "long_name" : "Switzerland",
               "short_name" : "CH",
               "types" : [ "country", "political" ]
            }
         ],
         "formatted_address" : "Lausanne District, Switzerland",
         "geometry" : {
            "bounds" : {
               "northeast" : {
                  "lat" : 46.60232999999999,
                  "lng" : 6.72084
               },
               "southwest" : {
                  "lat" : 46.45463,
                  "lng" : 6.57557
               }
            },
            "location" : {
               "lat" : 46.52683769999999,
               "lng" : 6.631470299999999
            },
            "location_type" : "APPROXIMATE",
            "viewport" : {
               "northeast" : {
                  "lat" : 46.60232999999999,
                  "lng" : 6.72084
               },
               "southwest" : {
                  "lat" : 46.45463,
                  "lng" : 6.57557
               }
            }
         },
         "place_id" : "ChIJX7vy3EYpjEcRpoDJ_6b40l0",
         "types" : [ "administrative_area_level_2", "political" ]
      },
      {
         "address_components" : [
            {
               "long_name" : "Vaud",
               "short_name" : "VD",
               "types" : [ "administrative_area_level_1", "political" ]
            },
            {
               "long_name" : "Switzerland",
               "short_name" : "CH",
               "types" : [ "country", "political" ]
            }
         ],
         "formatted_address" : "Vaud, Switzerland",
         "geometry" : {
            "bounds" : {
               "northeast" : {
                  "lat" : 46.9867099,
                  "lng" : 7.2492599
               },
               "southwest" : {
                  "lat" : 46.1870301,
                  "lng" : 6.06401
               }
            },
            "location" : {
               "lat" : 46.5613135,
               "lng" : 6.536765
            },
            "location_type" : "APPROXIMATE",
            "viewport" : {
               "northeast" : {
                  "lat" : 46.9867099,
                  "lng" : 7.2492599
               },
               "southwest" : {
                  "lat" : 46.1870301,
                  "lng" : 6.06401
               }
            }
         },
         "place_id" : "ChIJtZALbaItjEcRUNgYQIj_AAE",
         "types" : [ "administrative_area_level_1", "political" ]
      },
      {
         "address_components" : [
            {
               "long_name" : "Switzerland",
               "short_name" : "CH",
               "types" : [ "country", "political" ]
            }
         ],
         "formatted_address" : "Switzerland",
         "geometry" : {
            "bounds" : {
               "northeast" : {
                  "lat" : 47.8084546,
                  "lng" : 10.4923401
               },
               "southwest" : {
                  "lat" : 45.81792,
                  "lng" : 5.95608
               }
            },
            "location" : {
               "lat" : 46.818188,
               "lng" : 8.227511999999999
            },
            "location_type" : "APPROXIMATE",
            "viewport" : {
               "northeast" : {
                  "lat" : 47.8084546,
                  "lng" : 10.4923401
               },
               "southwest" : {
                  "lat" : 45.81792,
                  "lng" : 5.95608
               }
            }
         },
         "place_id" : "ChIJYW1Zb-9kjEcRFXvLDxG1Vlw",
         "types" : [ "country", "political" ]
      }
   ],
   "status" : "OK"
}
