{
   "plus_code" : {
      "compound_code" : "8973+9H Antwerp, Belgium",
      "global_code" : "9F368973+9H"
   },
   "results" : [
      {
         "address_components" : [
            {
               "long_name" : "Poldervlietweg",
               "short_name" : "Poldervlietweg",
               "types" : [ "route" ]
            },
            {
               "long_name" : "Antwerpen",
               "short_name" : "Antwerpen",
               "types" : [ "political", "sublocality", "sublocality_level_1" ]
            },
            {
               "long_name" : "Antwerpen",
               "short_name" : "Antwerpen",
               "types" : [ "locality", "political" ]
            },
            {
               "long_name" : "Antwerpen",
               "short_name" : "AN",
               "types" : [ "administrative_area_level_2", "political" ]
            },
            {
               "long_name" : "Vlaanderen",
               "short_name" : "Vlaanderen",
               "types" : [ "administrative_area_level_1", "political" ]
            },
            {
               "long_name" : "Belgium",
               "short_name" : "BE",
               "types" : [ "country", "political" ]
            },
            {
               "long_name" : "2030",
               "short_name" : "2030",
               "types" : [ "postal_code" ]
            }
         ],
         "formatted_address" : "Poldervlietweg, 2030 Antwerpen, Belgium",
         "geometry" : {
            "location" : {
               "lat" : 51.31348699999999,
               "lng" : 4.353899999999999
            },
            "location_type" : "GEOMETRIC_CENTER",
            "viewport" : {
               "northeast" : {
                  "lat" : 51.3148359802915,
                  "lng" : 4.355248980291502
               },
               "southwest" : {
                  "lat" : 51.3121380197085,
                  "lng" : 4.352551019708497
               }
            }
         },
         "place_id" : "ChIJ735bdbYLxEcRqcbnL5LCbhg",
         "types" : [ "establishment", "point_of_interest" ]
      },
      {
         "address_components" : [
            {
               "long_name" : "Poldervlietweg",
               "short_name" : "Poldervlietweg",
               "types" : [ "route" ]
            },
            {
               "long_name" : "Antwerpen",
               "short_name" : "Antwerpen",
               "types" : [ "locality", "political" ]
            },
            {
               "long_name" : "Antwerpen",
               "short_name" : "AN",
               "types" : [ "administrative_area_level_2", "political" ]
            },
            {
               "long_name" : "Vlaanderen",
               "short_name" : "Vlaanderen",
               "types" : [ "administrative_area_level_1", "political" ]
            },
            {
               "long_name" : "Belgium",
               "short_name" : "BE",
               "types" : [ "country", "political" ]
            },
            {
               "long_name" : "2030",
               "short_name" : "2030",
               "types" : [ "postal_code" ]
            }
         ],
         "formatted_address" : "Poldervlietweg, 2030 Antwerpen, Belgium",
         "geometry" : {
            "bounds" : {
               "northeast" : {
                  "lat" : 51.313514,
                  "lng" : 4.3544462
               },
               "southwest" : {
                  "lat" : 51.31313400000001,
                  "lng" : 4.3538853
               }
            },
            "location" : {
               "lat" : 51.31332399999999,
               "lng" : 4.3541658
            },
            "location_type" : "GEOMETRIC_CENTER",
            "viewport" : {
               "northeast" : {
                  "lat" : 51.3146729802915,
                  "lng" : 4.355514730291502
               },
               "southwest" : {
                  "lat" : 51.31197501970851,
                  "lng" : 4.352816769708498
               }
            }
         },
         "place_id" : "ChIJiQyy4bULxEcR-qH2rEVuxqQ",
         "types" : [ "route" ]
      },
      {
         "address_components" : [
            {
               "long_name" : "2030",
               "short_name" : "2030",
               "types" : [ "postal_code" ]
            },
            {
               "long_name" : "Antwerp",
               "short_name" : "Antwerp",
               "types" : [ "locality", "political" ]
            },
            {
               "long_name" : "Antwerp",
               "short_name" : "AN",
               "types" : [ "administrative_area_level_2", "political" ]
            },
            {
               "long_name" : "Flanders",
               "short_name" : "Flanders",
               "types" : [ "administrative_area_level_1", "political" ]
            },
            {
               "long_name" : "Belgium",
               "short_name" : "BE",
               "types" : [ "country", "political" ]
            }
         ],
         "formatted_address" : "2030 Antwerp, Belgium",
         "geometry" : {
            "bounds" : {
               "northeast" : {
                  "lat" : 51.3176555,
                  "lng" : 4.4326481
               },
               "southwest" : {
                  "lat" : 51.2308074,
                  "lng" : 4.2947631
               }
            },
            "location" : {
               "lat" : 51.27639629999999,
               "lng" : 4.3624604
            },
            "location_type" : "APPROXIMATE",
            "viewport" : {
               "northeast" : {
                  "lat" : 51.3176555,
                  "lng" : 4.4326481
               },
               "southwest" : {
                  "lat" : 51.2308074,
                  "lng" : 4.2947631
               }
            }
         },
         "place_id" : "ChIJ4ejQlRcIxEcRnGOzGMCkbYc",
         "types" : [ "postal_code" ]
      },
      {
         "address_components" : [
            {
               "long_name" : "Antwerp",
               "short_name" : "Antwerp",
               "types" : [ "locality", "political" ]
            },
            {
               "long_name" : "Antwerp",
               "short_name" : "AN",
               "types" : [ "administrative_area_level_2", "political" ]
            },
            {
               "long_name" : "Flanders",
               "short_name" : "Flanders",
               "types" : [ "administrative_area_level_1", "political" ]
            },
            {
               "long_name" : "Belgium",
               "short_name" : "BE",
               "types" : [ "country", "political" ]
            }
         ],
         "formatted_address" : "Antwerp, Belgium",
         "geometry" : {
            "bounds" : {
               "northeast" : {
                  "lat" : 51.3774301,
                  "lng" : 4.49784
               },
               "southwest" : {
                  "lat" : 51.14333999999999,
                  "lng" : 4.217600099999999
               }
            },
            "location" : {
               "lat" : 51.2194475,
               "lng" : 4.4024643
            },
            "location_type" : "APPROXIMATE",
            "viewport" : {
               "northeast" : {
                  "lat" : 51.3774301,
                  "lng" : 4.49784
               },
               "southwest" : {
                  "lat" : 51.14333999999999,
                  "lng" : 4.217600099999999
               }
            }
         },
         "place_id" : "ChIJfYjDv472w0cRuIqogoRErz4",
         "types" : [ "locality", "political" ]
      },
      {
         "address_components" : [
            {
               "long_name" : "Antwerp",
               "short_name" : "Antwerp",
               "types" : [ "administrative_area_level_2", "political" ]
            },
            {
               "long_name" : "Flanders",
               "short_name" : "Flanders",
               "types" : [ "administrative_area_level_1", "political" ]
            },
            {
               "long_name" : "Belgium",
               "short_name" : "BE",
               "types" : [ "country", "political" ]
            }
         ],
         "formatted_address" : "Antwerp, Belgium",
         "geometry" : {
            "bounds" : {
               "northeast" : {
                  "lat" : 51.5051,
                  "lng" : 5.26223
               },
               "southwest" : {
                  "lat" : 50.99019,
                  "lng" : 4.17221
               }
            },
            "location" : {
               "lat" : 51.2194933,
               "lng" : 4.40245
            },
            "location_type" : "APPROXIMATE",
            "viewport" : {
               "northeast" : {
                  "lat" : 51.5051,
                  "lng" : 5.26223
               },
               "southwest" : {
                  "lat" : 50.99019,
                  "lng" : 4.17221
               }
            }
         },
         "place_id" : "ChIJYxqH-B5VwUcRT7U_zWa6lgg",
         "types" : [ "administrative_area_level_2", "political" ]
      },
      {
         "address_components" : [
            {
               "long_name" : "Flanders",
               "short_name" : "Flanders",
               "types" : [ "administrative_area_level_1", "political" ]
            },
            {
               "long_name" : "Belgium",
               "short_name" : "BE",
               "types" : [ "country", "political" ]
            }
         ],
         "formatted_address" : "Flanders, Belgium",
         "geometry" : {
            "bounds" : {
               "northeast" : {
                  "lat" : 51.5051,
                  "lng" : 5.911010099999999
               },
               "southwest" : {
                  "lat" : 50.68736000000001,
                  "lng" : 2.5449401
               }
            },
            "location" : {
               "lat" : 51.0108706,
               "lng" : 3.7264613
            },
            "location_type" : "APPROXIMATE",
            "viewport" : {
               "northeast" : {
                  "lat" : 51.5051,
                  "lng" : 5.911010099999999
               },
               "southwest" : {
                  "lat" : 50.68736000000001,
                  "lng" : 2.5449401
               }
            }
         },
         "place_id" : "ChIJpeuHbqSSw0cRIIBML6uZAAE",
         "types" : [ "administrative_area_level_1", "political" ]
      },
      {
         "address_components" : [
            {
               "long_name" : "Belgium",
               "short_name" : "BE",
               "types" : [ "country", "political" ]
            }
         ],
         "formatted_address" : "Belgium",
         "geometry" : {
            "bounds" : {
               "northeast" : {
                  "lat" : 51.5051449,
                  "lng" : 6.408124099999999
               },
               "southwest" : {
                  "lat" : 49.497013,
                  "lng" : 2.5240999
               }
            },
            "location" : {
               "lat" : 50.503887,
               "lng" : 4.469936
            },
            "location_type" : "APPROXIMATE",
            "viewport" : {
               "northeast" : {
                  "lat" : 51.5051449,
                  "lng" : 6.408124099999999
               },
               "southwest" : {
                  "lat" : 49.497013,
                  "lng" : 2.5240999
               }
            }
         },
         "place_id" : "ChIJl5fz7WR9wUcR8g_mObTy60c",
         "types" : [ "country", "political" ]
      }
   ],
   "status" : "OK"
}
