{
   "plus_code" : {
      "compound_code" : "2R9W+XW Hanoi, Hoàn Kiếm, Hanoi, Vietnam",
      "global_code" : "7PH72R9W+XW"
   },
   "results" : [
      {
         "address_components" : [
            {
               "long_name" : "3",
               "short_name" : "3",
               "types" : [ "street_number" ]
            },
            {
               "long_name" : "Phố Nguyễn Gia Thiều",
               "short_name" : "Phố Nguyễn Gia Thiều",
               "types" : [ "route" ]
            },
            {
               "long_name" : "Hoàn Kiếm",
               "short_name" : "Hoàn Kiếm",
               "types" : [ "administrative_area_level_2", "political" ]
            },
            {
               "long_name" : "Hà Nội",
               "short_name" : "Hà Nội",
               "types" : [ "administrative_area_level_1", "political" ]
            },
            {
               "long_name" : "Vietnam",
               "short_name" : "VN",
               "types" : [ "country", "political" ]
            }
         ],
         "formatted_address" : "3 Phố Nguyễn Gia Thiều, Trần Hưng Đạo, Hoàn Kiếm, Hà Nội, Vietnam",
         "geometry" : {
            "location" : {
               "lat" : 21.0199997,
               "lng" : 105.8473392
            },
            "location_type" : "ROOFTOP",
            "viewport" : {
               "northeast" : {
                  "lat" : 21.0213486802915,
                  "lng" : 105.8486881802915
               },
               "southwest" : {
                  "lat" : 21.0186507197085,
                  "lng" : 105.8459902197085
               }
            }
         },
         "place_id" : "ChIJ23naBZKrNTER-flBPIGRjD0",
         "plus_code" : {
            "compound_code" : "2R9W+XW Hanoi, Hoàn Kiếm, Hanoi, Vietnam",
            "global_code" : "7PH72R9W+XW"
         },
         "types" : [ "street_address" ]
      },
      {
         "address_components" : [
            {
               "long_name" : "Hà Nội",
               "short_name" : "Hà Nội",
               "types" : [ "administrative_area_level_2", "political" ]
            },
            {
               "long_name" : "Hà Nội",
               "short_name" : "Hà Nội",
               "types" : [ "administrative_area_level_1", "political" ]
            },
            {
               "long_name" : "Vietnam",
               "short_name" : "VN",
               "types" : [ "country", "political" ]
            },
            {
               "long_name" : "100000",
               "short_name" : "100000",
               "types" : [ "postal_code" ]
            }
         ],
         "formatted_address" : "57 Trần Quốc Toản, Phường Trần Hưng Đạo, Quận Hoàn Kiếm, Hà Nội, 100000, Vietnam",
         "geometry" : {
            "location" : {
               "lat" : 21.0199526,
               "lng" : 105.8474788
            },
            "location_type" : "GEOMETRIC_CENTER",
            "viewport" : {
               "northeast" : {
                  "lat" : 21.0213015802915,
                  "lng" : 105.8488277802915
               },
               "southwest" : {
                  "lat" : 21.0186036197085,
                  "lng" : 105.8461298197085
               }
            }
         },
         "place_id" : "ChIJF4lItH6rNTERMEh0523J2LY",
         "plus_code" : {
            "compound_code" : "2R9W+XX Hanoi, Hoàn Kiếm, Hanoi, Vietnam",
            "global_code" : "7PH72R9W+XX"
         },
         "types" : [ "establishment", "health", "point_of_interest", "store" ]
      },
      {
         "address_components" : [
            {
               "long_name" : "57",
               "short_name" : "57",
               "types" : [ "street_number" ]
            },
            {
               "long_name" : "Trần Quốc Toản",
               "short_name" : "Trần Quốc Toản",
               "types" : [ "route" ]
            },
            {
               "long_name" : "Hoàn Kiếm",
               "short_name" : "Hoàn Kiếm",
               "types" : [ "administrative_area_level_2", "political" ]
            },
            {
               "long_name" : "Hà Nội",
               "short_name" : "Hà Nội",
               "types" : [ "administrative_area_level_1", "political" ]
            },
            {
               "long_name" : "Vietnam",
               "short_name" : "VN",
               "types" : [ "country", "political" ]
            }
         ],
         "formatted_address" : "57 Trần Quốc Toản, Trần Hưng Đạo, Hoàn Kiếm, Hà Nội, Vietnam",
         "geometry" : {
            "location" : {
               "lat" : 21.0202538,
               "lng" : 105.8474868
            },
            "location_type" : "RANGE_INTERPOLATED",
            "viewport" : {
               "northeast" : {
                  "lat" : 21.0216027802915,
                  "lng" : 105.8488357802915
               },
               "southwest" : {
                  "lat" : 21.0189048197085,
                  "lng" : 105.8461378197085
               }
            }
         },
         "place_id" : "ElE1NyBUcuG6p24gUXXhu5FjIFRv4bqjbiwgVHLhuqduIEjGsG5nIMSQ4bqhbywgSG_DoG4gS2nhur9tLCBIw6AgTuG7mWksIFZp4buHdCBOYW0iGhIYChQKEglHcwARkqs1MRGN8aPW35UNdhA5",
         "types" : [ "street_address" ]
      },
      {
         "address_components" : [
            {
               "long_name" : "Trần Hưng Đạo",
               "short_name" : "Trần Hưng Đạo",
               "types" : [ "administrative_area_level_3", "political" ]
            },
            {
               "long_name" : "Hoàn Kiếm",
               "short_name" : "Hoàn Kiếm",
               "types" : [ "administrative_area_level_2", "political" ]
            },
            {
               "long_name" : "Hà Nội",
               "short_name" : "Hà Nội",
               "types" : [ "administrative_area_level_1", "political" ]
            },
            {
               "long_name" : "Vietnam",
               "short_name" : "VN",
               "types" : [ "country", "political" ]
            }
         ],
         "formatted_address" : "Trần Hưng Đạo, Hoàn Kiếm, Hà Nội, Vietnam",
         "geometry" : {
            "bounds" : {
               "northeast" : {
                  "lat" : 21.0270489,
                  "lng" : 105.850927
               },
               "southwest" : {
                  "lat" : 21.018696,
                  "lng" : 105.8427781
               }
            },
            "location" : {
               "lat" : 21.0229634,
               "lng" : 105.8473777
            },
            "location_type" : "APPROXIMATE",
            "viewport" : {
               "northeast" : {
                  "lat" : 21.0270489,
                  "lng" : 105.850927
               },
               "southwest" : {
                  "lat" : 21.018696,
                  "lng" : 105.8427781
               }
            }
         },
         "place_id" : "ChIJsecF15OrNTERvWFVNDg9VUI",
         "types" : [ "administrative_area_level_3", "political" ]
      },
      {
         "address_components" : [
            {
               "long_name" : "Trần Hưng Đạo",
               "short_name" : "Trần Hưng Đạo",
               "types" : [ "political", "sublocality", "sublocality_level_1" ]
            },
            {
               "long_name" : "Hoàn Kiếm",
               "short_name" : "Hoàn Kiếm",
               "types" : [ "administrative_area_level_2", "political" ]
            },
            {
               "long_name" : "Hà Nội",
               "short_name" : "Hà Nội",
               "types" : [ "administrative_area_level_1", "political" ]
            },
            {
               "long_name" : "Vietnam",
               "short_name" : "VN",
               "types" : [ "country", "political" ]
            }
         ],
         "formatted_address" : "Trần Hưng Đạo, Hoàn Kiếm, Hà Nội, Vietnam",
         "geometry" : {
            "bounds" : {
               "northeast" : {
                  "lat" : 21.0271085,
                  "lng" : 105.8504498
               },
               "southwest" : {
                  "lat" : 21.0191268,
                  "lng" : 105.8428645
               }
            },
            "location" : {
               "lat" : 21.0229634,
               "lng" : 105.8473777
            },
            "location_type" : "APPROXIMATE",
            "viewport" : {
               "northeast" : {
                  "lat" : 21.0271085,
                  "lng" : 105.8504498
               },
               "southwest" : {
                  "lat" : 21.0191268,
                  "lng" : 105.8428645
               }
            }
         },
         "place_id" : "ChIJuyML2JOrNTER-isd7EXuetc",
         "types" : [ "political", "sublocality", "sublocality_level_1" ]
      },
      {
         "address_components" : [
            {
               "long_name" : "Hoàn Kiếm",
               "short_name" : "Hoàn Kiếm",
               "types" : [ "administrative_area_level_2", "political" ]
            },
            {
               "long_name" : "Hanoi",
               "short_name" : "Hanoi",
               "types" : [ "administrative_area_level_1", "political" ]
            },
            {
               "long_name" : "Vietnam",
               "short_name" : "VN",
               "types" : [ "country", "political" ]
            }
         ],
         "formatted_address" : "Hoàn Kiếm, Hanoi, Vietnam",
         "geometry" : {
            "bounds" : {
               "northeast" : {
                  "lat" : 21.0428538,
                  "lng" : 105.868295
               },
               "southwest" : {
                  "lat" : 21.0179281,
                  "lng" : 105.8415491
               }
            },
            "location" : {
               "lat" : 21.027964,
               "lng" : 105.8510132
            },
            "location_type" : "APPROXIMATE",
            "viewport" : {
               "northeast" : {
                  "lat" : 21.0428538,
                  "lng" : 105.868295
               },
               "southwest" : {
                  "lat" : 21.0179281,
                  "lng" : 105.8415491
               }
            }
         },
         "place_id" : "ChIJKfTYWb-rNTERoWbl1t-jMHg",
         "types" : [ "administrative_area_level_2", "political" ]
      },
      {
         "address_components" : [
            {
               "long_name" : "Hanoi",
               "short_name" : "Hanoi",
               "types" : [ "locality", "political" ]
            },
            {
               "long_name" : "Hoàn Kiếm",
               "short_name" : "Hoàn Kiếm",
               "types" : [ "administrative_area_level_2", "political" ]
            },
            {
               "long_name" : "Hanoi",
               "short_name" : "Hanoi",
               "types" : [ "administrative_area_level_1", "political" ]
            },
            {
               "long_name" : "Vietnam",
               "short_name" : "VN",
               "types" : [ "country", "political" ]
            }
         ],
         "formatted_address" : "Hanoi, Hoàn Kiếm, Hanoi, Vietnam",
         "geometry" : {
            "bounds" : {
               "northeast" : {
                  "lat" : 21.0503801,
                  "lng" : 105.8764459
               },
               "southwest" : {
                  "lat" : 20.9950991,
                  "lng" : 105.7974815
               }
            },
            "location" : {
               "lat" : 21.0277644,
               "lng" : 105.8341598
            },
            "location_type" : "APPROXIMATE",
            "viewport" : {
               "northeast" : {
                  "lat" : 21.0503801,
                  "lng" : 105.8764459
               },
               "southwest" : {
                  "lat" : 20.9950991,
                  "lng" : 105.7974815
               }
            }
         },
         "place_id" : "ChIJoRyG2ZurNTERqRfKcnt_iOc",
         "types" : [ "locality", "political" ]
      },
      {
         "address_components" : [
            {
               "long_name" : "Hanoi",
               "short_name" : "Hanoi",
               "types" : [ "administrative_area_level_1", "political" ]
            },
            {
               "long_name" : "Vietnam",
               "short_name" : "VN",
               "types" : [ "country", "political" ]
            }
         ],
         "formatted_address" : "Hanoi, Vietnam",
         "geometry" : {
            "bounds" : {
               "northeast" : {
                  "lat" : 21.3850271,
                  "lng" : 106.0198859
               },
               "southwest" : {
                  "lat" : 20.5623231,
                  "lng" : 105.2854659
               }
            },
            "location" : {
               "lat" : 21.0031177,
               "lng" : 105.8201408
            },
            "location_type" : "APPROXIMATE",
            "viewport" : {
               "northeast" : {
                  "lat" : 21.3850271,
                  "lng" : 106.0198859
               },
               "southwest" : {
                  "lat" : 20.5623231,
                  "lng" : 105.2854659
               }
            }
         },
         "place_id" : "ChIJKQqAE44ANTERDbkQYkF-mAI",
         "types" : [ "administrative_area_level_1", "political" ]
      },
      {
         "address_components" : [
            {
               "long_name" : "Vietnam",
               "short_name" : "VN",
               "types" : [ "country", "political" ]
            }
         ],
         "formatted_address" : "Vietnam",
         "geometry" : {
            "bounds" : {
               "northeast" : {
                  "lat" : 23.3926504,
                  "lng" : 109.6765
               },
               "southwest" : {
                  "lat" : 8.195200099999999,
                  "lng" : 102.1439156
               }
            },
            "location" : {
               "lat" : 14.058324,
               "lng" : 108.277199
            },
            "location_type" : "APPROXIMATE",
            "viewport" : {
               "northeast" : {
                  "lat" : 23.3926504,
                  "lng" : 109.6765
               },
               "southwest" : {
                  "lat" : 8.195200099999999,
                  "lng" : 102.1439156
               }
            }
         },
         "place_id" : "ChIJXx5qc016FTERvmL-4smwO7A",
         "types" : [ "country", "political" ]
      }
   ],
   "status" : "OK"
}
