{
   "plus_code" : {
      "compound_code" : "WR2G+MF San Diego, CA, USA",
      "global_code" : "8544WR2G+MF"
   },
   "results" : [
      {
         "address_components" : [
            {
               "long_name" : "# 100",
               "short_name" : "# 100",
               "types" : [ "subpremise" ]
            },
            {
               "long_name" : "6779",
               "short_name" : "6779",
               "types" : [ "street_number" ]
            },
            {
               "long_name" : "Mesa Ridge Road",
               "short_name" : "Mesa Ridge Rd",
               "types" : [ "route" ]
            },
            {
               "long_name" : "Sorrento Valley",
               "short_name" : "Sorrento Valley",
               "types" : [ "neighborhood", "political" ]
            },
            {
               "long_name" : "San Diego",
               "short_name" : "San Diego",
               "types" : [ "locality", "political" ]
            },
            {
               "long_name" : "San Diego County",
               "short_name" : "San Diego County",
               "types" : [ "administrative_area_level_2", "political" ]
            },
            {
               "long_name" : "California",
               "short_name" : "CA",
               "types" : [ "administrative_area_level_1", "political" ]
            },
            {
               "long_name" : "United States",
               "short_name" : "US",
               "types" : [ "country", "political" ]
            },
            {
               "long_name" : "92121",
               "short_name" : "92121",
               "types" : [ "postal_code" ]
            },
            {
               "long_name" : "2996",
               "short_name" : "2996",
               "types" : [ "postal_code_suffix" ]
            }
         ],
         "formatted_address" : "6779 Mesa Ridge Rd # 100, San Diego, CA 92121, USA",
         "geometry" : {
            "location" : {
               "lat" : 32.901739,
               "lng" : -117.173804
            },
            "location_type" : "ROOFTOP",
            "viewport" : {
               "northeast" : {
                  "lat" : 32.9030879802915,
                  "lng" : -117.1724550197085
               },
               "southwest" : {
                  "lat" : 32.9003900197085,
                  "lng" : -117.1751529802915
               }
            }
         },
         "place_id" : "ChIJNx-nJmAH3IARKK6FXlayLhs",
         "plus_code" : {
            "compound_code" : "WR2G+MF San Diego, California, United States",
            "global_code" : "8544WR2G+MF"
         },
         "types" : [ "establishment", "point_of_interest" ]
      },
      {
         "address_components" : [
            {
               "long_name" : "6769",
               "short_name" : "6769",
               "types" : [ "street_number" ]
            },
            {
               "long_name" : "Mesa Ridge Road",
               "short_name" : "Mesa Ridge Rd",
               "types" : [ "route" ]
            },
            {
               "long_name" : "Sorrento Valley",
               "short_name" : "Sorrento Valley",
               "types" : [ "neighborhood", "political" ]
            },
            {
               "long_name" : "San Diego",
               "short_name" : "San Diego",
               "types" : [ "locality", "political" ]
            },
            {
               "long_name" : "San Diego County",
               "short_name" : "San Diego County",
               "types" : [ "administrative_area_level_2", "political" ]
            },
            {
               "long_name" : "California",
               "short_name" : "CA",
               "types" : [ "administrative_area_level_1", "political" ]
            },
            {
               "long_name" : "United States",
               "short_name" : "US",
               "types" : [ "country", "political" ]
            },
            {
               "long_name" : "92121",
               "short_name" : "92121",
               "types" : [ "postal_code" ]
            },
            {
               "long_name" : "2995",
               "short_name" : "2995",
               "types" : [ "postal_code_suffix" ]
            }
         ],
         "formatted_address" : "6769 Mesa Ridge Rd, San Diego, CA 92121, USA",
         "geometry" : {
            "location" : {
               "lat" : 32.9016895,
               "lng" : -117.1735899
            },
            "location_type" : "ROOFTOP",
            "viewport" : {
               "northeast" : {
                  "lat" : 32.90303848029149,
                  "lng" : -117.1722409197085
               },
               "southwest" : {
                  "lat" : 32.9003405197085,
                  "lng" : -117.1749388802915
               }
            }
         },
         "place_id" : "ChIJ49rzL2AH3IARtvii0Wid86I",
         "plus_code" : {
            "compound_code" : "WR2G+MH San Diego, California, United States",
            "global_code" : "8544WR2G+MH"
         },
         "types" : [ "street_address" ]
      },
      {
         "address_components" : [
            {
               "long_name" : "6759",
               "short_name" : "6759",
               "types" : [ "street_number" ]
            },
            {
               "long_name" : "Mesa Ridge Road",
               "short_name" : "Mesa Ridge Rd",
               "types" : [ "route" ]
            },
            {
               "long_name" : "Sorrento Valley",
               "short_name" : "Sorrento Valley",
               "types" : [ "neighborhood", "political" ]
            },
            {
               "long_name" : "San Diego",
               "short_name" : "San Diego",
               "types" : [ "locality", "political" ]
            },
            {
               "long_name" : "San Diego County",
               "short_name" : "San Diego County",
               "types" : [ "administrative_area_level_2", "political" ]
            },
            {
               "long_name" : "California",
               "short_name" : "CA",
               "types" : [ "administrative_area_level_1", "political" ]
            },
            {
               "long_name" : "United States",
               "short_name" : "US",
               "types" : [ "country", "political" ]
            },
            {
               "long_name" : "92121",
               "short_name" : "92121",
               "types" : [ "postal_code" ]
            }
         ],
         "formatted_address" : "6759 Mesa Ridge Rd, San Diego, CA 92121, USA",
         "geometry" : {
            "bounds" : {
               "northeast" : {
                  "lat" : 32.9017891,
                  "lng" : -117.1725422
               },
               "southwest" : {
                  "lat" : 32.9014939,
                  "lng" : -117.1734238
               }
            },
            "location" : {
               "lat" : 32.9016491,
               "lng" : -117.1729117
            },
            "location_type" : "ROOFTOP",
            "viewport" : {
               "northeast" : {
                  "lat" : 32.9029904802915,
                  "lng" : -117.1716340197085
               },
               "southwest" : {
                  "lat" : 32.90029251970851,
                  "lng" : -117.1743319802915
               }
            }
         },
         "place_id" : "ChIJKWUL25_424ARTlyGwNn-W3E",
         "types" : [ "premise" ]
      },
      {
         "address_components" : [
            {
               "long_name" : "6799",
               "short_name" : "6799",
               "types" : [ "street_number" ]
            },
            {
               "long_name" : "Mesa Ridge Road",
               "short_name" : "Mesa Ridge Rd",
               "types" : [ "route" ]
            },
            {
               "long_name" : "San Diego",
               "short_name" : "San Diego",
               "types" : [ "locality", "political" ]
            },
            {
               "long_name" : "California",
               "short_name" : "CA",
               "types" : [ "administrative_area_level_1", "political" ]
            },
            {
               "long_name" : "United States",
               "short_name" : "US",
               "types" : [ "country", "political" ]
            },
            {
               "long_name" : "92121",
               "short_name" : "92121",
               "types" : [ "postal_code" ]
            }
         ],
         "formatted_address" : "6799 Mesa Ridge Rd, San Diego, CA 92121, USA",
         "geometry" : {
            "location" : {
               "lat" : 32.901764,
               "lng" : -117.1738167
            },
            "location_type" : "RANGE_INTERPOLATED",
            "viewport" : {
               "northeast" : {
                  "lat" : 32.9031129802915,
                  "lng" : -117.1724677197085
               },
               "southwest" : {
                  "lat" : 32.9004150197085,
                  "lng" : -117.1751656802915
               }
            }
         },
         "place_id" : "Eiw2Nzk5IE1lc2EgUmlkZ2UgUmQsIFNhbiBEaWVnbywgQ0EgOTIxMjEsIFVTQSIbEhkKFAoSCXMOpzFgB9yAETTGkxhhPkYcEI81",
         "types" : [ "street_address" ]
      },
      {
         "address_components" : [
            {
               "long_name" : "Sorrento Valley",
               "short_name" : "Sorrento Valley",
               "types" : [ "neighborhood", "political" ]
            },
            {
               "long_name" : "San Diego",
               "short_name" : "San Diego",
               "types" : [ "locality", "political" ]
            },
            {
               "long_name" : "San Diego County",
               "short_name" : "San Diego County",
               "types" : [ "administrative_area_level_2", "political" ]
            },
            {
               "long_name" : "California",
               "short_name" : "CA",
               "types" : [ "administrative_area_level_1", "political" ]
            },
            {
               "long_name" : "United States",
               "short_name" : "US",
               "types" : [ "country", "political" ]
            }
         ],
         "formatted_address" : "Sorrento Valley, San Diego, CA, USA",
         "geometry" : {
            "bounds" : {
               "northeast" : {
                  "lat" : 32.929286,
                  "lng" : -117.1669972
               },
               "southwest" : {
                  "lat" : 32.8606969,
                  "lng" : -117.225595
               }
            },
            "location" : {
               "lat" : 32.9000226,
               "lng" : -117.1894828
            },
            "location_type" : "APPROXIMATE",
            "viewport" : {
               "northeast" : {
                  "lat" : 32.929286,
                  "lng" : -117.1669972
               },
               "southwest" : {
                  "lat" : 32.8606969,
                  "lng" : -117.225595
               }
            }
         },
         "place_id" : "ChIJX46agGkH3IAR4MAUa_jBn7k",
         "types" : [ "neighborhood", "political" ]
      },
      {
         "address_components" : [
            {
               "long_name" : "92121",
               "short_name" : "92121",
               "types" : [ "postal_code" ]
            },
            {
               "long_name" : "San Diego",
               "short_name" : "San Diego",
               "types" : [ "locality", "political" ]
            },
            {
               "long_name" : "San Diego County",
               "short_name" : "San Diego County",
               "types" : [ "administrative_area_level_2", "political" ]
            },
            {
               "long_name" : "California",
               "short_name" : "CA",
               "types" : [ "administrative_area_level_1", "political" ]
            },
            {
               "long_name" : "United States",
               "short_name" : "US",
               "types" : [ "country", "political" ]
            }
         ],
         "formatted_address" : "San Diego, CA 92121, USA",
         "geometry" : {
            "bounds" : {
               "northeast" : {
                  "lat" : 32.9384819,
                  "lng" : -117.1363491
               },
               "southwest" : {
                  "lat" : 32.8681929,
                  "lng" : -117.261177
               }
            },
            "location" : {
               "lat" : 32.8981142,
               "lng" : -117.2029363
            },
            "location_type" : "APPROXIMATE",
            "viewport" : {
               "northeast" : {
                  "lat" : 32.9384819,
                  "lng" : -117.1363491
               },
               "southwest" : {
                  "lat" : 32.8681929,
                  "lng" : -117.261177
               }
            }
         },
         "place_id" : "ChIJT2kpDA8H3IAR30QW50ZqENo",
         "types" : [ "postal_code" ]
      },
      {
         "address_components" : [
            {
               "long_name" : "San Diego",
               "short_name" : "San Diego",
               "types" : [ "locality", "political" ]
            },
            {
               "long_name" : "San Diego County",
               "short_name" : "San Diego County",
               "types" : [ "administrative_area_level_2", "political" ]
            },
            {
               "long_name" : "California",
               "short_name" : "CA",
               "types" : [ "administrative_area_level_1", "political" ]
            },
            {
               "long_name" : "United States",
               "short_name" : "US",
               "types" : [ "country", "political" ]
            }
         ],
         "formatted_address" : "San Diego, CA, USA",
         "geometry" : {
            "bounds" : {
               "northeast" : {
                  "lat" : 33.114249,
                  "lng" : -116.90816
               },
               "southwest" : {
                  "lat" : 32.534856,
                  "lng" : -117.3097969
               }
            },
            "location" : {
               "lat" : 32.715738,
               "lng" : -117.1610838
            },
            "location_type" : "APPROXIMATE",
            "viewport" : {
               "northeast" : {
                  "lat" : 33.114249,
                  "lng" : -116.90816
               },
               "southwest" : {
                  "lat" : 32.534856,
                  "lng" : -117.3097969
               }
            }
         },
         "place_id" : "ChIJSx6SrQ9T2YARed8V_f0hOg0",
         "types" : [ "locality", "political" ]
      },
      {
         "address_components" : [
            {
               "long_name" : "San Diego County",
               "short_name" : "San Diego County",
               "types" : [ "administrative_area_level_2", "political" ]
            },
            {
               "long_name" : "California",
               "short_name" : "CA",
               "types" : [ "administrative_area_level_1", "political" ]
            },
            {
               "long_name" : "United States",
               "short_name" : "US",
               "types" : [ "country", "political" ]
            }
         ],
         "formatted_address" : "San Diego County, CA, USA",
         "geometry" : {
            "bounds" : {
               "northeast" : {
                  "lat" : 33.5050284,
                  "lng" : -116.0809399
               },
               "southwest" : {
                  "lat" : 32.528832,
                  "lng" : -117.6110809
               }
            },
            "location" : {
               "lat" : 32.7157305,
               "lng" : -117.1610966
            },
            "location_type" : "APPROXIMATE",
            "viewport" : {
               "northeast" : {
                  "lat" : 33.5050284,
                  "lng" : -116.0809399
               },
               "southwest" : {
                  "lat" : 32.528832,
                  "lng" : -117.6110809
               }
            }
         },
         "place_id" : "ChIJHWD_IzDr24ARKAeA6yv9DTU",
         "types" : [ "administrative_area_level_2", "political" ]
      },
      {
         "address_components" : [
            {
               "long_name" : "California",
               "short_name" : "California",
               "types" : [ "administrative_area_level_1", "political" ]
            },
            {
               "long_name" : "United States",
               "short_name" : "US",
               "types" : [ "country", "political" ]
            }
         ],
         "formatted_address" : "California, USA",
         "geometry" : {
            "bounds" : {
               "northeast" : {
                  "lat" : 42.0095169,
                  "lng" : -114.131211
               },
               "southwest" : {
                  "lat" : 32.528832,
                  "lng" : -124.482003
               }
            },
            "location" : {
               "lat" : 36.778261,
               "lng" : -119.4179324
            },
            "location_type" : "APPROXIMATE",
            "viewport" : {
               "northeast" : {
                  "lat" : 42.0095169,
                  "lng" : -114.131211
               },
               "southwest" : {
                  "lat" : 32.528832,
                  "lng" : -124.482003
               }
            }
         },
         "place_id" : "ChIJPV4oX_65j4ARVW8IJ6IJUYs",
         "types" : [ "administrative_area_level_1", "political" ]
      },
      {
         "address_components" : [
            {
               "long_name" : "United States",
               "short_name" : "US",
               "types" : [ "country", "political" ]
            }
         ],
         "formatted_address" : "United States",
         "geometry" : {
            "bounds" : {
               "northeast" : {
                  "lat" : 71.5388001,
                  "lng" : -66.885417
               },
               "southwest" : {
                  "lat" : 18.7763,
                  "lng" : 170.5957
               }
            },
            "location" : {
               "lat" : 37.09024,
               "lng" : -95.712891
            },
            "location_type" : "APPROXIMATE",
            "viewport" : {
               "northeast" : {
                  "lat" : 71.5388001,
                  "lng" : -66.885417
               },
               "southwest" : {
                  "lat" : 18.7763,
                  "lng" : 170.5957
               }
            }
         },
         "place_id" : "ChIJCzYy5IS16lQRQrfeQ5K5Oxw",
         "types" : [ "country", "political" ]
      }
   ],
   "status" : "OK"
}
