{
   "plus_code" : {
      "compound_code" : "PGPQ+V7 Southwest Houston, Houston, TX, USA",
      "global_code" : "76X6PGPQ+V7"
   },
   "results" : [
      {
         "address_components" : [
            {
               "long_name" : "4100",
               "short_name" : "4100",
               "types" : [ "subpremise" ]
            },
            {
               "long_name" : "2800",
               "short_name" : "2800",
               "types" : [ "street_number" ]
            },
            {
               "long_name" : "Post Oak Boulevard",
               "short_name" : "Post Oak Blvd",
               "types" : [ "route" ]
            },
            {
               "long_name" : "Southwest Houston",
               "short_name" : "Southwest Houston",
               "types" : [ "neighborhood", "political" ]
            },
            {
               "long_name" : "Houston",
               "short_name" : "Houston",
               "types" : [ "locality", "political" ]
            },
            {
               "long_name" : "Harris County",
               "short_name" : "Harris County",
               "types" : [ "administrative_area_level_2", "political" ]
            },
            {
               "long_name" : "Texas",
               "short_name" : "TX",
               "types" : [ "administrative_area_level_1", "political" ]
            },
            {
               "long_name" : "United States",
               "short_name" : "US",
               "types" : [ "country", "political" ]
            },
            {
               "long_name" : "77056",
               "short_name" : "77056",
               "types" : [ "postal_code" ]
            }
         ],
         "formatted_address" : "2800 Post Oak Blvd #4100, Houston, TX 77056, USA",
         "geometry" : {
            "location" : {
               "lat" : 29.7372499,
               "lng" : -95.46184599999999
            },
            "location_type" : "ROOFTOP",
            "viewport" : {
               "northeast" : {
                  "lat" : 29.7385988802915,
                  "lng" : -95.4604970197085
               },
               "southwest" : {
                  "lat" : 29.7359009197085,
                  "lng" : -95.4631949802915
               }
            }
         },
         "place_id" : "ChIJ2V16LWzBQIYRjKsRtnBv0zw",
         "plus_code" : {
            "compound_code" : "PGPQ+V7 Southwest Houston, Houston, TX, United States",
            "global_code" : "76X6PGPQ+V7"
         },
         "types" : [ "establishment", "point_of_interest" ]
      },
      {
         "address_components" : [
            {
               "long_name" : "77056",
               "short_name" : "77056",
               "types" : [ "postal_code" ]
            },
            {
               "long_name" : "Houston",
               "short_name" : "Houston",
               "types" : [ "locality", "political" ]
            },
            {
               "long_name" : "Harris County",
               "short_name" : "Harris County",
               "types" : [ "administrative_area_level_2", "political" ]
            },
            {
               "long_name" : "Texas",
               "short_name" : "TX",
               "types" : [ "administrative_area_level_1", "political" ]
            },
            {
               "long_name" : "United States",
               "short_name" : "US",
               "types" : [ "country", "political" ]
            }
         ],
         "formatted_address" : "Houston, TX 77056, USA",
         "geometry" : {
            "bounds" : {
               "northeast" : {
                  "lat" : 29.773378,
                  "lng" : -95.4537979
               },
               "southwest" : {
                  "lat" : 29.7235321,
                  "lng" : -95.4803369
               }
            },
            "location" : {
               "lat" : 29.7484861,
               "lng" : -95.46991730000001
            },
            "location_type" : "APPROXIMATE",
            "viewport" : {
               "northeast" : {
                  "lat" : 29.773378,
                  "lng" : -95.4537979
               },
               "southwest" : {
                  "lat" : 29.7235321,
                  "lng" : -95.4803369
               }
            }
         },
         "place_id" : "ChIJXTza5FzBQIYRFQgoai0vn40",
         "types" : [ "postal_code" ]
      },
      {
         "address_components" : [
            {
               "long_name" : "Westside",
               "short_name" : "Westside",
               "types" : [ "neighborhood", "political" ]
            },
            {
               "long_name" : "Houston",
               "short_name" : "Houston",
               "types" : [ "locality", "political" ]
            },
            {
               "long_name" : "Harris County",
               "short_name" : "Harris County",
               "types" : [ "administrative_area_level_2", "political" ]
            },
            {
               "long_name" : "Texas",
               "short_name" : "TX",
               "types" : [ "administrative_area_level_1", "political" ]
            },
            {
               "long_name" : "United States",
               "short_name" : "US",
               "types" : [ "country", "political" ]
            }
         ],
         "formatted_address" : "Westside, Houston, TX, USA",
         "geometry" : {
            "bounds" : {
               "northeast" : {
                  "lat" : 29.79336409999999,
                  "lng" : -95.45341789999999
               },
               "southwest" : {
                  "lat" : 29.649189,
                  "lng" : -95.7793528
               }
            },
            "location" : {
               "lat" : 29.7408978,
               "lng" : -95.5827334
            },
            "location_type" : "APPROXIMATE",
            "viewport" : {
               "northeast" : {
                  "lat" : 29.79336409999999,
                  "lng" : -95.45341789999999
               },
               "southwest" : {
                  "lat" : 29.649189,
                  "lng" : -95.7793528
               }
            }
         },
         "place_id" : "ChIJF2irz03cQIYRYqukl68Qw6U",
         "types" : [ "neighborhood", "political" ]
      },
      {
         "address_components" : [
            {
               "long_name" : "Houston",
               "short_name" : "Houston",
               "types" : [ "locality", "political" ]
            },
            {
               "long_name" : "Harris County",
               "short_name" : "Harris County",
               "types" : [ "administrative_area_level_2", "political" ]
            },
            {
               "long_name" : "Texas",
               "short_name" : "TX",
               "types" : [ "administrative_area_level_1", "political" ]
            },
            {
               "long_name" : "United States",
               "short_name" : "US",
               "types" : [ "country", "political" ]
            }
         ],
         "formatted_address" : "Houston, TX, USA",
         "geometry" : {
            "bounds" : {
               "northeast" : {
                  "lat" : 30.1107319,
                  "lng" : -95.01449599999999
               },
               "southwest" : {
                  "lat" : 29.523624,
                  "lng" : -95.78808690000001
               }
            },
            "location" : {
               "lat" : 29.7604267,
               "lng" : -95.3698028
            },
            "location_type" : "APPROXIMATE",
            "viewport" : {
               "northeast" : {
                  "lat" : 30.1107319,
                  "lng" : -95.01449599999999
               },
               "southwest" : {
                  "lat" : 29.523624,
                  "lng" : -95.78808690000001
               }
            }
         },
         "place_id" : "ChIJAYWNSLS4QIYROwVl894CDco",
         "types" : [ "locality", "political" ]
      },
      {
         "address_components" : [
            {
               "long_name" : "Harris County",
               "short_name" : "Harris County",
               "types" : [ "administrative_area_level_2", "political" ]
            },
            {
               "long_name" : "Texas",
               "short_name" : "TX",
               "types" : [ "administrative_area_level_1", "political" ]
            },
            {
               "long_name" : "United States",
               "short_name" : "US",
               "types" : [ "country", "political" ]
            }
         ],
         "formatted_address" : "Harris County, TX, USA",
         "geometry" : {
            "bounds" : {
               "northeast" : {
                  "lat" : 30.1706059,
                  "lng" : -94.90849209999999
               },
               "southwest" : {
                  "lat" : 29.497339,
                  "lng" : -95.96076509999999
               }
            },
            "location" : {
               "lat" : 29.7751825,
               "lng" : -95.3102505
            },
            "location_type" : "APPROXIMATE",
            "viewport" : {
               "northeast" : {
                  "lat" : 30.1706059,
                  "lng" : -94.90849209999999
               },
               "southwest" : {
                  "lat" : 29.497339,
                  "lng" : -95.96076509999999
               }
            }
         },
         "place_id" : "ChIJ9TB__YrMQIYR2tK7sndSry4",
         "types" : [ "administrative_area_level_2", "political" ]
      },
      {
         "address_components" : [
            {
               "long_name" : "Texas",
               "short_name" : "Texas",
               "types" : [ "administrative_area_level_1", "political" ]
            },
            {
               "long_name" : "United States",
               "short_name" : "US",
               "types" : [ "country", "political" ]
            }
         ],
         "formatted_address" : "Texas, USA",
         "geometry" : {
            "bounds" : {
               "northeast" : {
                  "lat" : 36.5007041,
                  "lng" : -93.5080389
               },
               "southwest" : {
                  "lat" : 25.8371638,
                  "lng" : -106.6456461
               }
            },
            "location" : {
               "lat" : 31.9685988,
               "lng" : -99.9018131
            },
            "location_type" : "APPROXIMATE",
            "viewport" : {
               "northeast" : {
                  "lat" : 36.5007041,
                  "lng" : -93.5080389
               },
               "southwest" : {
                  "lat" : 25.8371638,
                  "lng" : -106.6456461
               }
            }
         },
         "place_id" : "ChIJSTKCCzZwQIYRPN4IGI8c6xY",
         "types" : [ "administrative_area_level_1", "political" ]
      },
      {
         "address_components" : [
            {
               "long_name" : "United States",
               "short_name" : "US",
               "types" : [ "country", "political" ]
            }
         ],
         "formatted_address" : "United States",
         "geometry" : {
            "bounds" : {
               "northeast" : {
                  "lat" : 71.5388001,
                  "lng" : -66.885417
               },
               "southwest" : {
                  "lat" : 18.7763,
                  "lng" : 170.5957
               }
            },
            "location" : {
               "lat" : 37.09024,
               "lng" : -95.712891
            },
            "location_type" : "APPROXIMATE",
            "viewport" : {
               "northeast" : {
                  "lat" : 71.5388001,
                  "lng" : -66.885417
               },
               "southwest" : {
                  "lat" : 18.7763,
                  "lng" : 170.5957
               }
            }
         },
         "place_id" : "ChIJCzYy5IS16lQRQrfeQ5K5Oxw",
         "types" : [ "country", "political" ]
      }
   ],
   "status" : "OK"
}
