{
   "plus_code" : {
      "compound_code" : "F2XR+53 Budapest, Hungary",
      "global_code" : "8FVXF2XR+53"
   },
   "results" : [
      {
         "address_components" : [
            {
               "long_name" : "1013",
               "short_name" : "1013",
               "types" : [ "postal_code" ]
            },
            {
               "long_name" : "District I.",
               "short_name" : "District I.",
               "types" : [ "political", "sublocality", "sublocality_level_1" ]
            },
            {
               "long_name" : "Budapest",
               "short_name" : "Budapest",
               "types" : [ "locality", "political" ]
            },
            {
               "long_name" : "Hungary",
               "short_name" : "HU",
               "types" : [ "country", "political" ]
            }
         ],
         "formatted_address" : "Budapest, 1013 Hungary",
         "geometry" : {
            "bounds" : {
               "northeast" : {
                  "lat" : 47.499106,
                  "lng" : 19.0513669
               },
               "southwest" : {
                  "lat" : 47.487702,
                  "lng" : 19.028659
               }
            },
            "location" : {
               "lat" : 47.4942449,
               "lng" : 19.0424828
            },
            "location_type" : "APPROXIMATE",
            "viewport" : {
               "northeast" : {
                  "lat" : 47.499106,
                  "lng" : 19.0513669
               },
               "southwest" : {
                  "lat" : 47.487702,
                  "lng" : 19.028659
               }
            }
         },
         "place_id" : "ChIJqw63WCPcQUcRYxxp6ijEAAs",
         "types" : [ "postal_code" ]
      },
      {
         "address_components" : [
            {
               "long_name" : "Víziváros",
               "short_name" : "Víziváros",
               "types" : [ "neighborhood", "political" ]
            },
            {
               "long_name" : "I. kerület",
               "short_name" : "I. kerület",
               "types" : [ "political", "sublocality", "sublocality_level_1" ]
            },
            {
               "long_name" : "Budapest",
               "short_name" : "Budapest",
               "types" : [ "locality", "political" ]
            },
            {
               "long_name" : "Hungary",
               "short_name" : "HU",
               "types" : [ "country", "political" ]
            }
         ],
         "formatted_address" : "Budapest, Víziváros, Hungary",
         "geometry" : {
            "bounds" : {
               "northeast" : {
                  "lat" : 47.511907,
                  "lng" : 19.0463669
               },
               "southwest" : {
                  "lat" : 47.493158,
                  "lng" : 19.024849
               }
            },
            "location" : {
               "lat" : 47.50504309999999,
               "lng" : 19.038844
            },
            "location_type" : "APPROXIMATE",
            "viewport" : {
               "northeast" : {
                  "lat" : 47.511907,
                  "lng" : 19.0463669
               },
               "southwest" : {
                  "lat" : 47.493158,
                  "lng" : 19.024849
               }
            }
         },
         "place_id" : "ChIJKxFtYxjcQUcRGW9Kt-tVbM0",
         "types" : [ "neighborhood", "political" ]
      },
      {
         "address_components" : [
            {
               "long_name" : "District I.",
               "short_name" : "District I.",
               "types" : [ "political", "sublocality", "sublocality_level_1" ]
            },
            {
               "long_name" : "Budapest",
               "short_name" : "Budapest",
               "types" : [ "locality", "political" ]
            },
            {
               "long_name" : "Hungary",
               "short_name" : "HU",
               "types" : [ "country", "political" ]
            }
         ],
         "formatted_address" : "Budapest, District I., Hungary",
         "geometry" : {
            "bounds" : {
               "northeast" : {
                  "lat" : 47.507985,
                  "lng" : 19.05137
               },
               "southwest" : {
                  "lat" : 47.48565500000001,
                  "lng" : 19.02351
               }
            },
            "location" : {
               "lat" : 47.4968219,
               "lng" : 19.037458
            },
            "location_type" : "APPROXIMATE",
            "viewport" : {
               "northeast" : {
                  "lat" : 47.507985,
                  "lng" : 19.05137
               },
               "southwest" : {
                  "lat" : 47.48565500000001,
                  "lng" : 19.02351
               }
            }
         },
         "place_id" : "ChIJTfORhTzcQUcRQNUeDCnEAAU",
         "types" : [ "political", "sublocality", "sublocality_level_1" ]
      },
      {
         "address_components" : [
            {
               "long_name" : "Budapest",
               "short_name" : "Budapest",
               "types" : [ "administrative_area_level_1", "political" ]
            },
            {
               "long_name" : "Budapest",
               "short_name" : "Budapest",
               "types" : [ "locality", "political" ]
            },
            {
               "long_name" : "Hungary",
               "short_name" : "HU",
               "types" : [ "country", "political" ]
            }
         ],
         "formatted_address" : "Budapest, Hungary",
         "geometry" : {
            "bounds" : {
               "northeast" : {
                  "lat" : 47.6130119,
                  "lng" : 19.3345049
               },
               "southwest" : {
                  "lat" : 47.349415,
                  "lng" : 18.9261011
               }
            },
            "location" : {
               "lat" : 47.4763392,
               "lng" : 19.0652774
            },
            "location_type" : "APPROXIMATE",
            "viewport" : {
               "northeast" : {
                  "lat" : 47.6130119,
                  "lng" : 19.3345049
               },
               "southwest" : {
                  "lat" : 47.349415,
                  "lng" : 18.9261011
               }
            }
         },
         "place_id" : "ChIJyc_U0TTDQUcRYBAeDCnEAAE",
         "types" : [ "administrative_area_level_1", "political" ]
      },
      {
         "address_components" : [
            {
               "long_name" : "Budapest",
               "short_name" : "Budapest",
               "types" : [ "locality", "political" ]
            },
            {
               "long_name" : "Hungary",
               "short_name" : "HU",
               "types" : [ "country", "political" ]
            }
         ],
         "formatted_address" : "Budapest, Hungary",
         "geometry" : {
            "bounds" : {
               "northeast" : {
                  "lat" : 47.6130119,
                  "lng" : 19.3345049
               },
               "southwest" : {
                  "lat" : 47.349415,
                  "lng" : 18.9261011
               }
            },
            "location" : {
               "lat" : 47.497912,
               "lng" : 19.040235
            },
            "location_type" : "APPROXIMATE",
            "viewport" : {
               "northeast" : {
                  "lat" : 47.6130119,
                  "lng" : 19.3345049
               },
               "southwest" : {
                  "lat" : 47.349415,
                  "lng" : 18.9261011
               }
            }
         },
         "place_id" : "ChIJyc_U0TTDQUcRYBEeDCnEAAQ",
         "types" : [ "locality", "political" ]
      },
      {
         "address_components" : [
            {
               "long_name" : "Budapest",
               "short_name" : "Budapest",
               "types" : [ "administrative_area_level_2", "political" ]
            },
            {
               "long_name" : "Budapest",
               "short_name" : "Budapest",
               "types" : [ "locality", "political" ]
            },
            {
               "long_name" : "Hungary",
               "short_name" : "HU",
               "types" : [ "country", "political" ]
            }
         ],
         "formatted_address" : "Budapest, Hungary",
         "geometry" : {
            "bounds" : {
               "northeast" : {
                  "lat" : 47.6130119,
                  "lng" : 19.3345049
               },
               "southwest" : {
                  "lat" : 47.349415,
                  "lng" : 18.9261011
               }
            },
            "location" : {
               "lat" : 47.4763392,
               "lng" : 19.0652774
            },
            "location_type" : "APPROXIMATE",
            "viewport" : {
               "northeast" : {
                  "lat" : 47.6130119,
                  "lng" : 19.3345049
               },
               "southwest" : {
                  "lat" : 47.349415,
                  "lng" : 18.9261011
               }
            }
         },
         "place_id" : "ChIJ73nSljTDQUcRLQb6xdENJ6U",
         "types" : [ "administrative_area_level_2", "political" ]
      },
      {
         "address_components" : [
            {
               "long_name" : "Hungary",
               "short_name" : "HU",
               "types" : [ "country", "political" ]
            }
         ],
         "formatted_address" : "Hungary",
         "geometry" : {
            "bounds" : {
               "northeast" : {
                  "lat" : 48.585234,
                  "lng" : 22.8965438
               },
               "southwest" : {
                  "lat" : 45.7370889,
                  "lng" : 16.1133078
               }
            },
            "location" : {
               "lat" : 47.162494,
               "lng" : 19.5033041
            },
            "location_type" : "APPROXIMATE",
            "viewport" : {
               "northeast" : {
                  "lat" : 48.585234,
                  "lng" : 22.8965438
               },
               "southwest" : {
                  "lat" : 45.7370889,
                  "lng" : 16.1133078
               }
            }
         },
         "place_id" : "ChIJw-Q333uDQUcREBAeDCnEAAA",
         "types" : [ "country", "political" ]
      }
   ],
   "status" : "OK"
}
