{
   "plus_code" : {
      "compound_code" : "85X6+94 Pomacle, France",
      "global_code" : "8FX685X6+94"
   },
   "results" : [
      {
         "address_components" : [
            {
               "long_name" : "Pomacle",
               "short_name" : "Pomacle",
               "types" : [ "locality", "political" ]
            },
            {
               "long_name" : "France",
               "short_name" : "FR",
               "types" : [ "country", "political" ]
            },
            {
               "long_name" : "51110",
               "short_name" : "51110",
               "types" : [ "postal_code" ]
            }
         ],
         "formatted_address" : "Route de Bazancourt, 51110 Pomacle, France",
         "geometry" : {
            "location" : {
               "lat" : 49.3483951,
               "lng" : 4.1603312
            },
            "location_type" : "GEOMETRIC_CENTER",
            "viewport" : {
               "northeast" : {
                  "lat" : 49.34974408029149,
                  "lng" : 4.161680180291502
               },
               "southwest" : {
                  "lat" : 49.34704611970849,
                  "lng" : 4.158982219708498
               }
            }
         },
         "place_id" : "ChIJmVK16MOc6UcRM8ADbmLFZCQ",
         "plus_code" : {
            "compound_code" : "85X6+94 Pomacle, France",
            "global_code" : "8FX685X6+94"
         },
         "types" : [ "establishment", "point_of_interest" ]
      },
      {
         "address_components" : [
            {
               "long_name" : "Les Rouges Terres",
               "short_name" : "D31",
               "types" : [ "route" ]
            },
            {
               "long_name" : "Bazancourt",
               "short_name" : "Bazancourt",
               "types" : [ "locality", "political" ]
            },
            {
               "long_name" : "Marne",
               "short_name" : "Marne",
               "types" : [ "administrative_area_level_2", "political" ]
            },
            {
               "long_name" : "Grand Est",
               "short_name" : "Grand Est",
               "types" : [ "administrative_area_level_1", "political" ]
            },
            {
               "long_name" : "France",
               "short_name" : "FR",
               "types" : [ "country", "political" ]
            },
            {
               "long_name" : "51110",
               "short_name" : "51110",
               "types" : [ "postal_code" ]
            }
         ],
         "formatted_address" : "D31, 51110 Bazancourt, France",
         "geometry" : {
            "bounds" : {
               "northeast" : {
                  "lat" : 49.3486449,
                  "lng" : 4.1629952
               },
               "southwest" : {
                  "lat" : 49.3476973,
                  "lng" : 4.1626707
               }
            },
            "location" : {
               "lat" : 49.34817109999999,
               "lng" : 4.1628329
            },
            "location_type" : "GEOMETRIC_CENTER",
            "viewport" : {
               "northeast" : {
                  "lat" : 49.3495200802915,
                  "lng" : 4.164181930291502
               },
               "southwest" : {
                  "lat" : 49.34682211970851,
                  "lng" : 4.161483969708497
               }
            }
         },
         "place_id" : "ChIJoad8xcac6UcR4JTp6w10CAI",
         "types" : [ "route" ]
      },
      {
         "address_components" : [
            {
               "long_name" : "Pomacle",
               "short_name" : "Pomacle",
               "types" : [ "locality", "political" ]
            },
            {
               "long_name" : "Marne",
               "short_name" : "Marne",
               "types" : [ "administrative_area_level_2", "political" ]
            },
            {
               "long_name" : "Grand Est",
               "short_name" : "Grand Est",
               "types" : [ "administrative_area_level_1", "political" ]
            },
            {
               "long_name" : "France",
               "short_name" : "FR",
               "types" : [ "country", "political" ]
            },
            {
               "long_name" : "51110",
               "short_name" : "51110",
               "types" : [ "postal_code" ]
            }
         ],
         "formatted_address" : "51110 Pomacle, France",
         "geometry" : {
            "bounds" : {
               "northeast" : {
                  "lat" : 49.3550019,
                  "lng" : 4.184368
               },
               "southwest" : {
                  "lat" : 49.3172129,
                  "lng" : 4.113136
               }
            },
            "location" : {
               "lat" : 49.336154,
               "lng" : 4.146084
            },
            "location_type" : "APPROXIMATE",
            "viewport" : {
               "northeast" : {
                  "lat" : 49.3550019,
                  "lng" : 4.184368
               },
               "southwest" : {
                  "lat" : 49.3172129,
                  "lng" : 4.113136
               }
            }
         },
         "place_id" : "ChIJYYSDdOGc6UcRtJwj4T8P1Q0",
         "types" : [ "locality", "political" ]
      },
      {
         "address_components" : [
            {
               "long_name" : "51110",
               "short_name" : "51110",
               "types" : [ "postal_code" ]
            },
            {
               "long_name" : "Heutrégiville",
               "short_name" : "Heutrégiville",
               "types" : [ "locality", "political" ]
            },
            {
               "long_name" : "Marne",
               "short_name" : "Marne",
               "types" : [ "administrative_area_level_2", "political" ]
            },
            {
               "long_name" : "Grand Est",
               "short_name" : "Grand Est",
               "types" : [ "administrative_area_level_1", "political" ]
            },
            {
               "long_name" : "France",
               "short_name" : "FR",
               "types" : [ "country", "political" ]
            }
         ],
         "formatted_address" : "51110 Heutrégiville, France",
         "geometry" : {
            "bounds" : {
               "northeast" : {
                  "lat" : 49.4059103,
                  "lng" : 4.3078403
               },
               "southwest" : {
                  "lat" : 49.28049240000001,
                  "lng" : 4.0353294
               }
            },
            "location" : {
               "lat" : 49.3516983,
               "lng" : 4.156632699999999
            },
            "location_type" : "APPROXIMATE",
            "viewport" : {
               "northeast" : {
                  "lat" : 49.4059103,
                  "lng" : 4.3078403
               },
               "southwest" : {
                  "lat" : 49.28049240000001,
                  "lng" : 4.0353294
               }
            }
         },
         "place_id" : "ChIJm5TeXc6c6UcRkKZxAL1fChw",
         "postcode_localities" : [
            "Auménancourt",
            "Bazancourt",
            "Boult-sur-Suippe",
            "Burgundy",
            "Caurel",
            "Fresne-lès-Reims",
            "Heutrégiville",
            "Isles-sur-Suippe",
            "Lavannes",
            "Pomacle",
            "Saint-Étienne-sur-Suippe",
            "Warmeriville"
         ],
         "types" : [ "postal_code" ]
      },
      {
         "address_components" : [
            {
               "long_name" : "Marne",
               "short_name" : "Marne",
               "types" : [ "administrative_area_level_2", "political" ]
            },
            {
               "long_name" : "Grand Est",
               "short_name" : "Grand Est",
               "types" : [ "administrative_area_level_1", "political" ]
            },
            {
               "long_name" : "France",
               "short_name" : "FR",
               "types" : [ "country", "political" ]
            }
         ],
         "formatted_address" : "Marne, France",
         "geometry" : {
            "bounds" : {
               "northeast" : {
                  "lat" : 49.40782799999999,
                  "lng" : 5.039668
               },
               "southwest" : {
                  "lat" : 48.515251,
                  "lng" : 3.395865
               }
            },
            "location" : {
               "lat" : 49.128754,
               "lng" : 4.1475445
            },
            "location_type" : "APPROXIMATE",
            "viewport" : {
               "northeast" : {
                  "lat" : 49.40782799999999,
                  "lng" : 5.039668
               },
               "southwest" : {
                  "lat" : 48.515251,
                  "lng" : 3.395865
               }
            }
         },
         "place_id" : "ChIJMw82jABe6UcRsCg3mrlfCgM",
         "types" : [ "administrative_area_level_2", "political" ]
      },
      {
         "address_components" : [
            {
               "long_name" : "Grand Est",
               "short_name" : "Grand Est",
               "types" : [ "administrative_area_level_1", "political" ]
            },
            {
               "long_name" : "France",
               "short_name" : "FR",
               "types" : [ "country", "political" ]
            }
         ],
         "formatted_address" : "Grand Est, France",
         "geometry" : {
            "bounds" : {
               "northeast" : {
                  "lat" : 50.169162,
                  "lng" : 8.233549099999999
               },
               "southwest" : {
                  "lat" : 47.4202619,
                  "lng" : 3.3836479
               }
            },
            "location" : {
               "lat" : 48.699803,
               "lng" : 6.1878074
            },
            "location_type" : "APPROXIMATE",
            "viewport" : {
               "northeast" : {
                  "lat" : 50.169162,
                  "lng" : 8.233549099999999
               },
               "southwest" : {
                  "lat" : 47.4202619,
                  "lng" : 3.3836479
               }
            }
         },
         "place_id" : "ChIJsbWPxd9VkUcR_RfRz30ZyLk",
         "types" : [ "administrative_area_level_1", "political" ]
      },
      {
         "address_components" : [
            {
               "long_name" : "France",
               "short_name" : "FR",
               "types" : [ "country", "political" ]
            }
         ],
         "formatted_address" : "France",
         "geometry" : {
            "bounds" : {
               "northeast" : {
                  "lat" : 51.1241999,
                  "lng" : 9.6624999
               },
               "southwest" : {
                  "lat" : 41.31433,
                  "lng" : -5.5591
               }
            },
            "location" : {
               "lat" : 46.227638,
               "lng" : 2.213749
            },
            "location_type" : "APPROXIMATE",
            "viewport" : {
               "northeast" : {
                  "lat" : 51.1241999,
                  "lng" : 9.6624999
               },
               "southwest" : {
                  "lat" : 41.31433,
                  "lng" : -5.5591
               }
            }
         },
         "place_id" : "ChIJMVd4MymgVA0R99lHx5Y__Ws",
         "types" : [ "country", "political" ]
      }
   ],
   "status" : "OK"
}
