{
   "plus_code" : {
      "compound_code" : "MMWG+P7 Bergamo, Province of Bergamo, Italy",
      "global_code" : "8FQFMMWG+P7"
   },
   "results" : [
      {
         "address_components" : [
            {
               "long_name" : "124",
               "short_name" : "124",
               "types" : [ "street_number" ]
            },
            {
               "long_name" : "Via G. Camozzi",
               "short_name" : "Via G. Camozzi",
               "types" : [ "route" ]
            },
            {
               "long_name" : "Bergamo",
               "short_name" : "Bergamo",
               "types" : [ "locality", "political" ]
            },
            {
               "long_name" : "Bergamo",
               "short_name" : "Bergamo",
               "types" : [ "administrative_area_level_3", "political" ]
            },
            {
               "long_name" : "Provincia di Bergamo",
               "short_name" : "BG",
               "types" : [ "administrative_area_level_2", "political" ]
            },
            {
               "long_name" : "Lombardia",
               "short_name" : "Lombardia",
               "types" : [ "administrative_area_level_1", "political" ]
            },
            {
               "long_name" : "Italy",
               "short_name" : "IT",
               "types" : [ "country", "political" ]
            },
            {
               "long_name" : "24121",
               "short_name" : "24121",
               "types" : [ "postal_code" ]
            }
         ],
         "formatted_address" : "Via G. Camozzi, 124, 24121 Bergamo BG, Italy",
         "geometry" : {
            "location" : {
               "lat" : 45.6968155,
               "lng" : 9.6756408
            },
            "location_type" : "ROOFTOP",
            "viewport" : {
               "northeast" : {
                  "lat" : 45.6981644802915,
                  "lng" : 9.676989780291501
               },
               "southwest" : {
                  "lat" : 45.6954665197085,
                  "lng" : 9.674291819708499
               }
            }
         },
         "place_id" : "ChIJr2DVpBtRgUcR8dMLJCPJfQQ",
         "plus_code" : {
            "compound_code" : "MMWG+P7 Bergamo, Province of Bergamo, Italy",
            "global_code" : "8FQFMMWG+P7"
         },
         "types" : [ "establishment", "library", "point_of_interest" ]
      },
      {
         "address_components" : [
            {
               "long_name" : "77",
               "short_name" : "77",
               "types" : [ "street_number" ]
            },
            {
               "long_name" : "Via G. Camozzi",
               "short_name" : "Via G. Camozzi",
               "types" : [ "route" ]
            },
            {
               "long_name" : "Bergamo",
               "short_name" : "Bergamo",
               "types" : [ "locality", "political" ]
            },
            {
               "long_name" : "Bergamo",
               "short_name" : "Bergamo",
               "types" : [ "administrative_area_level_3", "political" ]
            },
            {
               "long_name" : "Provincia di Bergamo",
               "short_name" : "BG",
               "types" : [ "administrative_area_level_2", "political" ]
            },
            {
               "long_name" : "Lombardia",
               "short_name" : "Lombardia",
               "types" : [ "administrative_area_level_1", "political" ]
            },
            {
               "long_name" : "Italy",
               "short_name" : "IT",
               "types" : [ "country", "political" ]
            },
            {
               "long_name" : "24121",
               "short_name" : "24121",
               "types" : [ "postal_code" ]
            }
         ],
         "formatted_address" : "Via G. Camozzi, 77, 24121 Bergamo BG, Italy",
         "geometry" : {
            "bounds" : {
               "northeast" : {
                  "lat" : 45.6969477,
                  "lng" : 9.6758451
               },
               "southwest" : {
                  "lat" : 45.69668129999999,
                  "lng" : 9.675434599999999
               }
            },
            "location" : {
               "lat" : 45.69686410000001,
               "lng" : 9.6757268
            },
            "location_type" : "ROOFTOP",
            "viewport" : {
               "northeast" : {
                  "lat" : 45.69816348029149,
                  "lng" : 9.676988830291503
               },
               "southwest" : {
                  "lat" : 45.69546551970849,
                  "lng" : 9.674290869708498
               }
            }
         },
         "place_id" : "ChIJB-PquhtRgUcRWe5CQZ1JDrg",
         "types" : [ "premise" ]
      },
      {
         "address_components" : [
            {
               "long_name" : "77",
               "short_name" : "77",
               "types" : [ "street_number" ]
            },
            {
               "long_name" : "Via G. Camozzi",
               "short_name" : "Via G. Camozzi",
               "types" : [ "route" ]
            },
            {
               "long_name" : "Bergamo",
               "short_name" : "Bergamo",
               "types" : [ "locality", "political" ]
            },
            {
               "long_name" : "Bergamo",
               "short_name" : "Bergamo",
               "types" : [ "administrative_area_level_3", "political" ]
            },
            {
               "long_name" : "Provincia di Bergamo",
               "short_name" : "BG",
               "types" : [ "administrative_area_level_2", "political" ]
            },
            {
               "long_name" : "Lombardia",
               "short_name" : "Lombardia",
               "types" : [ "administrative_area_level_1", "political" ]
            },
            {
               "long_name" : "Italy",
               "short_name" : "IT",
               "types" : [ "country", "political" ]
            },
            {
               "long_name" : "24121",
               "short_name" : "24121",
               "types" : [ "postal_code" ]
            }
         ],
         "formatted_address" : "Via G. Camozzi, 77, 24121 Bergamo BG, Italy",
         "geometry" : {
            "location" : {
               "lat" : 45.6967873,
               "lng" : 9.6756721
            },
            "location_type" : "ROOFTOP",
            "viewport" : {
               "northeast" : {
                  "lat" : 45.6981362802915,
                  "lng" : 9.677021080291503
               },
               "southwest" : {
                  "lat" : 45.6954383197085,
                  "lng" : 9.674323119708498
               }
            }
         },
         "place_id" : "ChIJm5a1uhtRgUcRsozl8AhahtU",
         "plus_code" : {
            "compound_code" : "MMWG+P7 Bergamo, Province of Bergamo, Italy",
            "global_code" : "8FQFMMWG+P7"
         },
         "types" : [ "street_address" ]
      },
      {
         "address_components" : [
            {
               "long_name" : "79",
               "short_name" : "79",
               "types" : [ "street_number" ]
            },
            {
               "long_name" : "Via G. Camozzi",
               "short_name" : "Via G. Camozzi",
               "types" : [ "route" ]
            },
            {
               "long_name" : "Bergamo",
               "short_name" : "Bergamo",
               "types" : [ "locality", "political" ]
            },
            {
               "long_name" : "Bergamo",
               "short_name" : "Bergamo",
               "types" : [ "administrative_area_level_3", "political" ]
            },
            {
               "long_name" : "Provincia di Bergamo",
               "short_name" : "BG",
               "types" : [ "administrative_area_level_2", "political" ]
            },
            {
               "long_name" : "Italy",
               "short_name" : "IT",
               "types" : [ "country", "political" ]
            },
            {
               "long_name" : "24121",
               "short_name" : "24121",
               "types" : [ "postal_code" ]
            }
         ],
         "formatted_address" : "Via G. Camozzi, 79, 24121 Bergamo BG, Italy",
         "geometry" : {
            "location" : {
               "lat" : 45.6967195,
               "lng" : 9.675739199999999
            },
            "location_type" : "RANGE_INTERPOLATED",
            "viewport" : {
               "northeast" : {
                  "lat" : 45.6980684802915,
                  "lng" : 9.6770881802915
               },
               "southwest" : {
                  "lat" : 45.6953705197085,
                  "lng" : 9.674390219708497
               }
            }
         },
         "place_id" : "EixWaWEgRy4gQ2Ftb3p6aSwgNzksIDI0MTIxIEJlcmdhbW8gQkcsIEl0YWxpYSIaEhgKFAoSCVHwe7sbUYFHEWsV3hrLHOadEE8",
         "types" : [ "street_address" ]
      },
      {
         "address_components" : [
            {
               "long_name" : "24121",
               "short_name" : "24121",
               "types" : [ "postal_code" ]
            },
            {
               "long_name" : "Bergamo",
               "short_name" : "Bergamo",
               "types" : [ "locality", "political" ]
            },
            {
               "long_name" : "Bergamo",
               "short_name" : "Bergamo",
               "types" : [ "administrative_area_level_3", "political" ]
            },
            {
               "long_name" : "Province of Bergamo",
               "short_name" : "BG",
               "types" : [ "administrative_area_level_2", "political" ]
            },
            {
               "long_name" : "Lombardy",
               "short_name" : "Lombardy",
               "types" : [ "administrative_area_level_1", "political" ]
            },
            {
               "long_name" : "Italy",
               "short_name" : "IT",
               "types" : [ "country", "political" ]
            }
         ],
         "formatted_address" : "24121 Bergamo, Province of Bergamo, Italy",
         "geometry" : {
            "bounds" : {
               "northeast" : {
                  "lat" : 45.704889,
                  "lng" : 9.685767
               },
               "southwest" : {
                  "lat" : 45.691007,
                  "lng" : 9.6611689
               }
            },
            "location" : {
               "lat" : 45.69626419999999,
               "lng" : 9.6746666
            },
            "location_type" : "APPROXIMATE",
            "viewport" : {
               "northeast" : {
                  "lat" : 45.704889,
                  "lng" : 9.685767
               },
               "southwest" : {
                  "lat" : 45.691007,
                  "lng" : 9.6611689
               }
            }
         },
         "place_id" : "ChIJFWHLMhpRgUcR0G7hegV4Bhw",
         "types" : [ "postal_code" ]
      },
      {
         "address_components" : [
            {
               "long_name" : "Bergamo",
               "short_name" : "Bergamo",
               "types" : [ "locality", "political" ]
            },
            {
               "long_name" : "Bergamo",
               "short_name" : "Bergamo",
               "types" : [ "administrative_area_level_3", "political" ]
            },
            {
               "long_name" : "Province of Bergamo",
               "short_name" : "BG",
               "types" : [ "administrative_area_level_2", "political" ]
            },
            {
               "long_name" : "Lombardy",
               "short_name" : "Lombardy",
               "types" : [ "administrative_area_level_1", "political" ]
            },
            {
               "long_name" : "Italy",
               "short_name" : "IT",
               "types" : [ "country", "political" ]
            }
         ],
         "formatted_address" : "Bergamo, Province of Bergamo, Italy",
         "geometry" : {
            "bounds" : {
               "northeast" : {
                  "lat" : 45.7238489,
                  "lng" : 9.713632799999999
               },
               "southwest" : {
                  "lat" : 45.6625158,
                  "lng" : 9.620546299999999
               }
            },
            "location" : {
               "lat" : 45.6982642,
               "lng" : 9.677269799999999
            },
            "location_type" : "APPROXIMATE",
            "viewport" : {
               "northeast" : {
                  "lat" : 45.7238489,
                  "lng" : 9.713632799999999
               },
               "southwest" : {
                  "lat" : 45.6625158,
                  "lng" : 9.620546299999999
               }
            }
         },
         "place_id" : "ChIJc65ivBFRgUcR0aTlC4_LL9M",
         "types" : [ "locality", "political" ]
      },
      {
         "address_components" : [
            {
               "long_name" : "Bergamo",
               "short_name" : "Bergamo",
               "types" : [ "administrative_area_level_3", "political" ]
            },
            {
               "long_name" : "Province of Bergamo",
               "short_name" : "BG",
               "types" : [ "administrative_area_level_2", "political" ]
            },
            {
               "long_name" : "Lombardy",
               "short_name" : "Lombardy",
               "types" : [ "administrative_area_level_1", "political" ]
            },
            {
               "long_name" : "Italy",
               "short_name" : "IT",
               "types" : [ "country", "political" ]
            }
         ],
         "formatted_address" : "Bergamo, Province of Bergamo, Italy",
         "geometry" : {
            "bounds" : {
               "northeast" : {
                  "lat" : 45.7320261,
                  "lng" : 9.713632799999999
               },
               "southwest" : {
                  "lat" : 45.6551748,
                  "lng" : 9.618890199999999
               }
            },
            "location" : {
               "lat" : 45.6941889,
               "lng" : 9.670999199999999
            },
            "location_type" : "APPROXIMATE",
            "viewport" : {
               "northeast" : {
                  "lat" : 45.7320261,
                  "lng" : 9.713632799999999
               },
               "southwest" : {
                  "lat" : 45.6551748,
                  "lng" : 9.618890199999999
               }
            }
         },
         "place_id" : "ChIJhyK-ag5RgUcR4P1mLgJ4BgQ",
         "types" : [ "administrative_area_level_3", "political" ]
      },
      {
         "address_components" : [
            {
               "long_name" : "Province of Bergamo",
               "short_name" : "Province of Bergamo",
               "types" : [ "administrative_area_level_2", "political" ]
            },
            {
               "long_name" : "Lombardy",
               "short_name" : "Lombardy",
               "types" : [ "administrative_area_level_1", "political" ]
            },
            {
               "long_name" : "Italy",
               "short_name" : "IT",
               "types" : [ "country", "political" ]
            }
         ],
         "formatted_address" : "Province of Bergamo, Italy",
         "geometry" : {
            "bounds" : {
               "northeast" : {
                  "lat" : 46.091296,
                  "lng" : 10.2622409
               },
               "southwest" : {
                  "lat" : 45.4222737,
                  "lng" : 9.4458494
               }
            },
            "location" : {
               "lat" : 45.8578304,
               "lng" : 9.881997799999999
            },
            "location_type" : "APPROXIMATE",
            "viewport" : {
               "northeast" : {
                  "lat" : 46.091296,
                  "lng" : 10.2622409
               },
               "southwest" : {
                  "lat" : 45.4222737,
                  "lng" : 9.4458494
               }
            }
         },
         "place_id" : "ChIJi0JKlzFfgUcRYH5mLgJ4BgM",
         "types" : [ "administrative_area_level_2", "political" ]
      },
      {
         "address_components" : [
            {
               "long_name" : "Lombardy",
               "short_name" : "Lombardy",
               "types" : [ "administrative_area_level_1", "political" ]
            },
            {
               "long_name" : "Italy",
               "short_name" : "IT",
               "types" : [ "country", "political" ]
            }
         ],
         "formatted_address" : "Lombardy, Italy",
         "geometry" : {
            "bounds" : {
               "northeast" : {
                  "lat" : 46.6351853,
                  "lng" : 11.4276993
               },
               "southwest" : {
                  "lat" : 44.6796491,
                  "lng" : 8.4978605
               }
            },
            "location" : {
               "lat" : 45.47906709999999,
               "lng" : 9.8452433
            },
            "location_type" : "APPROXIMATE",
            "viewport" : {
               "northeast" : {
                  "lat" : 46.6351853,
                  "lng" : 11.4276993
               },
               "southwest" : {
                  "lat" : 44.6796491,
                  "lng" : 8.4978605
               }
            }
         },
         "place_id" : "ChIJf4M-GsNEgUcR1JMVKCIm8qY",
         "types" : [ "administrative_area_level_1", "political" ]
      },
      {
         "address_components" : [
            {
               "long_name" : "Italy",
               "short_name" : "IT",
               "types" : [ "country", "political" ]
            }
         ],
         "formatted_address" : "Italy",
         "geometry" : {
            "bounds" : {
               "northeast" : {
                  "lat" : 47.092,
                  "lng" : 18.7975999
               },
               "southwest" : {
                  "lat" : 35.4897,
                  "lng" : 6.6267201
               }
            },
            "location" : {
               "lat" : 41.87194,
               "lng" : 12.56738
            },
            "location_type" : "APPROXIMATE",
            "viewport" : {
               "northeast" : {
                  "lat" : 47.092,
                  "lng" : 18.7975999
               },
               "southwest" : {
                  "lat" : 35.4897,
                  "lng" : 6.6267201
               }
            }
         },
         "place_id" : "ChIJA9KNRIL-1BIRb15jJFz1LOI",
         "types" : [ "country", "political" ]
      }
   ],
   "status" : "OK"
}
