{
   "plus_code" : {
      "compound_code" : "VPGW+8V Berkeley, CA, USA",
      "global_code" : "849VVPGW+8V"
   },
   "results" : [
      {
         "address_components" : [
            {
               "long_name" : "1",
               "short_name" : "1",
               "types" : [ "street_number" ]
            },
            {
               "long_name" : "Cyclotron Road",
               "short_name" : "Cyclotron Rd",
               "types" : [ "route" ]
            },
            {
               "long_name" : "Berkeley",
               "short_name" : "Berkeley",
               "types" : [ "locality", "political" ]
            },
            {
               "long_name" : "Alameda County",
               "short_name" : "Alameda County",
               "types" : [ "administrative_area_level_2", "political" ]
            },
            {
               "long_name" : "California",
               "short_name" : "CA",
               "types" : [ "administrative_area_level_1", "political" ]
            },
            {
               "long_name" : "United States",
               "short_name" : "US",
               "types" : [ "country", "political" ]
            },
            {
               "long_name" : "94720",
               "short_name" : "94720",
               "types" : [ "postal_code" ]
            }
         ],
         "formatted_address" : "1 Cyclotron Rd, Berkeley, CA 94720, USA",
         "geometry" : {
            "location" : {
               "lat" : 37.87579849999999,
               "lng" : -122.2528496
            },
            "location_type" : "ROOFTOP",
            "viewport" : {
               "northeast" : {
                  "lat" : 37.87714748029149,
                  "lng" : -122.2515006197085
               },
               "southwest" : {
                  "lat" : 37.87444951970849,
                  "lng" : -122.2541985802915
               }
            }
         },
         "place_id" : "ChIJj0QzjrKAj4AR_vRW4bBbOk0",
         "plus_code" : {
            "compound_code" : "VPGW+8V Berkeley, California, United States",
            "global_code" : "849VVPGW+8V"
         },
         "types" : [ "establishment", "point_of_interest" ]
      },
      {
         "address_components" : [
            {
               "long_name" : "Chu Road",
               "short_name" : "Chu Rd",
               "types" : [ "route" ]
            },
            {
               "long_name" : "Berkeley",
               "short_name" : "Berkeley",
               "types" : [ "locality", "political" ]
            },
            {
               "long_name" : "Alameda County",
               "short_name" : "Alameda County",
               "types" : [ "administrative_area_level_2", "political" ]
            },
            {
               "long_name" : "California",
               "short_name" : "CA",
               "types" : [ "administrative_area_level_1", "political" ]
            },
            {
               "long_name" : "United States",
               "short_name" : "US",
               "types" : [ "country", "political" ]
            },
            {
               "long_name" : "94720",
               "short_name" : "94720",
               "types" : [ "postal_code" ]
            }
         ],
         "formatted_address" : "Chu Rd, Berkeley, CA 94720, USA",
         "geometry" : {
            "bounds" : {
               "northeast" : {
                  "lat" : 37.8758168,
                  "lng" : -122.2532227
               },
               "southwest" : {
                  "lat" : 37.8755562,
                  "lng" : -122.253298
               }
            },
            "location" : {
               "lat" : 37.8756865,
               "lng" : -122.2532604
            },
            "location_type" : "GEOMETRIC_CENTER",
            "viewport" : {
               "northeast" : {
                  "lat" : 37.8770354802915,
                  "lng" : -122.2519113697085
               },
               "southwest" : {
                  "lat" : 37.8743375197085,
                  "lng" : -122.2546093302915
               }
            }
         },
         "place_id" : "ChIJQ65Npjx8hYARHNI2tTClT9U",
         "types" : [ "route" ]
      },
      {
         "address_components" : [
            {
               "long_name" : "94720",
               "short_name" : "94720",
               "types" : [ "postal_code" ]
            },
            {
               "long_name" : "Berkeley",
               "short_name" : "Berkeley",
               "types" : [ "locality", "political" ]
            },
            {
               "long_name" : "Alameda County",
               "short_name" : "Alameda County",
               "types" : [ "administrative_area_level_2", "political" ]
            },
            {
               "long_name" : "California",
               "short_name" : "CA",
               "types" : [ "administrative_area_level_1", "political" ]
            },
            {
               "long_name" : "United States",
               "short_name" : "US",
               "types" : [ "country", "political" ]
            }
         ],
         "formatted_address" : "Berkeley, CA 94720, USA",
         "geometry" : {
            "bounds" : {
               "northeast" : {
                  "lat" : 37.881405,
                  "lng" : -122.2448649
               },
               "southwest" : {
                  "lat" : 37.84554300000001,
                  "lng" : -122.332636
               }
            },
            "location" : {
               "lat" : 37.87015100000001,
               "lng" : -122.2594606
            },
            "location_type" : "APPROXIMATE",
            "viewport" : {
               "northeast" : {
                  "lat" : 37.881405,
                  "lng" : -122.2448649
               },
               "southwest" : {
                  "lat" : 37.84554300000001,
                  "lng" : -122.332636
               }
            }
         },
         "place_id" : "ChIJOS44Gjl8hYARjMTPdlBMDls",
         "types" : [ "postal_code" ]
      },
      {
         "address_components" : [
            {
               "long_name" : "Berkeley",
               "short_name" : "Berkeley",
               "types" : [ "locality", "political" ]
            },
            {
               "long_name" : "Alameda County",
               "short_name" : "Alameda County",
               "types" : [ "administrative_area_level_2", "political" ]
            },
            {
               "long_name" : "California",
               "short_name" : "CA",
               "types" : [ "administrative_area_level_1", "political" ]
            },
            {
               "long_name" : "United States",
               "short_name" : "US",
               "types" : [ "country", "political" ]
            }
         ],
         "formatted_address" : "Berkeley, CA, USA",
         "geometry" : {
            "bounds" : {
               "northeast" : {
                  "lat" : 37.9058239,
                  "lng" : -122.234179
               },
               "southwest" : {
                  "lat" : 37.835727,
                  "lng" : -122.367781
               }
            },
            "location" : {
               "lat" : 37.8715926,
               "lng" : -122.272747
            },
            "location_type" : "APPROXIMATE",
            "viewport" : {
               "northeast" : {
                  "lat" : 37.9058239,
                  "lng" : -122.234179
               },
               "southwest" : {
                  "lat" : 37.835727,
                  "lng" : -122.367781
               }
            }
         },
         "place_id" : "ChIJ00mFOjZ5hYARk-l1ppUV6pQ",
         "types" : [ "locality", "political" ]
      },
      {
         "address_components" : [
            {
               "long_name" : "Alameda County",
               "short_name" : "Alameda County",
               "types" : [ "administrative_area_level_2", "political" ]
            },
            {
               "long_name" : "California",
               "short_name" : "CA",
               "types" : [ "administrative_area_level_1", "political" ]
            },
            {
               "long_name" : "United States",
               "short_name" : "US",
               "types" : [ "country", "political" ]
            }
         ],
         "formatted_address" : "Alameda County, CA, USA",
         "geometry" : {
            "bounds" : {
               "northeast" : {
                  "lat" : 37.9058239,
                  "lng" : -121.4692139
               },
               "southwest" : {
                  "lat" : 37.4545388,
                  "lng" : -122.3737821
               }
            },
            "location" : {
               "lat" : 37.6016892,
               "lng" : -121.7195459
            },
            "location_type" : "APPROXIMATE",
            "viewport" : {
               "northeast" : {
                  "lat" : 37.9058239,
                  "lng" : -121.4692139
               },
               "southwest" : {
                  "lat" : 37.4545388,
                  "lng" : -122.3737821
               }
            }
         },
         "place_id" : "ChIJWRd5NDfyj4ARc30TGxHHxmg",
         "types" : [ "administrative_area_level_2", "political" ]
      },
      {
         "address_components" : [
            {
               "long_name" : "California",
               "short_name" : "California",
               "types" : [ "administrative_area_level_1", "political" ]
            },
            {
               "long_name" : "United States",
               "short_name" : "US",
               "types" : [ "country", "political" ]
            }
         ],
         "formatted_address" : "California, USA",
         "geometry" : {
            "bounds" : {
               "northeast" : {
                  "lat" : 42.0095169,
                  "lng" : -114.131211
               },
               "southwest" : {
                  "lat" : 32.528832,
                  "lng" : -124.482003
               }
            },
            "location" : {
               "lat" : 36.778261,
               "lng" : -119.4179324
            },
            "location_type" : "APPROXIMATE",
            "viewport" : {
               "northeast" : {
                  "lat" : 42.0095169,
                  "lng" : -114.131211
               },
               "southwest" : {
                  "lat" : 32.528832,
                  "lng" : -124.482003
               }
            }
         },
         "place_id" : "ChIJPV4oX_65j4ARVW8IJ6IJUYs",
         "types" : [ "administrative_area_level_1", "political" ]
      },
      {
         "address_components" : [
            {
               "long_name" : "United States",
               "short_name" : "US",
               "types" : [ "country", "political" ]
            }
         ],
         "formatted_address" : "United States",
         "geometry" : {
            "bounds" : {
               "northeast" : {
                  "lat" : 71.5388001,
                  "lng" : -66.885417
               },
               "southwest" : {
                  "lat" : 18.7763,
                  "lng" : 170.5957
               }
            },
            "location" : {
               "lat" : 37.09024,
               "lng" : -95.712891
            },
            "location_type" : "APPROXIMATE",
            "viewport" : {
               "northeast" : {
                  "lat" : 71.5388001,
                  "lng" : -66.885417
               },
               "southwest" : {
                  "lat" : 18.7763,
                  "lng" : 170.5957
               }
            }
         },
         "place_id" : "ChIJCzYy5IS16lQRQrfeQ5K5Oxw",
         "types" : [ "country", "political" ]
      }
   ],
   "status" : "OK"
}
