{
   "plus_code" : {
      "compound_code" : "XC58+8M Peshawar, Pakistan",
      "global_code" : "8J5HXC58+8M"
   },
   "results" : [
      {
         "address_components" : [
            {
               "long_name" : "Phase 7",
               "short_name" : "Phase 7",
               "types" : [ "political", "sublocality", "sublocality_level_2" ]
            },
            {
               "long_name" : "Hayatabad",
               "short_name" : "Hayatabad",
               "types" : [ "political", "sublocality", "sublocality_level_1" ]
            },
            {
               "long_name" : "Peshawar",
               "short_name" : "Peshawar",
               "types" : [ "locality", "political" ]
            },
            {
               "long_name" : "Peshawar",
               "short_name" : "Peshawar",
               "types" : [ "administrative_area_level_2", "political" ]
            },
            {
               "long_name" : "Khyber Pakhtunkhwa",
               "short_name" : "Khyber Pakhtunkhwa",
               "types" : [ "administrative_area_level_1", "political" ]
            },
            {
               "long_name" : "Pakistan",
               "short_name" : "PK",
               "types" : [ "country", "political" ]
            },
            {
               "long_name" : "25000",
               "short_name" : "25000",
               "types" : [ "postal_code" ]
            }
         ],
         "formatted_address" : "1-A, Sector E-5, Phase VII, Hayatabad، Phase 7 Hayatabad, Peshawar, Khyber Pakhtunkhwa 25000, Pakistan",
         "geometry" : {
            "location" : {
               "lat" : 33.9582824,
               "lng" : 71.41671769999999
            },
            "location_type" : "GEOMETRIC_CENTER",
            "viewport" : {
               "northeast" : {
                  "lat" : 33.9596313802915,
                  "lng" : 71.4180666802915
               },
               "southwest" : {
                  "lat" : 33.95693341970851,
                  "lng" : 71.41536871970848
               }
            }
         },
         "place_id" : "ChIJS0MHC3cQ2TgRfOF8uvc5a_I",
         "plus_code" : {
            "compound_code" : "XC58+8M Peshawar, Pakistan",
            "global_code" : "8J5HXC58+8M"
         },
         "types" : [ "establishment", "point_of_interest", "university" ]
      },
      {
         "address_components" : [
            {
               "long_name" : "Hayatabad",
               "short_name" : "Hayatabad",
               "types" : [ "political", "sublocality", "sublocality_level_1" ]
            },
            {
               "long_name" : "Peshawar",
               "short_name" : "Peshawar",
               "types" : [ "locality", "political" ]
            },
            {
               "long_name" : "Peshawar",
               "short_name" : "Peshawar",
               "types" : [ "administrative_area_level_2", "political" ]
            },
            {
               "long_name" : "Khyber Pakhtunkhwa",
               "short_name" : "Khyber Pakhtunkhwa",
               "types" : [ "administrative_area_level_1", "political" ]
            },
            {
               "long_name" : "Pakistan",
               "short_name" : "PK",
               "types" : [ "country", "political" ]
            },
            {
               "long_name" : "25100",
               "short_name" : "25100",
               "types" : [ "postal_code" ]
            }
         ],
         "formatted_address" : "Phase 7, Bus Ada، Hayatabad, Peshawar, Khyber Pakhtunkhwa 25100, Pakistan",
         "geometry" : {
            "location" : {
               "lat" : 33.9569227,
               "lng" : 71.4175056
            },
            "location_type" : "GEOMETRIC_CENTER",
            "viewport" : {
               "northeast" : {
                  "lat" : 33.9582716802915,
                  "lng" : 71.41885458029151
               },
               "southwest" : {
                  "lat" : 33.9555737197085,
                  "lng" : 71.4161566197085
               }
            }
         },
         "place_id" : "ChIJgUYJjXcQ2TgRxTlxSxBFzS0",
         "plus_code" : {
            "compound_code" : "XC49+Q2 Peshawar, Pakistan",
            "global_code" : "8J5HXC49+Q2"
         },
         "types" : [
            "bus_station",
            "establishment",
            "point_of_interest",
            "transit_station"
         ]
      },
      {
         "address_components" : [
            {
               "long_name" : "Street 1",
               "short_name" : "Street 1",
               "types" : [ "route" ]
            },
            {
               "long_name" : "Phase 7",
               "short_name" : "Phase 7",
               "types" : [ "political", "sublocality", "sublocality_level_2" ]
            },
            {
               "long_name" : "Hayatabad",
               "short_name" : "Hayatabad",
               "types" : [ "political", "sublocality", "sublocality_level_1" ]
            },
            {
               "long_name" : "Peshawar",
               "short_name" : "Peshawar",
               "types" : [ "locality", "political" ]
            },
            {
               "long_name" : "Peshawar",
               "short_name" : "Peshawar",
               "types" : [ "administrative_area_level_3", "political" ]
            },
            {
               "long_name" : "Peshawar",
               "short_name" : "Peshawar",
               "types" : [ "administrative_area_level_2", "political" ]
            },
            {
               "long_name" : "Khyber Pakhtunkhwa",
               "short_name" : "Khyber Pakhtunkhwa",
               "types" : [ "administrative_area_level_1", "political" ]
            },
            {
               "long_name" : "Pakistan",
               "short_name" : "PK",
               "types" : [ "country", "political" ]
            }
         ],
         "formatted_address" : "Street 1, Phase 7 Hayatabad, Peshawar, Khyber Pakhtunkhwa, Pakistan",
         "geometry" : {
            "bounds" : {
               "northeast" : {
                  "lat" : 33.9591833,
                  "lng" : 71.4174604
               },
               "southwest" : {
                  "lat" : 33.9589109,
                  "lng" : 71.41547989999999
               }
            },
            "location" : {
               "lat" : 33.9590471,
               "lng" : 71.41647019999999
            },
            "location_type" : "GEOMETRIC_CENTER",
            "viewport" : {
               "northeast" : {
                  "lat" : 33.9603960802915,
                  "lng" : 71.41781913029151
               },
               "southwest" : {
                  "lat" : 33.9576981197085,
                  "lng" : 71.41512116970848
               }
            }
         },
         "place_id" : "ChIJzaHhFHcQ2TgRmDk9g-ivEsU",
         "types" : [ "route" ]
      },
      {
         "address_components" : [
            {
               "long_name" : "Phase 7",
               "short_name" : "Phase 7",
               "types" : [ "political", "sublocality", "sublocality_level_2" ]
            },
            {
               "long_name" : "Hayatabad",
               "short_name" : "Hayatabad",
               "types" : [ "political", "sublocality", "sublocality_level_1" ]
            },
            {
               "long_name" : "Peshawar",
               "short_name" : "Peshawar",
               "types" : [ "locality", "political" ]
            },
            {
               "long_name" : "Khyber Pakhtunkhwa",
               "short_name" : "Khyber Pakhtunkhwa",
               "types" : [ "administrative_area_level_1", "political" ]
            },
            {
               "long_name" : "Pakistan",
               "short_name" : "PK",
               "types" : [ "country", "political" ]
            }
         ],
         "formatted_address" : "Phase 7 Hayatabad, Peshawar, Khyber Pakhtunkhwa, Pakistan",
         "geometry" : {
            "bounds" : {
               "northeast" : {
                  "lat" : 33.9814048,
                  "lng" : 71.4302793
               },
               "southwest" : {
                  "lat" : 33.9525855,
                  "lng" : 71.41188529999999
               }
            },
            "location" : {
               "lat" : 33.9694096,
               "lng" : 71.4210308
            },
            "location_type" : "APPROXIMATE",
            "viewport" : {
               "northeast" : {
                  "lat" : 33.9814048,
                  "lng" : 71.4302793
               },
               "southwest" : {
                  "lat" : 33.9525855,
                  "lng" : 71.41188529999999
               }
            }
         },
         "place_id" : "ChIJHZXt1WQQ2TgReMuiwaSyLkI",
         "types" : [ "political", "sublocality", "sublocality_level_2" ]
      },
      {
         "address_components" : [
            {
               "long_name" : "Hayatabad",
               "short_name" : "Hayatabad",
               "types" : [ "political", "sublocality", "sublocality_level_1" ]
            },
            {
               "long_name" : "Peshawar",
               "short_name" : "Peshawar",
               "types" : [ "locality", "political" ]
            },
            {
               "long_name" : "Peshawar",
               "short_name" : "Peshawar",
               "types" : [ "administrative_area_level_2", "political" ]
            },
            {
               "long_name" : "Khyber Pakhtunkhwa",
               "short_name" : "Khyber Pakhtunkhwa",
               "types" : [ "administrative_area_level_1", "political" ]
            },
            {
               "long_name" : "Pakistan",
               "short_name" : "PK",
               "types" : [ "country", "political" ]
            }
         ],
         "formatted_address" : "Hayatabad, Peshawar, Khyber Pakhtunkhwa, Pakistan",
         "geometry" : {
            "bounds" : {
               "northeast" : {
                  "lat" : 33.999406,
                  "lng" : 71.4620599
               },
               "southwest" : {
                  "lat" : 33.9416378,
                  "lng" : 71.40360819999999
               }
            },
            "location" : {
               "lat" : 33.9744107,
               "lng" : 71.4358733
            },
            "location_type" : "APPROXIMATE",
            "viewport" : {
               "northeast" : {
                  "lat" : 33.999406,
                  "lng" : 71.4620599
               },
               "southwest" : {
                  "lat" : 33.9416378,
                  "lng" : 71.40360819999999
               }
            }
         },
         "place_id" : "ChIJwVtb7YUQ2TgRMWIbQQ-7JaE",
         "types" : [ "political", "sublocality", "sublocality_level_1" ]
      },
      {
         "address_components" : [
            {
               "long_name" : "Peshawar",
               "short_name" : "Peshawar",
               "types" : [ "locality", "political" ]
            },
            {
               "long_name" : "Peshawar",
               "short_name" : "Peshawar",
               "types" : [ "administrative_area_level_2", "political" ]
            },
            {
               "long_name" : "Khyber Pakhtunkhwa",
               "short_name" : "Khyber Pakhtunkhwa",
               "types" : [ "administrative_area_level_1", "political" ]
            },
            {
               "long_name" : "Pakistan",
               "short_name" : "PK",
               "types" : [ "country", "political" ]
            }
         ],
         "formatted_address" : "Peshawar, Khyber Pakhtunkhwa, Pakistan",
         "geometry" : {
            "bounds" : {
               "northeast" : {
                  "lat" : 34.1059236,
                  "lng" : 71.7643116
               },
               "southwest" : {
                  "lat" : 33.8486625,
                  "lng" : 71.36662889999999
               }
            },
            "location" : {
               "lat" : 34.0151366,
               "lng" : 71.5249154
            },
            "location_type" : "APPROXIMATE",
            "viewport" : {
               "northeast" : {
                  "lat" : 34.1059236,
                  "lng" : 71.7643116
               },
               "southwest" : {
                  "lat" : 33.8486625,
                  "lng" : 71.36662889999999
               }
            }
         },
         "place_id" : "ChIJz3kOD7kX2TgREqRYdWOyFqg",
         "types" : [ "locality", "political" ]
      },
      {
         "address_components" : [
            {
               "long_name" : "Peshawar",
               "short_name" : "Peshawar",
               "types" : [ "administrative_area_level_3", "political" ]
            },
            {
               "long_name" : "Peshawar",
               "short_name" : "Peshawar",
               "types" : [ "administrative_area_level_2", "political" ]
            },
            {
               "long_name" : "Khyber Pakhtunkhwa",
               "short_name" : "Khyber Pakhtunkhwa",
               "types" : [ "administrative_area_level_1", "political" ]
            },
            {
               "long_name" : "Pakistan",
               "short_name" : "PK",
               "types" : [ "country", "political" ]
            }
         ],
         "formatted_address" : "Peshawar, Khyber Pakhtunkhwa, Pakistan",
         "geometry" : {
            "bounds" : {
               "northeast" : {
                  "lat" : 34.21149279999999,
                  "lng" : 71.77841699999999
               },
               "southwest" : {
                  "lat" : 33.728669,
                  "lng" : 71.370127
               }
            },
            "location" : {
               "lat" : 33.9436765,
               "lng" : 71.6198686
            },
            "location_type" : "APPROXIMATE",
            "viewport" : {
               "northeast" : {
                  "lat" : 34.21149279999999,
                  "lng" : 71.77841699999999
               },
               "southwest" : {
                  "lat" : 33.728669,
                  "lng" : 71.370127
               }
            }
         },
         "place_id" : "ChIJ635jaagi2TgRPvJza5S0ZL0",
         "types" : [ "administrative_area_level_3", "political" ]
      },
      {
         "address_components" : [
            {
               "long_name" : "Peshawar",
               "short_name" : "Peshawar",
               "types" : [ "administrative_area_level_2", "political" ]
            },
            {
               "long_name" : "Peshawar",
               "short_name" : "Peshawar",
               "types" : [ "administrative_area_level_3", "political" ]
            },
            {
               "long_name" : "Khyber Pakhtunkhwa",
               "short_name" : "Khyber Pakhtunkhwa",
               "types" : [ "administrative_area_level_1", "political" ]
            },
            {
               "long_name" : "Pakistan",
               "short_name" : "PK",
               "types" : [ "country", "political" ]
            }
         ],
         "formatted_address" : "Peshawar, Khyber Pakhtunkhwa, Pakistan",
         "geometry" : {
            "bounds" : {
               "northeast" : {
                  "lat" : 34.21149279999999,
                  "lng" : 71.7784168
               },
               "southwest" : {
                  "lat" : 33.728669,
                  "lng" : 71.37012679999999
               }
            },
            "location" : {
               "lat" : 33.9436765,
               "lng" : 71.6198686
            },
            "location_type" : "APPROXIMATE",
            "viewport" : {
               "northeast" : {
                  "lat" : 34.21149279999999,
                  "lng" : 71.7784168
               },
               "southwest" : {
                  "lat" : 33.728669,
                  "lng" : 71.37012679999999
               }
            }
         },
         "place_id" : "ChIJ9cJk2ZQi2TgRM1rxVXw4wd8",
         "types" : [ "administrative_area_level_2", "political" ]
      },
      {
         "address_components" : [
            {
               "long_name" : "Khyber Pakhtunkhwa",
               "short_name" : "Khyber Pakhtunkhwa",
               "types" : [ "administrative_area_level_1", "political" ]
            },
            {
               "long_name" : "Pakistan",
               "short_name" : "PK",
               "types" : [ "country", "political" ]
            }
         ],
         "formatted_address" : "Khyber Pakhtunkhwa, Pakistan",
         "geometry" : {
            "bounds" : {
               "northeast" : {
                  "lat" : 36.9075698,
                  "lng" : 74.1264877
               },
               "southwest" : {
                  "lat" : 31.2197151,
                  "lng" : 70.0738829
               }
            },
            "location" : {
               "lat" : 34.9526205,
               "lng" : 72.331113
            },
            "location_type" : "APPROXIMATE",
            "viewport" : {
               "northeast" : {
                  "lat" : 36.9075698,
                  "lng" : 74.1264877
               },
               "southwest" : {
                  "lat" : 31.2197151,
                  "lng" : 70.0738829
               }
            }
         },
         "place_id" : "ChIJm2fuN8mu3jgRcad6v070EZY",
         "types" : [ "administrative_area_level_1", "political" ]
      },
      {
         "address_components" : [
            {
               "long_name" : "Pakistan",
               "short_name" : "PK",
               "types" : [ "country", "political" ]
            }
         ],
         "formatted_address" : "Pakistan",
         "geometry" : {
            "bounds" : {
               "northeast" : {
                  "lat" : 37.0841069,
                  "lng" : 77.8231711
               },
               "southwest" : {
                  "lat" : 23.6344999,
                  "lng" : 60.8729721
               }
            },
            "location" : {
               "lat" : 30.375321,
               "lng" : 69.34511599999999
            },
            "location_type" : "APPROXIMATE",
            "viewport" : {
               "northeast" : {
                  "lat" : 37.0841069,
                  "lng" : 77.8231711
               },
               "southwest" : {
                  "lat" : 23.6344999,
                  "lng" : 60.8729721
               }
            }
         },
         "place_id" : "ChIJH3X9-NJS2zgRXJIU5veht0Y",
         "types" : [ "country", "political" ]
      }
   ],
   "status" : "OK"
}
