{
   "plus_code" : {
      "compound_code" : "7G38+XH Brunswick, Germany",
      "global_code" : "9F4G7G38+XH"
   },
   "results" : [
      {
         "address_components" : [
            {
               "long_name" : "5",
               "short_name" : "5",
               "types" : [ "street_number" ]
            },
            {
               "long_name" : "Am Alten Bahnhof",
               "short_name" : "Am Alten Bahnhof",
               "types" : [ "route" ]
            },
            {
               "long_name" : "Westliches Ringgebiet",
               "short_name" : "Westliches Ringgebiet",
               "types" : [ "political", "sublocality", "sublocality_level_1" ]
            },
            {
               "long_name" : "Braunschweig",
               "short_name" : "BS",
               "types" : [ "locality", "political" ]
            },
            {
               "long_name" : "Niedersachsen",
               "short_name" : "NDS",
               "types" : [ "administrative_area_level_1", "political" ]
            },
            {
               "long_name" : "Germany",
               "short_name" : "DE",
               "types" : [ "country", "political" ]
            },
            {
               "long_name" : "38122",
               "short_name" : "38122",
               "types" : [ "postal_code" ]
            }
         ],
         "formatted_address" : "Am Alten Bahnhof 5, 38122 Braunschweig, Germany",
         "geometry" : {
            "location" : {
               "lat" : 52.2549589,
               "lng" : 10.5164795
            },
            "location_type" : "ROOFTOP",
            "viewport" : {
               "northeast" : {
                  "lat" : 52.2563078802915,
                  "lng" : 10.5178284802915
               },
               "southwest" : {
                  "lat" : 52.2536099197085,
                  "lng" : 10.5151305197085
               }
            }
         },
         "place_id" : "ChIJD_HnSQv2r0cRN2Vz0t8vQSw",
         "plus_code" : {
            "compound_code" : "7G38+XH Brunswick, Germany",
            "global_code" : "9F4G7G38+XH"
         },
         "types" : [ "establishment", "point_of_interest" ]
      },
      {
         "address_components" : [
            {
               "long_name" : "5",
               "short_name" : "5",
               "types" : [ "street_number" ]
            },
            {
               "long_name" : "Am Alten Bahnhof",
               "short_name" : "Am Alten Bahnhof",
               "types" : [ "route" ]
            },
            {
               "long_name" : "Westliches Ringgebiet",
               "short_name" : "Westliches Ringgebiet",
               "types" : [ "political", "sublocality", "sublocality_level_1" ]
            },
            {
               "long_name" : "Braunschweig",
               "short_name" : "BS",
               "types" : [ "locality", "political" ]
            },
            {
               "long_name" : "Niedersachsen",
               "short_name" : "NDS",
               "types" : [ "administrative_area_level_1", "political" ]
            },
            {
               "long_name" : "Germany",
               "short_name" : "DE",
               "types" : [ "country", "political" ]
            },
            {
               "long_name" : "38122",
               "short_name" : "38122",
               "types" : [ "postal_code" ]
            }
         ],
         "formatted_address" : "Am Alten Bahnhof 5, 38122 Braunschweig, Germany",
         "geometry" : {
            "location" : {
               "lat" : 52.2549589,
               "lng" : 10.5164795
            },
            "location_type" : "ROOFTOP",
            "viewport" : {
               "northeast" : {
                  "lat" : 52.2563078802915,
                  "lng" : 10.5178284802915
               },
               "southwest" : {
                  "lat" : 52.2536099197085,
                  "lng" : 10.5151305197085
               }
            }
         },
         "place_id" : "ChIJUbDdSQv2r0cRsHgBpJQeeWo",
         "plus_code" : {
            "compound_code" : "7G38+XH Brunswick, Germany",
            "global_code" : "9F4G7G38+XH"
         },
         "types" : [ "street_address" ]
      },
      {
         "address_components" : [
            {
               "long_name" : "5",
               "short_name" : "5",
               "types" : [ "street_number" ]
            },
            {
               "long_name" : "Am Alten Bahnhof",
               "short_name" : "Am Alten Bahnhof",
               "types" : [ "route" ]
            },
            {
               "long_name" : "Westliches Ringgebiet",
               "short_name" : "Westliches Ringgebiet",
               "types" : [ "political", "sublocality", "sublocality_level_1" ]
            },
            {
               "long_name" : "Braunschweig",
               "short_name" : "BS",
               "types" : [ "locality", "political" ]
            },
            {
               "long_name" : "Germany",
               "short_name" : "DE",
               "types" : [ "country", "political" ]
            },
            {
               "long_name" : "38122",
               "short_name" : "38122",
               "types" : [ "postal_code" ]
            }
         ],
         "formatted_address" : "Am Alten Bahnhof 5, 38122 Braunschweig, Germany",
         "geometry" : {
            "location" : {
               "lat" : 52.2549907,
               "lng" : 10.5166659
            },
            "location_type" : "RANGE_INTERPOLATED",
            "viewport" : {
               "northeast" : {
                  "lat" : 52.2563396802915,
                  "lng" : 10.5180148802915
               },
               "southwest" : {
                  "lat" : 52.2536417197085,
                  "lng" : 10.5153169197085
               }
            }
         },
         "place_id" : "EjNBbSBBbHRlbiBCYWhuaG9mIDUsIDM4MTIyIEJyYXVuc2Nod2VpZywgRGV1dHNjaGxhbmQiGhIYChQKEgnj3fk9C_avRxFKYzVBnBGIsRAF",
         "types" : [ "street_address" ]
      },
      {
         "address_components" : [
            {
               "long_name" : "Westliches Ringgebiet",
               "short_name" : "Westliches Ringgebiet",
               "types" : [ "political", "sublocality", "sublocality_level_1" ]
            },
            {
               "long_name" : "Braunschweig",
               "short_name" : "BS",
               "types" : [ "locality", "political" ]
            },
            {
               "long_name" : "Peine",
               "short_name" : "PE",
               "types" : [ "administrative_area_level_3", "political" ]
            },
            {
               "long_name" : "Niedersachsen",
               "short_name" : "NDS",
               "types" : [ "administrative_area_level_1", "political" ]
            },
            {
               "long_name" : "Germany",
               "short_name" : "DE",
               "types" : [ "country", "political" ]
            }
         ],
         "formatted_address" : "Westliches Ringgebiet, Braunschweig, Germany",
         "geometry" : {
            "bounds" : {
               "northeast" : {
                  "lat" : 52.28351000000001,
                  "lng" : 10.524558
               },
               "southwest" : {
                  "lat" : 52.2279981,
                  "lng" : 10.471
               }
            },
            "location" : {
               "lat" : 52.2597114,
               "lng" : 10.4982384
            },
            "location_type" : "APPROXIMATE",
            "viewport" : {
               "northeast" : {
                  "lat" : 52.28351000000001,
                  "lng" : 10.524558
               },
               "southwest" : {
                  "lat" : 52.2279981,
                  "lng" : 10.471
               }
            }
         },
         "place_id" : "ChIJHWoj6BT2r0cRQGmzlG2sJQU",
         "types" : [ "political", "sublocality", "sublocality_level_1" ]
      },
      {
         "address_components" : [
            {
               "long_name" : "38122",
               "short_name" : "38122",
               "types" : [ "postal_code" ]
            },
            {
               "long_name" : "Brunswick",
               "short_name" : "BS",
               "types" : [ "locality", "political" ]
            },
            {
               "long_name" : "Lower Saxony",
               "short_name" : "NDS",
               "types" : [ "administrative_area_level_1", "political" ]
            },
            {
               "long_name" : "Germany",
               "short_name" : "DE",
               "types" : [ "country", "political" ]
            }
         ],
         "formatted_address" : "38122 Brunswick, Germany",
         "geometry" : {
            "bounds" : {
               "northeast" : {
                  "lat" : 52.25709,
                  "lng" : 10.5288069
               },
               "southwest" : {
                  "lat" : 52.199521,
                  "lng" : 10.429626
               }
            },
            "location" : {
               "lat" : 52.2217067,
               "lng" : 10.4727549
            },
            "location_type" : "APPROXIMATE",
            "viewport" : {
               "northeast" : {
                  "lat" : 52.25709,
                  "lng" : 10.5288069
               },
               "southwest" : {
                  "lat" : 52.199521,
                  "lng" : 10.429626
               }
            }
         },
         "place_id" : "ChIJnQhSTJhYpUcRkBvE3nCsJRw",
         "types" : [ "postal_code" ]
      },
      {
         "address_components" : [
            {
               "long_name" : "Brunswick",
               "short_name" : "Brunswick",
               "types" : [ "locality", "political" ]
            },
            {
               "long_name" : "Lower Saxony",
               "short_name" : "NDS",
               "types" : [ "administrative_area_level_1", "political" ]
            },
            {
               "long_name" : "Germany",
               "short_name" : "DE",
               "types" : [ "country", "political" ]
            }
         ],
         "formatted_address" : "Brunswick, Germany",
         "geometry" : {
            "bounds" : {
               "northeast" : {
                  "lat" : 52.3575799,
                  "lng" : 10.6433623
               },
               "southwest" : {
                  "lat" : 52.1868049,
                  "lng" : 10.4124078
               }
            },
            "location" : {
               "lat" : 52.2688736,
               "lng" : 10.5267696
            },
            "location_type" : "APPROXIMATE",
            "viewport" : {
               "northeast" : {
                  "lat" : 52.3575799,
                  "lng" : 10.6433623
               },
               "southwest" : {
                  "lat" : 52.1868049,
                  "lng" : 10.4124078
               }
            }
         },
         "place_id" : "ChIJO2YAitX1r0cRsDqslG2sJQQ",
         "types" : [ "locality", "political" ]
      },
      {
         "address_components" : [
            {
               "long_name" : "Lower Saxony",
               "short_name" : "Lower Saxony",
               "types" : [ "administrative_area_level_1", "political" ]
            },
            {
               "long_name" : "Germany",
               "short_name" : "DE",
               "types" : [ "country", "political" ]
            }
         ],
         "formatted_address" : "Lower Saxony, Germany",
         "geometry" : {
            "bounds" : {
               "northeast" : {
                  "lat" : 53.8922841,
                  "lng" : 11.5982056
               },
               "southwest" : {
                  "lat" : 51.29506740000001,
                  "lng" : 6.6538789
               }
            },
            "location" : {
               "lat" : 52.6367036,
               "lng" : 9.845076600000001
            },
            "location_type" : "APPROXIMATE",
            "viewport" : {
               "northeast" : {
                  "lat" : 53.8922841,
                  "lng" : 11.5982056
               },
               "southwest" : {
                  "lat" : 51.29506740000001,
                  "lng" : 6.6538789
               }
            }
         },
         "place_id" : "ChIJZTST8-ORsEcRAHkCY3fPJgE",
         "types" : [ "administrative_area_level_1", "political" ]
      },
      {
         "address_components" : [
            {
               "long_name" : "Germany",
               "short_name" : "DE",
               "types" : [ "country", "political" ]
            }
         ],
         "formatted_address" : "Germany",
         "geometry" : {
            "bounds" : {
               "northeast" : {
                  "lat" : 55.0815,
                  "lng" : 15.0418962
               },
               "southwest" : {
                  "lat" : 47.2701115,
                  "lng" : 5.8663425
               }
            },
            "location" : {
               "lat" : 51.165691,
               "lng" : 10.451526
            },
            "location_type" : "APPROXIMATE",
            "viewport" : {
               "northeast" : {
                  "lat" : 55.0815,
                  "lng" : 15.0418962
               },
               "southwest" : {
                  "lat" : 47.2701115,
                  "lng" : 5.8663425
               }
            }
         },
         "place_id" : "ChIJa76xwh5ymkcRW-WRjmtd6HU",
         "types" : [ "country", "political" ]
      }
   ],
   "status" : "OK"
}
