{
   "plus_code" : {
      "compound_code" : "6GG3+4W Kingston, ON, Canada",
      "global_code" : "87P56GG3+4W"
   },
   "results" : [
      {
         "address_components" : [
            {
               "long_name" : "99",
               "short_name" : "99",
               "types" : [ "street_number" ]
            },
            {
               "long_name" : "University Avenue",
               "short_name" : "University Ave",
               "types" : [ "route" ]
            },
            {
               "long_name" : "Kingston",
               "short_name" : "Kingston",
               "types" : [ "locality", "political" ]
            },
            {
               "long_name" : "Frontenac County",
               "short_name" : "Frontenac County",
               "types" : [ "administrative_area_level_2", "political" ]
            },
            {
               "long_name" : "Ontario",
               "short_name" : "ON",
               "types" : [ "administrative_area_level_1", "political" ]
            },
            {
               "long_name" : "Canada",
               "short_name" : "CA",
               "types" : [ "country", "political" ]
            },
            {
               "long_name" : "K7L 3N6",
               "short_name" : "K7L 3N6",
               "types" : [ "postal_code" ]
            }
         ],
         "formatted_address" : "99 University Ave, Kingston, ON K7L 3N6, Canada",
         "geometry" : {
            "location" : {
               "lat" : 44.2252795,
               "lng" : -76.49514119999999
            },
            "location_type" : "ROOFTOP",
            "viewport" : {
               "northeast" : {
                  "lat" : 44.2266284802915,
                  "lng" : -76.49379221970848
               },
               "southwest" : {
                  "lat" : 44.2239305197085,
                  "lng" : -76.4964901802915
               }
            }
         },
         "place_id" : "ChIJ6SXZzA-r0kwREXIlXE-KiiY",
         "plus_code" : {
            "compound_code" : "6GG3+4W Kingston, Ontario, Canada",
            "global_code" : "87P56GG3+4W"
         },
         "types" : [ "establishment", "point_of_interest", "university" ]
      },
      {
         "address_components" : [
            {
               "long_name" : "93",
               "short_name" : "93",
               "types" : [ "street_number" ]
            },
            {
               "long_name" : "University Avenue",
               "short_name" : "University Ave",
               "types" : [ "route" ]
            },
            {
               "long_name" : "Kingston",
               "short_name" : "Kingston",
               "types" : [ "locality", "political" ]
            },
            {
               "long_name" : "Frontenac County",
               "short_name" : "Frontenac County",
               "types" : [ "administrative_area_level_2", "political" ]
            },
            {
               "long_name" : "Ontario",
               "short_name" : "ON",
               "types" : [ "administrative_area_level_1", "political" ]
            },
            {
               "long_name" : "Canada",
               "short_name" : "CA",
               "types" : [ "country", "political" ]
            },
            {
               "long_name" : "K7L",
               "short_name" : "K7L",
               "types" : [ "postal_code", "postal_code_prefix" ]
            }
         ],
         "formatted_address" : "93 University Ave, Kingston, ON K7L, Canada",
         "geometry" : {
            "location" : {
               "lat" : 44.2250342,
               "lng" : -76.4955556
            },
            "location_type" : "ROOFTOP",
            "viewport" : {
               "northeast" : {
                  "lat" : 44.22638318029151,
                  "lng" : -76.49420661970851
               },
               "southwest" : {
                  "lat" : 44.22368521970851,
                  "lng" : -76.49690458029151
               }
            }
         },
         "place_id" : "ChIJLbeiVQOr0kwRn5qH7cW4rFg",
         "plus_code" : {
            "compound_code" : "6GG3+2Q Kingston, Ontario, Canada",
            "global_code" : "87P56GG3+2Q"
         },
         "types" : [ "street_address" ]
      },
      {
         "address_components" : [
            {
               "long_name" : "55",
               "short_name" : "55",
               "types" : [ "street_number" ]
            },
            {
               "long_name" : "University Avenue",
               "short_name" : "University Ave",
               "types" : [ "route" ]
            },
            {
               "long_name" : "Kingston",
               "short_name" : "Kingston",
               "types" : [ "locality", "political" ]
            },
            {
               "long_name" : "Ontario",
               "short_name" : "ON",
               "types" : [ "administrative_area_level_1", "political" ]
            },
            {
               "long_name" : "Canada",
               "short_name" : "CA",
               "types" : [ "country", "political" ]
            },
            {
               "long_name" : "K7L 3N8",
               "short_name" : "K7L 3N8",
               "types" : [ "postal_code" ]
            }
         ],
         "formatted_address" : "55 University Ave, Kingston, ON K7L 3N8, Canada",
         "geometry" : {
            "location" : {
               "lat" : 44.2253293,
               "lng" : -76.4956301
            },
            "location_type" : "RANGE_INTERPOLATED",
            "viewport" : {
               "northeast" : {
                  "lat" : 44.2266782802915,
                  "lng" : -76.49428111970849
               },
               "southwest" : {
                  "lat" : 44.2239803197085,
                  "lng" : -76.4969790802915
               }
            }
         },
         "place_id" : "Ei81NSBVbml2ZXJzaXR5IEF2ZSwgS2luZ3N0b24sIE9OIEs3TCAzTjgsIENhbmFkYSIaEhgKFAoSCWNmyKkEq9JMEY7fAz7oDwvYEDc",
         "types" : [ "street_address" ]
      },
      {
         "address_components" : [
            {
               "long_name" : "K7L 3N5",
               "short_name" : "K7L 3N5",
               "types" : [ "postal_code" ]
            },
            {
               "long_name" : "Kingston",
               "short_name" : "Kingston",
               "types" : [ "locality", "political" ]
            },
            {
               "long_name" : "Frontenac County",
               "short_name" : "Frontenac County",
               "types" : [ "administrative_area_level_2", "political" ]
            },
            {
               "long_name" : "Ontario",
               "short_name" : "ON",
               "types" : [ "administrative_area_level_1", "political" ]
            },
            {
               "long_name" : "Canada",
               "short_name" : "CA",
               "types" : [ "country", "political" ]
            }
         ],
         "formatted_address" : "Kingston, ON K7L 3N5, Canada",
         "geometry" : {
            "bounds" : {
               "northeast" : {
                  "lat" : 44.2269724,
                  "lng" : -76.49320849999999
               },
               "southwest" : {
                  "lat" : 44.22429700000001,
                  "lng" : -76.49553589999999
               }
            },
            "location" : {
               "lat" : 44.22565669999999,
               "lng" : -76.494894
            },
            "location_type" : "APPROXIMATE",
            "viewport" : {
               "northeast" : {
                  "lat" : 44.2269836802915,
                  "lng" : -76.49302321970849
               },
               "southwest" : {
                  "lat" : 44.22428571970851,
                  "lng" : -76.4957211802915
               }
            }
         },
         "place_id" : "ChIJ6SXZzA-r0kwRd8Bv4TOBAGY",
         "types" : [ "postal_code" ]
      },
      {
         "address_components" : [
            {
               "long_name" : "K7L",
               "short_name" : "K7L",
               "types" : [ "postal_code", "postal_code_prefix" ]
            },
            {
               "long_name" : "Kingston",
               "short_name" : "Kingston",
               "types" : [ "locality", "political" ]
            },
            {
               "long_name" : "Frontenac County",
               "short_name" : "Frontenac County",
               "types" : [ "administrative_area_level_2", "political" ]
            },
            {
               "long_name" : "Ontario",
               "short_name" : "ON",
               "types" : [ "administrative_area_level_1", "political" ]
            },
            {
               "long_name" : "Canada",
               "short_name" : "CA",
               "types" : [ "country", "political" ]
            }
         ],
         "formatted_address" : "Kingston, ON K7L, Canada",
         "geometry" : {
            "bounds" : {
               "northeast" : {
                  "lat" : 44.2537319,
                  "lng" : -76.47704
               },
               "southwest" : {
                  "lat" : 44.2171899,
                  "lng" : -76.519527
               }
            },
            "location" : {
               "lat" : 44.2306721,
               "lng" : -76.505109
            },
            "location_type" : "APPROXIMATE",
            "viewport" : {
               "northeast" : {
                  "lat" : 44.2537319,
                  "lng" : -76.47704
               },
               "southwest" : {
                  "lat" : 44.2171899,
                  "lng" : -76.519527
               }
            }
         },
         "place_id" : "ChIJteq4lKer0kwRMgFZdm_f4jw",
         "types" : [ "postal_code", "postal_code_prefix" ]
      },
      {
         "address_components" : [
            {
               "long_name" : "Kingston",
               "short_name" : "Kingston",
               "types" : [ "locality", "political" ]
            },
            {
               "long_name" : "Frontenac County",
               "short_name" : "Frontenac County",
               "types" : [ "administrative_area_level_2", "political" ]
            },
            {
               "long_name" : "Ontario",
               "short_name" : "ON",
               "types" : [ "administrative_area_level_1", "political" ]
            },
            {
               "long_name" : "Canada",
               "short_name" : "CA",
               "types" : [ "country", "political" ]
            }
         ],
         "formatted_address" : "Kingston, ON, Canada",
         "geometry" : {
            "bounds" : {
               "northeast" : {
                  "lat" : 44.4802019,
                  "lng" : -76.23352299999999
               },
               "southwest" : {
                  "lat" : 44.199518,
                  "lng" : -76.71286599999999
               }
            },
            "location" : {
               "lat" : 44.2311717,
               "lng" : -76.4859544
            },
            "location_type" : "APPROXIMATE",
            "viewport" : {
               "northeast" : {
                  "lat" : 44.4802019,
                  "lng" : -76.23352299999999
               },
               "southwest" : {
                  "lat" : 44.199518,
                  "lng" : -76.71286599999999
               }
            }
         },
         "place_id" : "ChIJqY5AdAar0kwR6tnWFXdJpXY",
         "types" : [ "locality", "political" ]
      },
      {
         "address_components" : [
            {
               "long_name" : "Frontenac County",
               "short_name" : "Frontenac County",
               "types" : [ "administrative_area_level_2", "political" ]
            },
            {
               "long_name" : "Ontario",
               "short_name" : "ON",
               "types" : [ "administrative_area_level_1", "political" ]
            },
            {
               "long_name" : "Canada",
               "short_name" : "CA",
               "types" : [ "country", "political" ]
            }
         ],
         "formatted_address" : "Frontenac County, ON, Canada",
         "geometry" : {
            "bounds" : {
               "northeast" : {
                  "lat" : 45.2209221,
                  "lng" : -76.161806
               },
               "southwest" : {
                  "lat" : 44.078363,
                  "lng" : -77.22135899999999
               }
            },
            "location" : {
               "lat" : 44.57970299999999,
               "lng" : -76.56535769999999
            },
            "location_type" : "APPROXIMATE",
            "viewport" : {
               "northeast" : {
                  "lat" : 45.2209221,
                  "lng" : -76.161806
               },
               "southwest" : {
                  "lat" : 44.078363,
                  "lng" : -77.22135899999999
               }
            }
         },
         "place_id" : "ChIJcWwtxKLt0kwR3aEFiOCfnhc",
         "types" : [ "administrative_area_level_2", "political" ]
      },
      {
         "address_components" : [
            {
               "long_name" : "Ontario",
               "short_name" : "Ontario",
               "types" : [ "administrative_area_level_1", "political" ]
            },
            {
               "long_name" : "Canada",
               "short_name" : "CA",
               "types" : [ "country", "political" ]
            }
         ],
         "formatted_address" : "Ontario, Canada",
         "geometry" : {
            "bounds" : {
               "northeast" : {
                  "lat" : 56.931393,
                  "lng" : -74.3206479
               },
               "southwest" : {
                  "lat" : 41.6765559,
                  "lng" : -95.1562271
               }
            },
            "location" : {
               "lat" : 51.253775,
               "lng" : -85.32321399999999
            },
            "location_type" : "APPROXIMATE",
            "viewport" : {
               "northeast" : {
                  "lat" : 56.931393,
                  "lng" : -74.3206479
               },
               "southwest" : {
                  "lat" : 41.6765559,
                  "lng" : -95.1562271
               }
            }
         },
         "place_id" : "ChIJrxNRX7IFzkwRCR5iKVZC-HA",
         "types" : [ "administrative_area_level_1", "political" ]
      },
      {
         "address_components" : [
            {
               "long_name" : "Canada",
               "short_name" : "CA",
               "types" : [ "country", "political" ]
            }
         ],
         "formatted_address" : "Canada",
         "geometry" : {
            "bounds" : {
               "northeast" : {
                  "lat" : 83.63809999999999,
                  "lng" : -50.9766
               },
               "southwest" : {
                  "lat" : 41.6765559,
                  "lng" : -141.00187
               }
            },
            "location" : {
               "lat" : 56.130366,
               "lng" : -106.346771
            },
            "location_type" : "APPROXIMATE",
            "viewport" : {
               "northeast" : {
                  "lat" : 83.63809999999999,
                  "lng" : -50.9766
               },
               "southwest" : {
                  "lat" : 41.6765559,
                  "lng" : -141.00187
               }
            }
         },
         "place_id" : "ChIJ2WrMN9MDDUsRpY9Doiq3aJk",
         "types" : [ "country", "political" ]
      }
   ],
   "status" : "OK"
}
