{
   "plus_code" : {
      "compound_code" : "387P+79 Taiwan, 台南市新市區牛稠埔",
      "global_code" : "7QM2387P+79"
   },
   "results" : [
      {
         "address_components" : [
            {
               "long_name" : "72",
               "short_name" : "72",
               "types" : [ "street_number" ]
            },
            {
               "long_name" : "那拔里牧場",
               "short_name" : "那拔里牧場",
               "types" : [ "route" ]
            },
            {
               "long_name" : "Xinhua District",
               "short_name" : "Xinhua District",
               "types" : [ "administrative_area_level_3", "political" ]
            },
            {
               "long_name" : "Tainan City",
               "short_name" : "Tainan City",
               "types" : [ "administrative_area_level_1", "political" ]
            },
            {
               "long_name" : "Taiwan",
               "short_name" : "TW",
               "types" : [ "country", "political" ]
            },
            {
               "long_name" : "712",
               "short_name" : "712",
               "types" : [ "postal_code" ]
            }
         ],
         "formatted_address" : "712, Taiwan, Tainan City, Xinhua District, 那拔里牧場72號",
         "geometry" : {
            "location" : {
               "lat" : 23.063193,
               "lng" : 120.335879
            },
            "location_type" : "ROOFTOP",
            "viewport" : {
               "northeast" : {
                  "lat" : 23.0645419802915,
                  "lng" : 120.3372279802915
               },
               "southwest" : {
                  "lat" : 23.0618440197085,
                  "lng" : 120.3345300197085
               }
            }
         },
         "place_id" : "ChIJ7QFUbcl6bjQRAGD9hJY0j5o",
         "plus_code" : {
            "compound_code" : "387P+79 Taiwan, 台南市新市區牛稠埔",
            "global_code" : "7QM2387P+79"
         },
         "types" : [ "establishment", "hospital", "point_of_interest" ]
      },
      {
         "address_components" : [
            {
               "long_name" : "72",
               "short_name" : "72",
               "types" : [ "premise" ]
            },
            {
               "long_name" : "牧場",
               "short_name" : "牧場",
               "types" : [ "neighborhood", "political" ]
            },
            {
               "long_name" : "Xinhua District",
               "short_name" : "Xinhua District",
               "types" : [ "administrative_area_level_3", "political" ]
            },
            {
               "long_name" : "Tainan City",
               "short_name" : "Tainan City",
               "types" : [ "administrative_area_level_1", "political" ]
            },
            {
               "long_name" : "Taiwan",
               "short_name" : "TW",
               "types" : [ "country", "political" ]
            },
            {
               "long_name" : "712",
               "short_name" : "712",
               "types" : [ "postal_code" ]
            }
         ],
         "formatted_address" : "712, Taiwan, Tainan City, Xinhua District, 72",
         "geometry" : {
            "location" : {
               "lat" : 23.0628399,
               "lng" : 120.336598
            },
            "location_type" : "ROOFTOP",
            "viewport" : {
               "northeast" : {
                  "lat" : 23.0641888802915,
                  "lng" : 120.3379469802915
               },
               "southwest" : {
                  "lat" : 23.0614909197085,
                  "lng" : 120.3352490197085
               }
            }
         },
         "place_id" : "ChIJpRNLbMl6bjQRsybQ4_QWpHw",
         "plus_code" : {
            "compound_code" : "387P+4J Taiwan, 台南市新化區過路埤",
            "global_code" : "7QM2387P+4J"
         },
         "types" : [ "street_address" ]
      },
      {
         "address_components" : [
            {
               "long_name" : "Nanheng Road",
               "short_name" : "台20線",
               "types" : [ "route" ]
            },
            {
               "long_name" : "Xinhua District",
               "short_name" : "Xinhua District",
               "types" : [ "administrative_area_level_3", "political" ]
            },
            {
               "long_name" : "Tainan City",
               "short_name" : "Tainan City",
               "types" : [ "administrative_area_level_1", "political" ]
            },
            {
               "long_name" : "Taiwan",
               "short_name" : "TW",
               "types" : [ "country", "political" ]
            },
            {
               "long_name" : "712",
               "short_name" : "712",
               "types" : [ "postal_code" ]
            }
         ],
         "formatted_address" : "Nanheng Road, Xinhua District, Tainan City, Taiwan 712",
         "geometry" : {
            "bounds" : {
               "northeast" : {
                  "lat" : 23.063494,
                  "lng" : 120.3357459
               },
               "southwest" : {
                  "lat" : 23.0631559,
                  "lng" : 120.3350812
               }
            },
            "location" : {
               "lat" : 23.0633249,
               "lng" : 120.3354135
            },
            "location_type" : "GEOMETRIC_CENTER",
            "viewport" : {
               "northeast" : {
                  "lat" : 23.0646739302915,
                  "lng" : 120.3367625302915
               },
               "southwest" : {
                  "lat" : 23.0619759697085,
                  "lng" : 120.3340645697085
               }
            }
         },
         "place_id" : "ChIJlfkJGcl6bjQRiHHmXtGJ05g",
         "types" : [ "route" ]
      },
      {
         "address_components" : [
            {
               "long_name" : "那拔里",
               "short_name" : "那拔里",
               "types" : [ "administrative_area_level_4", "political" ]
            },
            {
               "long_name" : "新化區",
               "short_name" : "新化區",
               "types" : [ "administrative_area_level_3", "political" ]
            },
            {
               "long_name" : "台南市",
               "short_name" : "台南市",
               "types" : [ "administrative_area_level_1", "political" ]
            },
            {
               "long_name" : "Taiwan",
               "short_name" : "TW",
               "types" : [ "country", "political" ]
            },
            {
               "long_name" : "712",
               "short_name" : "712",
               "types" : [ "postal_code" ]
            }
         ],
         "formatted_address" : "712, Taiwan, 台南市新化區那拔里",
         "geometry" : {
            "bounds" : {
               "northeast" : {
                  "lat" : 23.0835558,
                  "lng" : 120.3613948
               },
               "southwest" : {
                  "lat" : 23.0420523,
                  "lng" : 120.3184584
               }
            },
            "location" : {
               "lat" : 23.053697,
               "lng" : 120.3377852
            },
            "location_type" : "APPROXIMATE",
            "viewport" : {
               "northeast" : {
                  "lat" : 23.0835558,
                  "lng" : 120.3613948
               },
               "southwest" : {
                  "lat" : 23.0420523,
                  "lng" : 120.3184584
               }
            }
         },
         "place_id" : "ChIJR29Cmct6bjQRrEVQRGPAVTc",
         "types" : [ "administrative_area_level_4", "political" ]
      },
      {
         "address_components" : [
            {
               "long_name" : "712",
               "short_name" : "712",
               "types" : [ "postal_code" ]
            },
            {
               "long_name" : "Xinhua District",
               "short_name" : "Xinhua District",
               "types" : [ "administrative_area_level_3", "political" ]
            },
            {
               "long_name" : "Tainan City",
               "short_name" : "Tainan City",
               "types" : [ "administrative_area_level_1", "political" ]
            },
            {
               "long_name" : "Taiwan",
               "short_name" : "TW",
               "types" : [ "country", "political" ]
            }
         ],
         "formatted_address" : "Xinhua District, Tainan City, Taiwan 712",
         "geometry" : {
            "bounds" : {
               "northeast" : {
                  "lat" : 23.0835558,
                  "lng" : 120.392751
               },
               "southwest" : {
                  "lat" : 22.9886797,
                  "lng" : 120.2778813
               }
            },
            "location" : {
               "lat" : 23.0280873,
               "lng" : 120.3320195
            },
            "location_type" : "APPROXIMATE",
            "viewport" : {
               "northeast" : {
                  "lat" : 23.0835558,
                  "lng" : 120.392751
               },
               "southwest" : {
                  "lat" : 22.9886797,
                  "lng" : 120.2778813
               }
            }
         },
         "place_id" : "ChIJp_3oBQdwbjQRLruo8bD0DpU",
         "types" : [ "postal_code" ]
      },
      {
         "address_components" : [
            {
               "long_name" : "Xinhua District",
               "short_name" : "Xinhua District",
               "types" : [ "administrative_area_level_3", "political" ]
            },
            {
               "long_name" : "Tainan City",
               "short_name" : "Tainan City",
               "types" : [ "administrative_area_level_1", "political" ]
            },
            {
               "long_name" : "Taiwan",
               "short_name" : "TW",
               "types" : [ "country", "political" ]
            }
         ],
         "formatted_address" : "Xinhua District, Tainan City, Taiwan",
         "geometry" : {
            "bounds" : {
               "northeast" : {
                  "lat" : 23.0835558,
                  "lng" : 120.392751
               },
               "southwest" : {
                  "lat" : 22.9886797,
                  "lng" : 120.2778813
               }
            },
            "location" : {
               "lat" : 23.0280873,
               "lng" : 120.3320195
            },
            "location_type" : "APPROXIMATE",
            "viewport" : {
               "northeast" : {
                  "lat" : 23.0835558,
                  "lng" : 120.392751
               },
               "southwest" : {
                  "lat" : 22.9886797,
                  "lng" : 120.2778813
               }
            }
         },
         "place_id" : "ChIJsURYDwdwbjQRvV10Kl8WZaE",
         "types" : [ "administrative_area_level_3", "political" ]
      },
      {
         "address_components" : [
            {
               "long_name" : "Tainan City",
               "short_name" : "Tainan City",
               "types" : [ "administrative_area_level_1", "political" ]
            },
            {
               "long_name" : "Taiwan",
               "short_name" : "TW",
               "types" : [ "country", "political" ]
            }
         ],
         "formatted_address" : "Tainan City, Taiwan",
         "geometry" : {
            "bounds" : {
               "northeast" : {
                  "lat" : 23.4137568,
                  "lng" : 120.6562596
               },
               "southwest" : {
                  "lat" : 22.8874908,
                  "lng" : 120.0277765
               }
            },
            "location" : {
               "lat" : 22.9998999,
               "lng" : 120.2268758
            },
            "location_type" : "APPROXIMATE",
            "viewport" : {
               "northeast" : {
                  "lat" : 23.4137568,
                  "lng" : 120.6562596
               },
               "southwest" : {
                  "lat" : 22.8874908,
                  "lng" : 120.0277765
               }
            }
         },
         "place_id" : "ChIJE_4_lcx8bjQRTnbcpapMf9Q",
         "types" : [ "administrative_area_level_1", "political" ]
      },
      {
         "address_components" : [
            {
               "long_name" : "Taiwan",
               "short_name" : "TW",
               "types" : [ "country", "political" ]
            }
         ],
         "formatted_address" : "Taiwan",
         "geometry" : {
            "bounds" : {
               "northeast" : {
                  "lat" : 26.4545,
                  "lng" : 123.5021012
               },
               "southwest" : {
                  "lat" : 20.5170001,
                  "lng" : 116.6665
               }
            },
            "location" : {
               "lat" : 23.69781,
               "lng" : 120.960515
            },
            "location_type" : "APPROXIMATE",
            "viewport" : {
               "northeast" : {
                  "lat" : 26.4545,
                  "lng" : 123.5021012
               },
               "southwest" : {
                  "lat" : 20.5170001,
                  "lng" : 116.6665
               }
            }
         },
         "place_id" : "ChIJL1cHXAbzbjQRaVScvwTwEec",
         "types" : [ "country", "political" ]
      }
   ],
   "status" : "OK"
}
