{
   "results" : [
      {
         "address_components" : [
            {
               "long_name" : "547",
               "short_name" : "547",
               "types" : [ "street_number" ]
            },
            {
               "long_name" : "Piedras",
               "short_name" : "Piedras",
               "types" : [ "route" ]
            },
            {
               "long_name" : "Monserrat",
               "short_name" : "Monserrat",
               "types" : [ "political", "sublocality", "sublocality_level_1" ]
            },
            {
               "long_name" : "Buenos Aires",
               "short_name" : "CABA",
               "types" : [ "locality", "political" ]
            },
            {
               "long_name" : "Comuna 1",
               "short_name" : "Comuna 1",
               "types" : [ "administrative_area_level_2", "political" ]
            },
            {
               "long_name" : "Buenos Aires",
               "short_name" : "CABA",
               "types" : [ "administrative_area_level_1", "political" ]
            },
            {
               "long_name" : "Argentina",
               "short_name" : "AR",
               "types" : [ "country", "political" ]
            },
            {
               "long_name" : "C1070",
               "short_name" : "C1070",
               "types" : [ "postal_code" ]
            },
            {
               "long_name" : "AAK",
               "short_name" : "AAK",
               "types" : [ "postal_code_suffix" ]
            }
         ],
         "formatted_address" : "Piedras 547, C1070AAK CABA, Argentina",
         "geometry" : {
            "location" : {
               "lat" : -34.61453050000001,
               "lng" : -58.3776057
            },
            "location_type" : "ROOFTOP",
            "viewport" : {
               "northeast" : {
                  "lat" : -34.61318151970851,
                  "lng" : -58.37625671970849
               },
               "southwest" : {
                  "lat" : -34.61587948029151,
                  "lng" : -58.37895468029151
               }
            }
         },
         "place_id" : "ChIJG1kCd9bKvJURpxnjzJ_DNiw",
         "types" : [ "street_address" ]
      },
      {
         "address_components" : [
            {
               "long_name" : "Monserrat",
               "short_name" : "Monserrat",
               "types" : [ "political", "sublocality", "sublocality_level_1" ]
            },
            {
               "long_name" : "Buenos Aires",
               "short_name" : "CABA",
               "types" : [ "locality", "political" ]
            },
            {
               "long_name" : "Comuna 1",
               "short_name" : "Comuna 1",
               "types" : [ "administrative_area_level_2", "political" ]
            },
            {
               "long_name" : "Buenos Aires",
               "short_name" : "CABA",
               "types" : [ "administrative_area_level_1", "political" ]
            },
            {
               "long_name" : "Argentina",
               "short_name" : "AR",
               "types" : [ "country", "political" ]
            }
         ],
         "formatted_address" : "Monserrat, Buenos Aires, Argentina",
         "geometry" : {
            "bounds" : {
               "northeast" : {
                  "lat" : -34.6069583,
                  "lng" : -58.36673460000001
               },
               "southwest" : {
                  "lat" : -34.6181591,
                  "lng" : -58.3919515
               }
            },
            "location" : {
               "lat" : -34.6130871,
               "lng" : -58.38135990000001
            },
            "location_type" : "APPROXIMATE",
            "viewport" : {
               "northeast" : {
                  "lat" : -34.6069583,
                  "lng" : -58.36673460000001
               },
               "southwest" : {
                  "lat" : -34.6181591,
                  "lng" : -58.3919515
               }
            }
         },
         "place_id" : "ChIJVdFxwtfKvJUR9f_-uzaJ-ck",
         "types" : [ "political", "sublocality", "sublocality_level_1" ]
      },
      {
         "address_components" : [
            {
               "long_name" : "Buenos Aires",
               "short_name" : "CABA",
               "types" : [ "locality", "political" ]
            },
            {
               "long_name" : "Buenos Aires",
               "short_name" : "CABA",
               "types" : [ "administrative_area_level_1", "political" ]
            },
            {
               "long_name" : "Argentina",
               "short_name" : "AR",
               "types" : [ "country", "political" ]
            }
         ],
         "formatted_address" : "Buenos Aires, Argentina",
         "geometry" : {
            "bounds" : {
               "northeast" : {
                  "lat" : -34.5265464,
                  "lng" : -58.33514470000001
               },
               "southwest" : {
                  "lat" : -34.7051011,
                  "lng" : -58.5314522
               }
            },
            "location" : {
               "lat" : -34.6036844,
               "lng" : -58.3815591
            },
            "location_type" : "APPROXIMATE",
            "viewport" : {
               "northeast" : {
                  "lat" : -34.5265464,
                  "lng" : -58.33514470000001
               },
               "southwest" : {
                  "lat" : -34.7051011,
                  "lng" : -58.5314522
               }
            }
         },
         "place_id" : "ChIJvQz5TjvKvJURh47oiC6Bs6A",
         "types" : [ "locality", "political" ]
      },
      {
         "address_components" : [
            {
               "long_name" : "C1070",
               "short_name" : "C1070",
               "types" : [ "postal_code" ]
            },
            {
               "long_name" : "Buenos Aires",
               "short_name" : "CABA",
               "types" : [ "locality", "political" ]
            },
            {
               "long_name" : "Comuna 1",
               "short_name" : "Comuna 1",
               "types" : [ "administrative_area_level_2", "political" ]
            },
            {
               "long_name" : "Buenos Aires",
               "short_name" : "CABA",
               "types" : [ "administrative_area_level_1", "political" ]
            },
            {
               "long_name" : "Argentina",
               "short_name" : "AR",
               "types" : [ "country", "political" ]
            }
         ],
         "formatted_address" : "C1070 Buenos Aires, Argentina",
         "geometry" : {
            "bounds" : {
               "northeast" : {
                  "lat" : -34.5908665,
                  "lng" : -58.37596860000001
               },
               "southwest" : {
                  "lat" : -34.6240442,
                  "lng" : -58.388805
               }
            },
            "location" : {
               "lat" : -34.6137565,
               "lng" : -58.37739689999999
            },
            "location_type" : "APPROXIMATE",
            "viewport" : {
               "northeast" : {
                  "lat" : -34.5908665,
                  "lng" : -58.37596860000001
               },
               "southwest" : {
                  "lat" : -34.6240442,
                  "lng" : -58.388805
               }
            }
         },
         "place_id" : "ChIJ6YBu1dXKvJURL5Q2hcgTRrg",
         "types" : [ "postal_code" ]
      },
      {
         "address_components" : [
            {
               "long_name" : "C1095",
               "short_name" : "C1095",
               "types" : [ "postal_code" ]
            },
            {
               "long_name" : "Buenos Aires",
               "short_name" : "CABA",
               "types" : [ "locality", "political" ]
            },
            {
               "long_name" : "Comuna 1",
               "short_name" : "Comuna 1",
               "types" : [ "administrative_area_level_2", "political" ]
            },
            {
               "long_name" : "Buenos Aires",
               "short_name" : "CABA",
               "types" : [ "administrative_area_level_1", "political" ]
            },
            {
               "long_name" : "Argentina",
               "short_name" : "AR",
               "types" : [ "country", "political" ]
            }
         ],
         "formatted_address" : "C1095 Buenos Aires, Argentina",
         "geometry" : {
            "bounds" : {
               "northeast" : {
                  "lat" : -34.608716,
                  "lng" : -58.3659857
               },
               "southwest" : {
                  "lat" : -34.616161,
                  "lng" : -58.3916578
               }
            },
            "location" : {
               "lat" : -34.6145259,
               "lng" : -58.378108
            },
            "location_type" : "APPROXIMATE",
            "viewport" : {
               "northeast" : {
                  "lat" : -34.608716,
                  "lng" : -58.3659857
               },
               "southwest" : {
                  "lat" : -34.616161,
                  "lng" : -58.3916578
               }
            }
         },
         "place_id" : "ChIJZXuI_rrQvJUR4k3ptJrIcao",
         "types" : [ "postal_code" ]
      },
      {
         "address_components" : [
            {
               "long_name" : "C1097",
               "short_name" : "C1097",
               "types" : [ "postal_code" ]
            },
            {
               "long_name" : "Buenos Aires",
               "short_name" : "CABA",
               "types" : [ "locality", "political" ]
            },
            {
               "long_name" : "Buenos Aires",
               "short_name" : "CABA",
               "types" : [ "administrative_area_level_1", "political" ]
            },
            {
               "long_name" : "Argentina",
               "short_name" : "AR",
               "types" : [ "country", "political" ]
            }
         ],
         "formatted_address" : "C1097 Buenos Aires, Argentina",
         "geometry" : {
            "bounds" : {
               "northeast" : {
                  "lat" : -34.6133011,
                  "lng" : -58.3659857
               },
               "southwest" : {
                  "lat" : -34.6173633,
                  "lng" : -58.39879000000001
               }
            },
            "location" : {
               "lat" : -34.6152298,
               "lng" : -58.3819811
            },
            "location_type" : "APPROXIMATE",
            "viewport" : {
               "northeast" : {
                  "lat" : -34.6133011,
                  "lng" : -58.3659857
               },
               "southwest" : {
                  "lat" : -34.6173633,
                  "lng" : -58.39879000000001
               }
            }
         },
         "place_id" : "ChIJQ7eQntfKvJUR7k0lmMFjrpo",
         "types" : [ "postal_code" ]
      },
      {
         "address_components" : [
            {
               "long_name" : "Comuna 1",
               "short_name" : "Comuna 1",
               "types" : [ "administrative_area_level_2", "political" ]
            },
            {
               "long_name" : "Buenos Aires",
               "short_name" : "CABA",
               "types" : [ "locality", "political" ]
            },
            {
               "long_name" : "Buenos Aires",
               "short_name" : "CABA",
               "types" : [ "administrative_area_level_1", "political" ]
            },
            {
               "long_name" : "Argentina",
               "short_name" : "AR",
               "types" : [ "country", "political" ]
            }
         ],
         "formatted_address" : "Comuna 1, Buenos Aires, Argentina",
         "geometry" : {
            "bounds" : {
               "northeast" : {
                  "lat" : -34.5684309,
                  "lng" : -58.33514470000001
               },
               "southwest" : {
                  "lat" : -34.6341243,
                  "lng" : -58.39293079999999
               }
            },
            "location" : {
               "lat" : -34.6079222,
               "lng" : -58.36598579999999
            },
            "location_type" : "APPROXIMATE",
            "viewport" : {
               "northeast" : {
                  "lat" : -34.5684309,
                  "lng" : -58.33514470000001
               },
               "southwest" : {
                  "lat" : -34.6341243,
                  "lng" : -58.39293079999999
               }
            }
         },
         "place_id" : "ChIJuQQBxzE1o5URe4mzo2cEmTc",
         "types" : [ "administrative_area_level_2", "political" ]
      },
      {
         "address_components" : [
            {
               "long_name" : "Buenos Aires",
               "short_name" : "CABA",
               "types" : [ "administrative_area_level_1", "political" ]
            },
            {
               "long_name" : "Buenos Aires",
               "short_name" : "CABA",
               "types" : [ "locality", "political" ]
            },
            {
               "long_name" : "Argentina",
               "short_name" : "AR",
               "types" : [ "country", "political" ]
            }
         ],
         "formatted_address" : "Buenos Aires, Argentina",
         "geometry" : {
            "bounds" : {
               "northeast" : {
                  "lat" : -34.5265464,
                  "lng" : -58.33514470000001
               },
               "southwest" : {
                  "lat" : -34.7055085,
                  "lng" : -58.5314522
               }
            },
            "location" : {
               "lat" : -34.6037618,
               "lng" : -58.38171499999999
            },
            "location_type" : "APPROXIMATE",
            "viewport" : {
               "northeast" : {
                  "lat" : -34.5265464,
                  "lng" : -58.33514470000001
               },
               "southwest" : {
                  "lat" : -34.7055085,
                  "lng" : -58.5314522
               }
            }
         },
         "place_id" : "ChIJu39FBT3KvJURF8D35_z0YOE",
         "types" : [ "administrative_area_level_1", "political" ]
      },
      {
         "address_components" : [
            {
               "long_name" : "Argentina",
               "short_name" : "AR",
               "types" : [ "country", "political" ]
            }
         ],
         "formatted_address" : "Argentina",
         "geometry" : {
            "bounds" : {
               "northeast" : {
                  "lat" : -21.7810459,
                  "lng" : -53.637481
               },
               "southwest" : {
                  "lat" : -55.1250224,
                  "lng" : -73.5603601
               }
            },
            "location" : {
               "lat" : -38.416097,
               "lng" : -63.61667199999999
            },
            "location_type" : "APPROXIMATE",
            "viewport" : {
               "northeast" : {
                  "lat" : -21.7810459,
                  "lng" : -53.637481
               },
               "southwest" : {
                  "lat" : -55.1250224,
                  "lng" : -73.5603601
               }
            }
         },
         "place_id" : "ChIJZ8b99fXKvJURqA_wKpl3Lz0",
         "types" : [ "country", "political" ]
      }
   ],
   "status" : "OK"
}
