{
   "plus_code" : {
      "compound_code" : "C4VQ+XG Seongnam-si, Gyeonggi-do, South Korea",
      "global_code" : "8Q99C4VQ+XG"
   },
   "results" : [
      {
         "address_components" : [
            {
               "long_name" : "10",
               "short_name" : "10",
               "types" : [ "premise" ]
            },
            {
               "long_name" : "Sujeong-ro 171(baekchilsibil)b",
               "short_name" : "Sujeong-ro 171(baekchilsibil)b",
               "types" : [ "political", "sublocality", "sublocality_level_4" ]
            },
            {
               "long_name" : "Taepyeong 2(i)-dong",
               "short_name" : "Taepyeong 2(i)-dong",
               "types" : [ "political", "sublocality", "sublocality_level_2" ]
            },
            {
               "long_name" : "Sujeong-gu",
               "short_name" : "Sujeong-gu",
               "types" : [ "political", "sublocality", "sublocality_level_1" ]
            },
            {
               "long_name" : "Seongnam-si",
               "short_name" : "Seongnam-si",
               "types" : [ "locality", "political" ]
            },
            {
               "long_name" : "Gyeonggi-do",
               "short_name" : "Gyeonggi-do",
               "types" : [ "administrative_area_level_1", "political" ]
            },
            {
               "long_name" : "South Korea",
               "short_name" : "KR",
               "types" : [ "country", "political" ]
            },
            {
               "long_name" : "461-190",
               "short_name" : "461-190",
               "types" : [ "postal_code" ]
            }
         ],
         "formatted_address" : "10 Sujeong-ro 171(baekchilsibil)b, Taepyeong 2(i)-dong, Sujeong-gu, Seongnam-si, Gyeonggi-do, South Korea",
         "geometry" : {
            "location" : {
               "lat" : 37.4448723,
               "lng" : 127.138907
            },
            "location_type" : "ROOFTOP",
            "viewport" : {
               "northeast" : {
                  "lat" : 37.4462212802915,
                  "lng" : 127.1402559802915
               },
               "southwest" : {
                  "lat" : 37.4435233197085,
                  "lng" : 127.1375580197085
               }
            }
         },
         "place_id" : "ChIJASj_Bb2ofDURSZ6kSPxSU0w",
         "plus_code" : {
            "compound_code" : "C4VQ+WH Seongnam-si, Gyeonggi-do, South Korea",
            "global_code" : "8Q99C4VQ+WH"
         },
         "types" : [ "street_address" ]
      },
      {
         "address_components" : [
            {
               "long_name" : "Sujeongnam-ro",
               "short_name" : "Sujeongnam-ro",
               "types" : [ "political", "sublocality", "sublocality_level_4" ]
            },
            {
               "long_name" : "Sujeong-gu",
               "short_name" : "Sujeong-gu",
               "types" : [ "political", "sublocality", "sublocality_level_1" ]
            },
            {
               "long_name" : "Seongnam-si",
               "short_name" : "Seongnam-si",
               "types" : [ "locality", "political" ]
            },
            {
               "long_name" : "Gyeonggi-do",
               "short_name" : "Gyeonggi-do",
               "types" : [ "administrative_area_level_1", "political" ]
            },
            {
               "long_name" : "South Korea",
               "short_name" : "KR",
               "types" : [ "country", "political" ]
            }
         ],
         "formatted_address" : "Sujeongnam-ro, Sujeong-gu, Seongnam-si, Gyeonggi-do, South Korea",
         "geometry" : {
            "bounds" : {
               "northeast" : {
                  "lat" : 37.457379,
                  "lng" : 127.155046
               },
               "southwest" : {
                  "lat" : 37.4390041,
                  "lng" : 127.1284171
               }
            },
            "location" : {
               "lat" : 37.4476322,
               "lng" : 127.1441608
            },
            "location_type" : "APPROXIMATE",
            "viewport" : {
               "northeast" : {
                  "lat" : 37.457379,
                  "lng" : 127.155046
               },
               "southwest" : {
                  "lat" : 37.4390041,
                  "lng" : 127.1284171
               }
            }
         },
         "place_id" : "ChIJ_-Iv2buofDURBzefdiFSQz8",
         "types" : [ "political", "sublocality", "sublocality_level_4" ]
      },
      {
         "address_components" : [
            {
               "long_name" : "461-192",
               "short_name" : "461-192",
               "types" : [ "postal_code" ]
            },
            {
               "long_name" : "Taepyeong 2(i)-dong",
               "short_name" : "Taepyeong 2(i)-dong",
               "types" : [ "political", "sublocality", "sublocality_level_2" ]
            },
            {
               "long_name" : "Sujeong-gu",
               "short_name" : "Sujeong-gu",
               "types" : [ "political", "sublocality", "sublocality_level_1" ]
            },
            {
               "long_name" : "Seongnam-si",
               "short_name" : "Seongnam-si",
               "types" : [ "locality", "political" ]
            },
            {
               "long_name" : "Gyeonggi-do",
               "short_name" : "Gyeonggi-do",
               "types" : [ "administrative_area_level_1", "political" ]
            },
            {
               "long_name" : "South Korea",
               "short_name" : "KR",
               "types" : [ "country", "political" ]
            }
         ],
         "formatted_address" : "Taepyeong 2(i)-dong, Sujeong-gu, Seongnam-si, Gyeonggi-do, South Korea",
         "geometry" : {
            "bounds" : {
               "northeast" : {
                  "lat" : 37.452965,
                  "lng" : 127.1408055
               },
               "southwest" : {
                  "lat" : 37.4422236,
                  "lng" : 127.1318926
               }
            },
            "location" : {
               "lat" : 37.44793490000001,
               "lng" : 127.1352403
            },
            "location_type" : "APPROXIMATE",
            "viewport" : {
               "northeast" : {
                  "lat" : 37.452965,
                  "lng" : 127.1408055
               },
               "southwest" : {
                  "lat" : 37.4422236,
                  "lng" : 127.1318926
               }
            }
         },
         "place_id" : "ChIJ-z7RyryofDURkv0iZDCRcHc",
         "types" : [ "postal_code" ]
      },
      {
         "address_components" : [
            {
               "long_name" : "Taepyeong 2(i)-dong",
               "short_name" : "Taepyeong 2(i)-dong",
               "types" : [ "political", "sublocality", "sublocality_level_2" ]
            },
            {
               "long_name" : "Sujeong-gu",
               "short_name" : "Sujeong-gu",
               "types" : [ "political", "sublocality", "sublocality_level_1" ]
            },
            {
               "long_name" : "Seongnam-si",
               "short_name" : "Seongnam-si",
               "types" : [ "locality", "political" ]
            },
            {
               "long_name" : "Gyeonggi-do",
               "short_name" : "Gyeonggi-do",
               "types" : [ "administrative_area_level_1", "political" ]
            },
            {
               "long_name" : "South Korea",
               "short_name" : "KR",
               "types" : [ "country", "political" ]
            },
            {
               "long_name" : "461-190",
               "short_name" : "461-190",
               "types" : [ "postal_code" ]
            }
         ],
         "formatted_address" : "Taepyeong 2(i)-dong, Sujeong-gu, Seongnam-si, Gyeonggi-do, South Korea",
         "geometry" : {
            "bounds" : {
               "northeast" : {
                  "lat" : 37.452965,
                  "lng" : 127.1408055
               },
               "southwest" : {
                  "lat" : 37.4422236,
                  "lng" : 127.1318926
               }
            },
            "location" : {
               "lat" : 37.4470805,
               "lng" : 127.1385679
            },
            "location_type" : "APPROXIMATE",
            "viewport" : {
               "northeast" : {
                  "lat" : 37.452965,
                  "lng" : 127.1408055
               },
               "southwest" : {
                  "lat" : 37.4422236,
                  "lng" : 127.1318926
               }
            }
         },
         "place_id" : "ChIJ-z7RyryofDUR1OvwK2fhFbA",
         "types" : [ "political", "sublocality", "sublocality_level_2" ]
      },
      {
         "address_components" : [
            {
               "long_name" : "Sujeong-gu",
               "short_name" : "Sujeong-gu",
               "types" : [ "political", "sublocality", "sublocality_level_1" ]
            },
            {
               "long_name" : "Seongnam-si",
               "short_name" : "Seongnam-si",
               "types" : [ "locality", "political" ]
            },
            {
               "long_name" : "Gyeonggi-do",
               "short_name" : "Gyeonggi-do",
               "types" : [ "administrative_area_level_1", "political" ]
            },
            {
               "long_name" : "South Korea",
               "short_name" : "KR",
               "types" : [ "country", "political" ]
            }
         ],
         "formatted_address" : "Sujeong-gu, Seongnam-si, Gyeonggi-do, South Korea",
         "geometry" : {
            "bounds" : {
               "northeast" : {
                  "lat" : 37.4756297,
                  "lng" : 127.1771647
               },
               "southwest" : {
                  "lat" : 37.396941,
                  "lng" : 127.0375867
               }
            },
            "location" : {
               "lat" : 37.4502462,
               "lng" : 127.1455402
            },
            "location_type" : "APPROXIMATE",
            "viewport" : {
               "northeast" : {
                  "lat" : 37.4756297,
                  "lng" : 127.1771647
               },
               "southwest" : {
                  "lat" : 37.396941,
                  "lng" : 127.0375867
               }
            }
         },
         "place_id" : "ChIJA8sDKjWmfDURbuoSn0f7HHM",
         "types" : [ "political", "sublocality", "sublocality_level_1" ]
      },
      {
         "address_components" : [
            {
               "long_name" : "Seongnam-si",
               "short_name" : "Seongnam-si",
               "types" : [ "locality", "political" ]
            },
            {
               "long_name" : "Gyeonggi-do",
               "short_name" : "Gyeonggi-do",
               "types" : [ "administrative_area_level_1", "political" ]
            },
            {
               "long_name" : "South Korea",
               "short_name" : "KR",
               "types" : [ "country", "political" ]
            }
         ],
         "formatted_address" : "Seongnam-si, Gyeonggi-do, South Korea",
         "geometry" : {
            "bounds" : {
               "northeast" : {
                  "lat" : 37.4756297,
                  "lng" : 127.1974457
               },
               "southwest" : {
                  "lat" : 37.3330741,
                  "lng" : 127.0235872
               }
            },
            "location" : {
               "lat" : 37.4449168,
               "lng" : 127.1388684
            },
            "location_type" : "APPROXIMATE",
            "viewport" : {
               "northeast" : {
                  "lat" : 37.4756297,
                  "lng" : 127.1974457
               },
               "southwest" : {
                  "lat" : 37.3330741,
                  "lng" : 127.0235872
               }
            }
         },
         "place_id" : "ChIJvyAScPGnfDUR1JfjvGZWMVA",
         "types" : [ "locality", "political" ]
      },
      {
         "address_components" : [
            {
               "long_name" : "Gyeonggi-do",
               "short_name" : "Gyeonggi-do",
               "types" : [ "administrative_area_level_1", "political" ]
            },
            {
               "long_name" : "South Korea",
               "short_name" : "KR",
               "types" : [ "country", "political" ]
            }
         ],
         "formatted_address" : "Gyeonggi-do, South Korea",
         "geometry" : {
            "bounds" : {
               "northeast" : {
                  "lat" : 38.302671,
                  "lng" : 127.8582526
               },
               "southwest" : {
                  "lat" : 36.89396860000001,
                  "lng" : 126.333561
               }
            },
            "location" : {
               "lat" : 37.41379999999999,
               "lng" : 127.5183
            },
            "location_type" : "APPROXIMATE",
            "viewport" : {
               "northeast" : {
                  "lat" : 38.302671,
                  "lng" : 127.8582526
               },
               "southwest" : {
                  "lat" : 36.89396860000001,
                  "lng" : 126.333561
               }
            }
         },
         "place_id" : "ChIJjbZ-5eR5fDURwrX21pgfDAE",
         "types" : [ "administrative_area_level_1", "political" ]
      },
      {
         "address_components" : [
            {
               "long_name" : "South Korea",
               "short_name" : "KR",
               "types" : [ "country", "political" ]
            }
         ],
         "formatted_address" : "South Korea",
         "geometry" : {
            "bounds" : {
               "northeast" : {
                  "lat" : 38.63400000000001,
                  "lng" : 131.1603
               },
               "southwest" : {
                  "lat" : 33.0041,
                  "lng" : 124.5863
               }
            },
            "location" : {
               "lat" : 35.907757,
               "lng" : 127.766922
            },
            "location_type" : "APPROXIMATE",
            "viewport" : {
               "northeast" : {
                  "lat" : 38.63400000000001,
                  "lng" : 131.1603
               },
               "southwest" : {
                  "lat" : 33.0041,
                  "lng" : 124.5863
               }
            }
         },
         "place_id" : "ChIJm7oRy-tVZDURS9uIugCbJJE",
         "types" : [ "country", "political" ]
      }
   ],
   "status" : "OK"
}
