{
   "results" : [
      {
         "address_components" : [
            {
               "long_name" : "14",
               "short_name" : "14",
               "types" : [ "street_number" ]
            },
            {
               "long_name" : "Jalan M.H. Thamrin",
               "short_name" : "Jl. M.H. Thamrin",
               "types" : [ "route" ]
            },
            {
               "long_name" : "8",
               "short_name" : "8",
               "types" : [ "political" ]
            },
            {
               "long_name" : "4",
               "short_name" : "4",
               "types" : [ "political" ]
            },
            {
               "long_name" : "Gondangdia",
               "short_name" : "Gondangdia",
               "types" : [ "administrative_area_level_4", "political" ]
            },
            {
               "long_name" : "Menteng",
               "short_name" : "Menteng",
               "types" : [ "administrative_area_level_3", "political" ]
            },
            {
               "long_name" : "Kota Jakarta Pusat",
               "short_name" : "Kota Jakarta Pusat",
               "types" : [ "administrative_area_level_2", "political" ]
            },
            {
               "long_name" : "Daerah Khusus Ibukota Jakarta",
               "short_name" : "Daerah Khusus Ibukota Jakarta",
               "types" : [ "administrative_area_level_1", "political" ]
            },
            {
               "long_name" : "Indonesia",
               "short_name" : "ID",
               "types" : [ "country", "political" ]
            },
            {
               "long_name" : "10240",
               "short_name" : "10240",
               "types" : [ "postal_code" ]
            }
         ],
         "formatted_address" : "Jl. M.H. Thamrin No.14, RT.8/RW.4, Gondangdia, Menteng, Kota Jakarta Pusat, Daerah Khusus Ibukota Jakarta 10240, Indonesia",
         "geometry" : {
            "bounds" : {
               "northeast" : {
                  "lat" : -6.1871792,
                  "lng" : 106.8228068
               },
               "southwest" : {
                  "lat" : -6.1878015,
                  "lng" : 106.8225918
               }
            },
            "location" : {
               "lat" : -6.1873945,
               "lng" : 106.8226873
            },
            "location_type" : "ROOFTOP",
            "viewport" : {
               "northeast" : {
                  "lat" : -6.186141369708499,
                  "lng" : 106.8240482802915
               },
               "southwest" : {
                  "lat" : -6.188839330291503,
                  "lng" : 106.8213503197085
               }
            }
         },
         "place_id" : "ChIJDwUsFyb0aS4RWiqBj3Pvx8s",
         "types" : [ "premise" ]
      },
      {
         "address_components" : [
            {
               "long_name" : "119",
               "short_name" : "119",
               "types" : [ "street_number" ]
            },
            {
               "long_name" : "Jalan KH. Wahid Hasyim",
               "short_name" : "Jl. KH. Wahid Hasyim",
               "types" : [ "route" ]
            },
            {
               "long_name" : "Kebon Kacang",
               "short_name" : "Kb. Kacang",
               "types" : [ "administrative_area_level_4", "political" ]
            },
            {
               "long_name" : "Tanah Abang",
               "short_name" : "Tanah Abang",
               "types" : [ "administrative_area_level_3", "political" ]
            },
            {
               "long_name" : "Kota Jakarta Pusat",
               "short_name" : "Kota Jakarta Pusat",
               "types" : [ "administrative_area_level_2", "political" ]
            },
            {
               "long_name" : "Daerah Khusus Ibukota Jakarta",
               "short_name" : "Daerah Khusus Ibukota Jakarta",
               "types" : [ "administrative_area_level_1", "political" ]
            },
            {
               "long_name" : "Indonesia",
               "short_name" : "ID",
               "types" : [ "country", "political" ]
            },
            {
               "long_name" : "10240",
               "short_name" : "10240",
               "types" : [ "postal_code" ]
            }
         ],
         "formatted_address" : "Jl. KH. Wahid Hasyim No.119, Kb. Kacang, Tanah Abang, Kota Jakarta Pusat, Daerah Khusus Ibukota Jakarta 10240, Indonesia",
         "geometry" : {
            "location" : {
               "lat" : -6.187256,
               "lng" : 106.822174
            },
            "location_type" : "ROOFTOP",
            "viewport" : {
               "northeast" : {
                  "lat" : -6.185907019708497,
                  "lng" : 106.8235229802915
               },
               "southwest" : {
                  "lat" : -6.188604980291502,
                  "lng" : 106.8208250197085
               }
            }
         },
         "place_id" : "ChIJr9uUIib0aS4RGdDusKsFYyk",
         "types" : [ "street_address" ]
      },
      {
         "address_components" : [
            {
               "long_name" : "Sarinah, Jalan MH Thamrin",
               "short_name" : "Sarinah, Jalan MH Thamrin",
               "types" : [
                  "bus_station",
                  "establishment",
                  "point_of_interest",
                  "transit_station"
               ]
            },
            {
               "long_name" : "8",
               "short_name" : "8",
               "types" : [ "political" ]
            },
            {
               "long_name" : "4",
               "short_name" : "4",
               "types" : [ "political" ]
            },
            {
               "long_name" : "Gondangdia",
               "short_name" : "Gondangdia",
               "types" : [ "administrative_area_level_4", "political" ]
            },
            {
               "long_name" : "Menteng",
               "short_name" : "Menteng",
               "types" : [ "administrative_area_level_3", "political" ]
            },
            {
               "long_name" : "Central Jakarta City",
               "short_name" : "Central Jakarta City",
               "types" : [ "administrative_area_level_2", "political" ]
            },
            {
               "long_name" : "Jakarta",
               "short_name" : "Jakarta",
               "types" : [ "administrative_area_level_1", "political" ]
            },
            {
               "long_name" : "Indonesia",
               "short_name" : "ID",
               "types" : [ "country", "political" ]
            },
            {
               "long_name" : "10350",
               "short_name" : "10350",
               "types" : [ "postal_code" ]
            }
         ],
         "formatted_address" : "Sarinah, Jalan MH Thamrin, RT.8/RW.4, Gondangdia, Menteng, Central Jakarta City, Jakarta 10350, Indonesia",
         "geometry" : {
            "location" : {
               "lat" : -6.1879596,
               "lng" : 106.8227254
            },
            "location_type" : "ROOFTOP",
            "viewport" : {
               "northeast" : {
                  "lat" : -6.186610619708498,
                  "lng" : 106.8240743802915
               },
               "southwest" : {
                  "lat" : -6.189308580291502,
                  "lng" : 106.8213764197085
               }
            }
         },
         "place_id" : "ChIJ7RxKEyb0aS4Ra2w9_ULpX3M",
         "types" : [
            "bus_station",
            "establishment",
            "point_of_interest",
            "transit_station"
         ]
      },
      {
         "address_components" : [
            {
               "long_name" : "Central Jakarta",
               "short_name" : "Central Jakarta",
               "types" : [ "locality", "political" ]
            },
            {
               "long_name" : "Central Jakarta City",
               "short_name" : "Central Jakarta City",
               "types" : [ "administrative_area_level_2", "political" ]
            },
            {
               "long_name" : "Jakarta",
               "short_name" : "Jakarta",
               "types" : [ "administrative_area_level_1", "political" ]
            },
            {
               "long_name" : "Indonesia",
               "short_name" : "ID",
               "types" : [ "country", "political" ]
            }
         ],
         "formatted_address" : "Central Jakarta, Central Jakarta City, Jakarta, Indonesia",
         "geometry" : {
            "bounds" : {
               "northeast" : {
                  "lat" : -6.135320999999999,
                  "lng" : 106.8810121
               },
               "southwest" : {
                  "lat" : -6.229305,
                  "lng" : 106.7919172
               }
            },
            "location" : {
               "lat" : -6.1864864,
               "lng" : 106.8340911
            },
            "location_type" : "APPROXIMATE",
            "viewport" : {
               "northeast" : {
                  "lat" : -6.135320999999999,
                  "lng" : 106.8810121
               },
               "southwest" : {
                  "lat" : -6.229305,
                  "lng" : 106.7919172
               }
            }
         },
         "place_id" : "ChIJB0vJuDb0aS4R9oJ8iznVpm4",
         "types" : [ "locality", "political" ]
      },
      {
         "address_components" : [
            {
               "long_name" : "Jakarta",
               "short_name" : "Jakarta",
               "types" : [ "colloquial_area", "locality", "political" ]
            },
            {
               "long_name" : "Jakarta",
               "short_name" : "Jakarta",
               "types" : [ "administrative_area_level_1", "political" ]
            },
            {
               "long_name" : "Indonesia",
               "short_name" : "ID",
               "types" : [ "country", "political" ]
            }
         ],
         "formatted_address" : "Jakarta, Indonesia",
         "geometry" : {
            "bounds" : {
               "northeast" : {
                  "lat" : -6.0886599,
                  "lng" : 106.972825
               },
               "southwest" : {
                  "lat" : -6.3708331,
                  "lng" : 106.686211
               }
            },
            "location" : {
               "lat" : -6.2087634,
               "lng" : 106.845599
            },
            "location_type" : "APPROXIMATE",
            "viewport" : {
               "northeast" : {
                  "lat" : -6.0886599,
                  "lng" : 106.972825
               },
               "southwest" : {
                  "lat" : -6.3708331,
                  "lng" : 106.686211
               }
            }
         },
         "place_id" : "ChIJnUvjRenzaS4RoobX2g-_cVM",
         "types" : [ "colloquial_area", "locality", "political" ]
      },
      {
         "address_components" : [
            {
               "long_name" : "8",
               "short_name" : "8",
               "types" : [ "political" ]
            },
            {
               "long_name" : "4",
               "short_name" : "4",
               "types" : [ "political" ]
            },
            {
               "long_name" : "Gondangdia",
               "short_name" : "Gondangdia",
               "types" : [ "administrative_area_level_4", "political" ]
            },
            {
               "long_name" : "Menteng",
               "short_name" : "Menteng",
               "types" : [ "administrative_area_level_3", "political" ]
            },
            {
               "long_name" : "Kota Jakarta Pusat",
               "short_name" : "Kota Jakarta Pusat",
               "types" : [ "administrative_area_level_2", "political" ]
            },
            {
               "long_name" : "Daerah Khusus Ibukota Jakarta",
               "short_name" : "Daerah Khusus Ibukota Jakarta",
               "types" : [ "administrative_area_level_1", "political" ]
            },
            {
               "long_name" : "Indonesia",
               "short_name" : "ID",
               "types" : [ "country", "political" ]
            }
         ],
         "formatted_address" : "RT.8/RW.4, Gondangdia, Menteng, Kota Jakarta Pusat, Daerah Khusus Ibukota Jakarta, Indonesia",
         "geometry" : {
            "bounds" : {
               "northeast" : {
                  "lat" : -6.1869931,
                  "lng" : 106.8272968
               },
               "southwest" : {
                  "lat" : -6.191011,
                  "lng" : 106.8225971
               }
            },
            "location" : {
               "lat" : -6.188218399999999,
               "lng" : 106.8248436
            },
            "location_type" : "APPROXIMATE",
            "viewport" : {
               "northeast" : {
                  "lat" : -6.1869931,
                  "lng" : 106.8272968
               },
               "southwest" : {
                  "lat" : -6.191011,
                  "lng" : 106.8225971
               }
            }
         },
         "place_id" : "ChIJFaqhyyX0aS4R44Co5swWLyk",
         "types" : [ "political" ]
      },
      {
         "address_components" : [
            {
               "long_name" : "4",
               "short_name" : "4",
               "types" : [ "political" ]
            },
            {
               "long_name" : "Gondangdia",
               "short_name" : "Gondangdia",
               "types" : [ "administrative_area_level_4", "political" ]
            },
            {
               "long_name" : "Menteng",
               "short_name" : "Menteng",
               "types" : [ "administrative_area_level_3", "political" ]
            },
            {
               "long_name" : "Kota Jakarta Pusat",
               "short_name" : "Kota Jakarta Pusat",
               "types" : [ "administrative_area_level_2", "political" ]
            },
            {
               "long_name" : "Daerah Khusus Ibukota Jakarta",
               "short_name" : "Daerah Khusus Ibukota Jakarta",
               "types" : [ "administrative_area_level_1", "political" ]
            },
            {
               "long_name" : "Indonesia",
               "short_name" : "ID",
               "types" : [ "country", "political" ]
            }
         ],
         "formatted_address" : "RW.4, Gondangdia, Menteng, Kota Jakarta Pusat, Daerah Khusus Ibukota Jakarta, Indonesia",
         "geometry" : {
            "bounds" : {
               "northeast" : {
                  "lat" : -6.1869931,
                  "lng" : 106.8301319
               },
               "southwest" : {
                  "lat" : -6.19537,
                  "lng" : 106.8212311
               }
            },
            "location" : {
               "lat" : -6.1897782,
               "lng" : 106.8259498
            },
            "location_type" : "APPROXIMATE",
            "viewport" : {
               "northeast" : {
                  "lat" : -6.1869931,
                  "lng" : 106.8301319
               },
               "southwest" : {
                  "lat" : -6.19537,
                  "lng" : 106.8212311
               }
            }
         },
         "place_id" : "ChIJtzG9cST0aS4RDzalkEvysyg",
         "types" : [ "political" ]
      },
      {
         "address_components" : [
            {
               "long_name" : "10240",
               "short_name" : "10240",
               "types" : [ "postal_code" ]
            },
            {
               "long_name" : "Tanah Abang",
               "short_name" : "Tanah Abang",
               "types" : [ "administrative_area_level_3", "political" ]
            },
            {
               "long_name" : "Central Jakarta City",
               "short_name" : "Central Jakarta City",
               "types" : [ "administrative_area_level_2", "political" ]
            },
            {
               "long_name" : "Jakarta",
               "short_name" : "Jakarta",
               "types" : [ "administrative_area_level_1", "political" ]
            },
            {
               "long_name" : "Indonesia",
               "short_name" : "ID",
               "types" : [ "country", "political" ]
            }
         ],
         "formatted_address" : "Tanah Abang, Central Jakarta City, Jakarta 10240, Indonesia",
         "geometry" : {
            "bounds" : {
               "northeast" : {
                  "lat" : -6.186902099999999,
                  "lng" : 106.8227461
               },
               "southwest" : {
                  "lat" : -6.1942296,
                  "lng" : 106.8098144
               }
            },
            "location" : {
               "lat" : -6.1907272,
               "lng" : 106.8163628
            },
            "location_type" : "APPROXIMATE",
            "viewport" : {
               "northeast" : {
                  "lat" : -6.186902099999999,
                  "lng" : 106.8227461
               },
               "southwest" : {
                  "lat" : -6.1942296,
                  "lng" : 106.8098144
               }
            }
         },
         "place_id" : "ChIJe3IDhSX0aS4R0GUDTevFABw",
         "types" : [ "postal_code" ]
      },
      {
         "address_components" : [
            {
               "long_name" : "Gondangdia",
               "short_name" : "Gondangdia",
               "types" : [ "administrative_area_level_4", "political" ]
            },
            {
               "long_name" : "Menteng",
               "short_name" : "Menteng",
               "types" : [ "administrative_area_level_3", "political" ]
            },
            {
               "long_name" : "Central Jakarta City",
               "short_name" : "Central Jakarta City",
               "types" : [ "administrative_area_level_2", "political" ]
            },
            {
               "long_name" : "Jakarta",
               "short_name" : "Jakarta",
               "types" : [ "administrative_area_level_1", "political" ]
            },
            {
               "long_name" : "Indonesia",
               "short_name" : "ID",
               "types" : [ "country", "political" ]
            }
         ],
         "formatted_address" : "Gondangdia, Menteng, Central Jakarta City, Jakarta, Indonesia",
         "geometry" : {
            "bounds" : {
               "northeast" : {
                  "lat" : -6.1869999,
                  "lng" : 106.84023
               },
               "southwest" : {
                  "lat" : -6.19728,
                  "lng" : 106.82062
               }
            },
            "location" : {
               "lat" : -6.192897899999999,
               "lng" : 106.8281623
            },
            "location_type" : "APPROXIMATE",
            "viewport" : {
               "northeast" : {
                  "lat" : -6.1869999,
                  "lng" : 106.84023
               },
               "southwest" : {
                  "lat" : -6.19728,
                  "lng" : 106.82062
               }
            }
         },
         "place_id" : "ChIJ-ztFpTz0aS4R4BnptQe1MQ0",
         "types" : [ "administrative_area_level_4", "political" ]
      },
      {
         "address_components" : [
            {
               "long_name" : "Menteng",
               "short_name" : "Menteng",
               "types" : [ "administrative_area_level_3", "political" ]
            },
            {
               "long_name" : "Central Jakarta City",
               "short_name" : "Central Jakarta City",
               "types" : [ "administrative_area_level_2", "political" ]
            },
            {
               "long_name" : "Jakarta",
               "short_name" : "Jakarta",
               "types" : [ "administrative_area_level_1", "political" ]
            },
            {
               "long_name" : "Indonesia",
               "short_name" : "ID",
               "types" : [ "country", "political" ]
            }
         ],
         "formatted_address" : "Menteng, Central Jakarta City, Jakarta, Indonesia",
         "geometry" : {
            "bounds" : {
               "northeast" : {
                  "lat" : -6.18171,
                  "lng" : 106.8557441
               },
               "southwest" : {
                  "lat" : -6.208628000000001,
                  "lng" : 106.8205699
               }
            },
            "location" : {
               "lat" : -6.194031,
               "lng" : 106.8325872
            },
            "location_type" : "APPROXIMATE",
            "viewport" : {
               "northeast" : {
                  "lat" : -6.18171,
                  "lng" : 106.8557441
               },
               "southwest" : {
                  "lat" : -6.208628000000001,
                  "lng" : 106.8205699
               }
            }
         },
         "place_id" : "ChIJmTDlNT70aS4RtJsvnNOeOD4",
         "types" : [ "administrative_area_level_3", "political" ]
      },
      {
         "address_components" : [
            {
               "long_name" : "Central Jakarta City",
               "short_name" : "Central Jakarta City",
               "types" : [ "administrative_area_level_2", "political" ]
            },
            {
               "long_name" : "Jakarta",
               "short_name" : "Jakarta",
               "types" : [ "administrative_area_level_1", "political" ]
            },
            {
               "long_name" : "Indonesia",
               "short_name" : "ID",
               "types" : [ "country", "political" ]
            }
         ],
         "formatted_address" : "Central Jakarta City, Jakarta, Indonesia",
         "geometry" : {
            "bounds" : {
               "northeast" : {
                  "lat" : -6.135320999999999,
                  "lng" : 106.881432
               },
               "southwest" : {
                  "lat" : -6.229305,
                  "lng" : 106.791799
               }
            },
            "location" : {
               "lat" : -6.1864674,
               "lng" : 106.8296372
            },
            "location_type" : "APPROXIMATE",
            "viewport" : {
               "northeast" : {
                  "lat" : -6.135320999999999,
                  "lng" : 106.881432
               },
               "southwest" : {
                  "lat" : -6.229305,
                  "lng" : 106.791799
               }
            }
         },
         "place_id" : "ChIJB0vJuDb0aS4RlHPzGrFt85A",
         "types" : [ "administrative_area_level_2", "political" ]
      },
      {
         "address_components" : [
            {
               "long_name" : "Jakarta",
               "short_name" : "Jakarta",
               "types" : [ "administrative_area_level_1", "locality", "political" ]
            },
            {
               "long_name" : "Indonesia",
               "short_name" : "ID",
               "types" : [ "country", "political" ]
            }
         ],
         "formatted_address" : "Jakarta, Indonesia",
         "geometry" : {
            "bounds" : {
               "northeast" : {
                  "lat" : -5.1843219,
                  "lng" : 106.972825
               },
               "southwest" : {
                  "lat" : -6.3708331,
                  "lng" : 106.3831259
               }
            },
            "location" : {
               "lat" : -6.17511,
               "lng" : 106.8650395
            },
            "location_type" : "APPROXIMATE",
            "viewport" : {
               "northeast" : {
                  "lat" : -5.1843219,
                  "lng" : 106.972825
               },
               "southwest" : {
                  "lat" : -6.3708331,
                  "lng" : 106.3831259
               }
            }
         },
         "place_id" : "ChIJnUvjRenzaS4RILjULejFAAE",
         "types" : [ "administrative_area_level_1", "locality", "political" ]
      },
      {
         "address_components" : [
            {
               "long_name" : "Indonesia",
               "short_name" : "ID",
               "types" : [ "country", "political" ]
            }
         ],
         "formatted_address" : "Indonesia",
         "geometry" : {
            "bounds" : {
               "northeast" : {
                  "lat" : 6.216999899999999,
                  "lng" : 141.0425
               },
               "southwest" : {
                  "lat" : -11.1082999,
                  "lng" : 94.7351
               }
            },
            "location" : {
               "lat" : -0.7892749999999999,
               "lng" : 113.921327
            },
            "location_type" : "APPROXIMATE",
            "viewport" : {
               "northeast" : {
                  "lat" : 6.216999899999999,
                  "lng" : 141.0425
               },
               "southwest" : {
                  "lat" : -11.1082999,
                  "lng" : 94.7351
               }
            }
         },
         "place_id" : "ChIJtwRkSdcHTCwRhfStG-dNe-M",
         "types" : [ "country", "political" ]
      }
   ],
   "status" : "OK"
}
