{
   "plus_code" : {
      "compound_code" : "CPPR+Q7 Tallinn, Harju County, Estonia",
      "global_code" : "9GF6CPPR+Q7"
   },
   "results" : [
      {
         "address_components" : [
            {
               "long_name" : "6",
               "short_name" : "6",
               "types" : [ "street_number" ]
            },
            {
               "long_name" : "Kohtu",
               "short_name" : "Kohtu",
               "types" : [ "route" ]
            },
            {
               "long_name" : "Kesklinn",
               "short_name" : "Kesklinn",
               "types" : [ "political", "sublocality", "sublocality_level_1" ]
            },
            {
               "long_name" : "Tallinn",
               "short_name" : "Tallinn",
               "types" : [ "locality", "political" ]
            },
            {
               "long_name" : "Harju maakond",
               "short_name" : "Harju maakond",
               "types" : [ "administrative_area_level_1", "political" ]
            },
            {
               "long_name" : "Estonia",
               "short_name" : "EE",
               "types" : [ "country", "political" ]
            },
            {
               "long_name" : "10130",
               "short_name" : "10130",
               "types" : [ "postal_code" ]
            }
         ],
         "formatted_address" : "Kohtu 6, 10130 Tallinn, Estonia",
         "geometry" : {
            "location" : {
               "lat" : 59.43692099999999,
               "lng" : 24.7406631
            },
            "location_type" : "ROOFTOP",
            "viewport" : {
               "northeast" : {
                  "lat" : 59.4382699802915,
                  "lng" : 24.7420120802915
               },
               "southwest" : {
                  "lat" : 59.43557201970849,
                  "lng" : 24.7393141197085
               }
            }
         },
         "place_id" : "ChIJEfoSgmKTkkYRye4hxm_B16o",
         "plus_code" : {
            "compound_code" : "CPPR+Q7 Tallinn, Harju County, Estonia",
            "global_code" : "9GF6CPPR+Q7"
         },
         "types" : [ "establishment", "point_of_interest", "school" ]
      },
      {
         "address_components" : [
            {
               "long_name" : "6",
               "short_name" : "6",
               "types" : [ "street_number" ]
            },
            {
               "long_name" : "Kohtu",
               "short_name" : "Kohtu",
               "types" : [ "route" ]
            },
            {
               "long_name" : "Kesklinn",
               "short_name" : "Kesklinn",
               "types" : [ "political", "sublocality", "sublocality_level_1" ]
            },
            {
               "long_name" : "Tallinn",
               "short_name" : "Tallinn",
               "types" : [ "locality", "political" ]
            },
            {
               "long_name" : "Harju maakond",
               "short_name" : "Harju maakond",
               "types" : [ "administrative_area_level_1", "political" ]
            },
            {
               "long_name" : "Estonia",
               "short_name" : "EE",
               "types" : [ "country", "political" ]
            },
            {
               "long_name" : "10130",
               "short_name" : "10130",
               "types" : [ "postal_code" ]
            }
         ],
         "formatted_address" : "Kohtu 6, 10130 Tallinn, Estonia",
         "geometry" : {
            "location" : {
               "lat" : 59.4368924,
               "lng" : 24.7405665
            },
            "location_type" : "ROOFTOP",
            "viewport" : {
               "northeast" : {
                  "lat" : 59.4382413802915,
                  "lng" : 24.7419154802915
               },
               "southwest" : {
                  "lat" : 59.43554341970849,
                  "lng" : 24.7392175197085
               }
            }
         },
         "place_id" : "ChIJ49yVf52UkkYRon73jNlg5Ro",
         "plus_code" : {
            "compound_code" : "CPPR+Q6 Tallinn, Harju County, Estonia",
            "global_code" : "9GF6CPPR+Q6"
         },
         "types" : [ "street_address" ]
      },
      {
         "address_components" : [
            {
               "long_name" : "8",
               "short_name" : "8",
               "types" : [ "street_number" ]
            },
            {
               "long_name" : "Kohtu",
               "short_name" : "Kohtu",
               "types" : [ "route" ]
            },
            {
               "long_name" : "Tallinn",
               "short_name" : "Tallinn",
               "types" : [ "locality", "political" ]
            },
            {
               "long_name" : "Estonia",
               "short_name" : "EE",
               "types" : [ "country", "political" ]
            },
            {
               "long_name" : "10130",
               "short_name" : "10130",
               "types" : [ "postal_code" ]
            }
         ],
         "formatted_address" : "Kohtu 8, 10130 Tallinn, Estonia",
         "geometry" : {
            "location" : {
               "lat" : 59.4371953,
               "lng" : 24.7410089
            },
            "location_type" : "RANGE_INTERPOLATED",
            "viewport" : {
               "northeast" : {
                  "lat" : 59.43854428029151,
                  "lng" : 24.7423578802915
               },
               "southwest" : {
                  "lat" : 59.4358463197085,
                  "lng" : 24.7396599197085
               }
            }
         },
         "place_id" : "Eh1Lb2h0dSA4LCAxMDEzMCBUYWxsaW5uLCBFZXN0aSIaEhgKFAoSCW1vTIRik5JGEYmvHe7s9xI0EAg",
         "types" : [ "street_address" ]
      },
      {
         "address_components" : [
            {
               "long_name" : "10130",
               "short_name" : "10130",
               "types" : [ "postal_code" ]
            },
            {
               "long_name" : "Kesklinn",
               "short_name" : "Kesklinn",
               "types" : [ "political", "sublocality", "sublocality_level_1" ]
            },
            {
               "long_name" : "Tallinn",
               "short_name" : "Tallinn",
               "types" : [ "locality", "political" ]
            },
            {
               "long_name" : "Harju County",
               "short_name" : "Harju County",
               "types" : [ "administrative_area_level_1", "political" ]
            },
            {
               "long_name" : "Estonia",
               "short_name" : "EE",
               "types" : [ "country", "political" ]
            }
         ],
         "formatted_address" : "10130 Tallinn, Estonia",
         "geometry" : {
            "bounds" : {
               "northeast" : {
                  "lat" : 59.439663,
                  "lng" : 24.7444246
               },
               "southwest" : {
                  "lat" : 59.4330729,
                  "lng" : 24.7346212
               }
            },
            "location" : {
               "lat" : 59.4363025,
               "lng" : 24.7393907
            },
            "location_type" : "APPROXIMATE",
            "viewport" : {
               "northeast" : {
                  "lat" : 59.439663,
                  "lng" : 24.7444246
               },
               "southwest" : {
                  "lat" : 59.4330729,
                  "lng" : 24.7346212
               }
            }
         },
         "place_id" : "ChIJ80V2ep2UkkYRkPaiLnCzABw",
         "types" : [ "postal_code" ]
      },
      {
         "address_components" : [
            {
               "long_name" : "Old Town of Tallinn",
               "short_name" : "Old Town of Tallinn",
               "types" : [ "neighborhood", "political" ]
            },
            {
               "long_name" : "Kesklinn",
               "short_name" : "Kesklinn",
               "types" : [ "political", "sublocality", "sublocality_level_1" ]
            },
            {
               "long_name" : "Tallinn",
               "short_name" : "Tallinn",
               "types" : [ "locality", "political" ]
            },
            {
               "long_name" : "Harju County",
               "short_name" : "Harju County",
               "types" : [ "administrative_area_level_1", "political" ]
            },
            {
               "long_name" : "Estonia",
               "short_name" : "EE",
               "types" : [ "country", "political" ]
            }
         ],
         "formatted_address" : "Old Town of Tallinn, Tallinn, Estonia",
         "geometry" : {
            "bounds" : {
               "northeast" : {
                  "lat" : 59.444223,
                  "lng" : 24.754068
               },
               "southwest" : {
                  "lat" : 59.431233,
                  "lng" : 24.7327791
               }
            },
            "location" : {
               "lat" : 59.43748830000001,
               "lng" : 24.744941
            },
            "location_type" : "APPROXIMATE",
            "viewport" : {
               "northeast" : {
                  "lat" : 59.444223,
                  "lng" : 24.754068
               },
               "southwest" : {
                  "lat" : 59.431233,
                  "lng" : 24.7327791
               }
            }
         },
         "place_id" : "ChIJOTWcZ2KTkkYRxR2zXkS56VY",
         "types" : [ "neighborhood", "political" ]
      },
      {
         "address_components" : [
            {
               "long_name" : "Kesklinn",
               "short_name" : "Kesklinn",
               "types" : [ "political", "sublocality", "sublocality_level_1" ]
            },
            {
               "long_name" : "Tallinn",
               "short_name" : "Tallinn",
               "types" : [ "locality", "political" ]
            },
            {
               "long_name" : "Harju County",
               "short_name" : "Harju County",
               "types" : [ "administrative_area_level_1", "political" ]
            },
            {
               "long_name" : "Estonia",
               "short_name" : "EE",
               "types" : [ "country", "political" ]
            }
         ],
         "formatted_address" : "Kesklinn, Tallinn, Estonia",
         "geometry" : {
            "bounds" : {
               "northeast" : {
                  "lat" : 59.591472,
                  "lng" : 24.8203669
               },
               "southwest" : {
                  "lat" : 59.3741481,
                  "lng" : 24.723085
               }
            },
            "location" : {
               "lat" : 59.42685179999999,
               "lng" : 24.7595564
            },
            "location_type" : "APPROXIMATE",
            "viewport" : {
               "northeast" : {
                  "lat" : 59.591472,
                  "lng" : 24.8203669
               },
               "southwest" : {
                  "lat" : 59.3741481,
                  "lng" : 24.723085
               }
            }
         },
         "place_id" : "ChIJx7Q_drSUkkYR8HD8GG2zAAU",
         "types" : [ "political", "sublocality", "sublocality_level_1" ]
      },
      {
         "address_components" : [
            {
               "long_name" : "Tallinn",
               "short_name" : "Tallinn",
               "types" : [ "locality", "political" ]
            },
            {
               "long_name" : "Harju County",
               "short_name" : "Harju County",
               "types" : [ "administrative_area_level_1", "political" ]
            },
            {
               "long_name" : "Estonia",
               "short_name" : "EE",
               "types" : [ "country", "political" ]
            }
         ],
         "formatted_address" : "Tallinn, Estonia",
         "geometry" : {
            "bounds" : {
               "northeast" : {
                  "lat" : 59.59157699999999,
                  "lng" : 24.926289
               },
               "southwest" : {
                  "lat" : 59.351809,
                  "lng" : 24.5501939
               }
            },
            "location" : {
               "lat" : 59.43696079999999,
               "lng" : 24.7535747
            },
            "location_type" : "APPROXIMATE",
            "viewport" : {
               "northeast" : {
                  "lat" : 59.59157699999999,
                  "lng" : 24.926289
               },
               "southwest" : {
                  "lat" : 59.351809,
                  "lng" : 24.5501939
               }
            }
         },
         "place_id" : "ChIJvxZW35mUkkYRcGL8GG2zAAQ",
         "types" : [ "locality", "political" ]
      },
      {
         "address_components" : [
            {
               "long_name" : "Tallinn",
               "short_name" : "Tallinn",
               "types" : [ "administrative_area_level_2", "political" ]
            },
            {
               "long_name" : "Tallinn",
               "short_name" : "Tallinn",
               "types" : [ "locality", "political" ]
            },
            {
               "long_name" : "Harju maakond",
               "short_name" : "Harju maakond",
               "types" : [ "administrative_area_level_1", "political" ]
            },
            {
               "long_name" : "Estonia",
               "short_name" : "EE",
               "types" : [ "country", "political" ]
            }
         ],
         "formatted_address" : "Tallinn, Estonia",
         "geometry" : {
            "bounds" : {
               "northeast" : {
                  "lat" : 59.5914804,
                  "lng" : 24.926283
               },
               "southwest" : {
                  "lat" : 59.35180579999999,
                  "lng" : 24.5503474
               }
            },
            "location" : {
               "lat" : 59.41354980000001,
               "lng" : 24.7340893
            },
            "location_type" : "APPROXIMATE",
            "viewport" : {
               "northeast" : {
                  "lat" : 59.5914804,
                  "lng" : 24.926283
               },
               "southwest" : {
                  "lat" : 59.35180579999999,
                  "lng" : 24.5503474
               }
            }
         },
         "place_id" : "ChIJR-GhD6-TkkYRLncNN6b7tjQ",
         "types" : [ "administrative_area_level_2", "political" ]
      },
      {
         "address_components" : [
            {
               "long_name" : "Harju County",
               "short_name" : "Harju County",
               "types" : [ "administrative_area_level_1", "political" ]
            },
            {
               "long_name" : "Estonia",
               "short_name" : "EE",
               "types" : [ "country", "political" ]
            }
         ],
         "formatted_address" : "Harju County, Estonia",
         "geometry" : {
            "bounds" : {
               "northeast" : {
                  "lat" : 59.700126,
                  "lng" : 25.9551167
               },
               "southwest" : {
                  "lat" : 58.991798,
                  "lng" : 23.7299921
               }
            },
            "location" : {
               "lat" : 59.33342390000001,
               "lng" : 25.2466974
            },
            "location_type" : "APPROXIMATE",
            "viewport" : {
               "northeast" : {
                  "lat" : 59.700126,
                  "lng" : 25.9551167
               },
               "southwest" : {
                  "lat" : 58.991798,
                  "lng" : 23.7299921
               }
            }
         },
         "place_id" : "ChIJkawxZkDqkkYRIGD8GG2zAAM",
         "types" : [ "administrative_area_level_1", "political" ]
      },
      {
         "address_components" : [
            {
               "long_name" : "Estonia",
               "short_name" : "EE",
               "types" : [ "country", "political" ]
            }
         ],
         "formatted_address" : "Estonia",
         "geometry" : {
            "bounds" : {
               "northeast" : {
                  "lat" : 59.7315,
                  "lng" : 28.2101389
               },
               "southwest" : {
                  "lat" : 57.50931600000001,
                  "lng" : 21.6540999
               }
            },
            "location" : {
               "lat" : 58.595272,
               "lng" : 25.0136071
            },
            "location_type" : "APPROXIMATE",
            "viewport" : {
               "northeast" : {
                  "lat" : 59.7315,
                  "lng" : 28.2101389
               },
               "southwest" : {
                  "lat" : 57.50931600000001,
                  "lng" : 21.6540999
               }
            }
         },
         "place_id" : "ChIJ_UuggpyUkkYRwyW0T7qf6kA",
         "types" : [ "country", "political" ]
      }
   ],
   "status" : "OK"
}
