{
   "plus_code" : {
      "compound_code" : "98MF+7V Santa Fe, Santa Fe Province, Argentina",
      "global_code" : "47WX98MF+7V"
   },
   "results" : [
      {
         "address_components" : [
            {
               "long_name" : "610",
               "short_name" : "610",
               "types" : [ "street_number" ]
            },
            {
               "long_name" : "Lavaisse",
               "short_name" : "Lavaisse",
               "types" : [ "route" ]
            },
            {
               "long_name" : "Santa Fe",
               "short_name" : "Santa Fe",
               "types" : [ "locality", "political" ]
            },
            {
               "long_name" : "La Capital",
               "short_name" : "La Capital",
               "types" : [ "administrative_area_level_2", "political" ]
            },
            {
               "long_name" : "Santa Fe",
               "short_name" : "Santa Fe",
               "types" : [ "administrative_area_level_1", "political" ]
            },
            {
               "long_name" : "Argentina",
               "short_name" : "AR",
               "types" : [ "country", "political" ]
            },
            {
               "long_name" : "S3004",
               "short_name" : "S3004",
               "types" : [ "postal_code" ]
            },
            {
               "long_name" : "EWB",
               "short_name" : "EWB",
               "types" : [ "postal_code_suffix" ]
            }
         ],
         "formatted_address" : "Lavaisse 610, S3004EWB Santa Fe, Argentina",
         "geometry" : {
            "location" : {
               "lat" : -31.616853,
               "lng" : -60.675328
            },
            "location_type" : "ROOFTOP",
            "viewport" : {
               "northeast" : {
                  "lat" : -31.6155040197085,
                  "lng" : -60.6739790197085
               },
               "southwest" : {
                  "lat" : -31.6182019802915,
                  "lng" : -60.67667698029151
               }
            }
         },
         "place_id" : "ChIJ19NGVx2qtZURsKQUkSuS1Ek",
         "plus_code" : {
            "compound_code" : "98MF+7V Santa Fe, Santa Fe Province, Argentina",
            "global_code" : "47WX98MF+7V"
         },
         "types" : [ "establishment", "point_of_interest", "university" ]
      },
      {
         "address_components" : [
            {
               "long_name" : "610",
               "short_name" : "610",
               "types" : [ "street_number" ]
            },
            {
               "long_name" : "Lavaisse",
               "short_name" : "Lavaisse",
               "types" : [ "route" ]
            },
            {
               "long_name" : "Santa Fe",
               "short_name" : "Santa Fe",
               "types" : [ "locality", "political" ]
            },
            {
               "long_name" : "La Capital",
               "short_name" : "La Capital",
               "types" : [ "administrative_area_level_2", "political" ]
            },
            {
               "long_name" : "Santa Fe",
               "short_name" : "Santa Fe",
               "types" : [ "administrative_area_level_1", "political" ]
            },
            {
               "long_name" : "Argentina",
               "short_name" : "AR",
               "types" : [ "country", "political" ]
            },
            {
               "long_name" : "S3004",
               "short_name" : "S3004",
               "types" : [ "postal_code" ]
            },
            {
               "long_name" : "EWB",
               "short_name" : "EWB",
               "types" : [ "postal_code_suffix" ]
            }
         ],
         "formatted_address" : "Lavaisse 610, S3004EWB Santa Fe, Argentina",
         "geometry" : {
            "location" : {
               "lat" : -31.6170341,
               "lng" : -60.67527529999999
            },
            "location_type" : "ROOFTOP",
            "viewport" : {
               "northeast" : {
                  "lat" : -31.6156851197085,
                  "lng" : -60.67392631970849
               },
               "southwest" : {
                  "lat" : -31.6183830802915,
                  "lng" : -60.6766242802915
               }
            }
         },
         "place_id" : "ChIJN3uZqgKqtZUREDsdhiGAv14",
         "plus_code" : {
            "compound_code" : "98MF+5V Santa Fe, Santa Fe Province, Argentina",
            "global_code" : "47WX98MF+5V"
         },
         "types" : [ "street_address" ]
      },
      {
         "address_components" : [
            {
               "long_name" : "6046",
               "short_name" : "6046",
               "types" : [ "street_number" ]
            },
            {
               "long_name" : "Antonia Godoy",
               "short_name" : "Antonia Godoy",
               "types" : [ "route" ]
            },
            {
               "long_name" : "Santa Fe",
               "short_name" : "Santa Fe",
               "types" : [ "locality", "political" ]
            },
            {
               "long_name" : "Santa Fe",
               "short_name" : "Santa Fe",
               "types" : [ "administrative_area_level_1", "political" ]
            },
            {
               "long_name" : "Argentina",
               "short_name" : "AR",
               "types" : [ "country", "political" ]
            },
            {
               "long_name" : "S3004",
               "short_name" : "S3004",
               "types" : [ "postal_code" ]
            },
            {
               "long_name" : "IWC",
               "short_name" : "IWC",
               "types" : [ "postal_code_suffix" ]
            }
         ],
         "formatted_address" : "Antonia Godoy 6046, S3004IWC Santa Fe, Argentina",
         "geometry" : {
            "location" : {
               "lat" : -31.6167325,
               "lng" : -60.67581329999999
            },
            "location_type" : "RANGE_INTERPOLATED",
            "viewport" : {
               "northeast" : {
                  "lat" : -31.6153835197085,
                  "lng" : -60.67446431970849
               },
               "southwest" : {
                  "lat" : -31.6180814802915,
                  "lng" : -60.6771622802915
               }
            }
         },
         "place_id" : "EjBBbnRvbmlhIEdvZG95IDYwNDYsIFMzMDA0SVdDIFNhbnRhIEZlLCBBcmdlbnRpbmEiGxIZChQKEglnQKcQ-Km1lRHrhjTjGGk5bRCeLw",
         "types" : [ "street_address" ]
      },
      {
         "address_components" : [
            {
               "long_name" : "Santa Fe",
               "short_name" : "Santa Fe",
               "types" : [ "locality", "political" ]
            },
            {
               "long_name" : "La Capital Department",
               "short_name" : "La Capital Department",
               "types" : [ "administrative_area_level_2", "political" ]
            },
            {
               "long_name" : "Santa Fe Province",
               "short_name" : "Santa Fe Province",
               "types" : [ "administrative_area_level_1", "political" ]
            },
            {
               "long_name" : "Argentina",
               "short_name" : "AR",
               "types" : [ "country", "political" ]
            }
         ],
         "formatted_address" : "Santa Fe, Santa Fe Province, Argentina",
         "geometry" : {
            "bounds" : {
               "northeast" : {
                  "lat" : -31.5632813,
                  "lng" : -60.66418849999999
               },
               "southwest" : {
                  "lat" : -31.6730041,
                  "lng" : -60.74832569999999
               }
            },
            "location" : {
               "lat" : -31.6106578,
               "lng" : -60.697294
            },
            "location_type" : "APPROXIMATE",
            "viewport" : {
               "northeast" : {
                  "lat" : -31.5632813,
                  "lng" : -60.66418849999999
               },
               "southwest" : {
                  "lat" : -31.6730041,
                  "lng" : -60.74832569999999
               }
            }
         },
         "place_id" : "ChIJ4YgIxK2ptZURSoACjR5299w",
         "types" : [ "locality", "political" ]
      },
      {
         "address_components" : [
            {
               "long_name" : "La Capital Department",
               "short_name" : "La Capital Department",
               "types" : [ "administrative_area_level_2", "political" ]
            },
            {
               "long_name" : "Santa Fe Province",
               "short_name" : "Santa Fe Province",
               "types" : [ "administrative_area_level_1", "political" ]
            },
            {
               "long_name" : "Argentina",
               "short_name" : "AR",
               "types" : [ "country", "political" ]
            }
         ],
         "formatted_address" : "La Capital Department, Santa Fe Province, Argentina",
         "geometry" : {
            "bounds" : {
               "northeast" : {
                  "lat" : -31.0123616,
                  "lng" : -60.3123164
               },
               "southwest" : {
                  "lat" : -31.9635573,
                  "lng" : -60.9855959
               }
            },
            "location" : {
               "lat" : -31.52334699999999,
               "lng" : -60.6749653
            },
            "location_type" : "APPROXIMATE",
            "viewport" : {
               "northeast" : {
                  "lat" : -31.0123616,
                  "lng" : -60.3123164
               },
               "southwest" : {
                  "lat" : -31.9635573,
                  "lng" : -60.9855959
               }
            }
         },
         "place_id" : "ChIJWZwrAr0DtZURvi01tqap4bU",
         "types" : [ "administrative_area_level_2", "political" ]
      },
      {
         "address_components" : [
            {
               "long_name" : "Santa Fe Province",
               "short_name" : "Santa Fe Province",
               "types" : [ "administrative_area_level_1", "political" ]
            },
            {
               "long_name" : "Argentina",
               "short_name" : "AR",
               "types" : [ "country", "political" ]
            }
         ],
         "formatted_address" : "Santa Fe Province, Argentina",
         "geometry" : {
            "bounds" : {
               "northeast" : {
                  "lat" : -27.9891993,
                  "lng" : -58.84400589999999
               },
               "southwest" : {
                  "lat" : -34.4156647,
                  "lng" : -62.9360244
               }
            },
            "location" : {
               "lat" : -31.5855109,
               "lng" : -60.72380159999999
            },
            "location_type" : "APPROXIMATE",
            "viewport" : {
               "northeast" : {
                  "lat" : -27.9891993,
                  "lng" : -58.84400589999999
               },
               "southwest" : {
                  "lat" : -34.4156647,
                  "lng" : -62.9360244
               }
            }
         },
         "place_id" : "ChIJbxhssh7ASpQRvDtaZyBOPo4",
         "types" : [ "administrative_area_level_1", "political" ]
      },
      {
         "address_components" : [
            {
               "long_name" : "Argentina",
               "short_name" : "AR",
               "types" : [ "country", "political" ]
            }
         ],
         "formatted_address" : "Argentina",
         "geometry" : {
            "bounds" : {
               "northeast" : {
                  "lat" : -21.7810459,
                  "lng" : -53.637481
               },
               "southwest" : {
                  "lat" : -55.1250224,
                  "lng" : -73.5603601
               }
            },
            "location" : {
               "lat" : -38.416097,
               "lng" : -63.61667199999999
            },
            "location_type" : "APPROXIMATE",
            "viewport" : {
               "northeast" : {
                  "lat" : -21.7810459,
                  "lng" : -53.637481
               },
               "southwest" : {
                  "lat" : -55.1250224,
                  "lng" : -73.5603601
               }
            }
         },
         "place_id" : "ChIJZ8b99fXKvJURqA_wKpl3Lz0",
         "types" : [ "country", "political" ]
      }
   ],
   "status" : "OK"
}
