{
   "plus_code" : {
      "compound_code" : "6P9W+WJ Patras, Greece",
      "global_code" : "8GC36P9W+WJ"
   },
   "results" : [
      {
         "address_components" : [
            {
               "long_name" : "219",
               "short_name" : "219",
               "types" : [ "street_number" ]
            },
            {
               "long_name" : "Megalou Alexandrou",
               "short_name" : "Meg. Alexandrou",
               "types" : [ "route" ]
            },
            {
               "long_name" : "Patra",
               "short_name" : "Patra",
               "types" : [ "locality", "political" ]
            },
            {
               "long_name" : "Achaia",
               "short_name" : "Achaia",
               "types" : [ "administrative_area_level_3", "political" ]
            },
            {
               "long_name" : "Greece",
               "short_name" : "GR",
               "types" : [ "country", "political" ]
            },
            {
               "long_name" : "263 34",
               "short_name" : "263 34",
               "types" : [ "postal_code" ]
            }
         ],
         "formatted_address" : "Meg. Alexandrou 219, Patra 263 34, Greece",
         "geometry" : {
            "location" : {
               "lat" : 38.2198678,
               "lng" : 21.7465974
            },
            "location_type" : "ROOFTOP",
            "viewport" : {
               "northeast" : {
                  "lat" : 38.2212167802915,
                  "lng" : 21.7479463802915
               },
               "southwest" : {
                  "lat" : 38.2185188197085,
                  "lng" : 21.7452484197085
               }
            }
         },
         "place_id" : "ChIJpxJ8dwBqXhMR0QtM5TFgSrU",
         "plus_code" : {
            "compound_code" : "6P9W+WJ Patras, Patra, Greece",
            "global_code" : "8GC36P9W+WJ"
         },
         "types" : [ "establishment", "point_of_interest", "university" ]
      },
      {
         "address_components" : [
            {
               "long_name" : "219",
               "short_name" : "219",
               "types" : [ "street_number" ]
            },
            {
               "long_name" : "Megalou Alexandrou",
               "short_name" : "Meg. Alexandrou",
               "types" : [ "route" ]
            },
            {
               "long_name" : "Patra",
               "short_name" : "Patra",
               "types" : [ "locality", "political" ]
            },
            {
               "long_name" : "Achaia",
               "short_name" : "Achaia",
               "types" : [ "administrative_area_level_3", "political" ]
            },
            {
               "long_name" : "Greece",
               "short_name" : "GR",
               "types" : [ "country", "political" ]
            },
            {
               "long_name" : "263 34",
               "short_name" : "263 34",
               "types" : [ "postal_code" ]
            }
         ],
         "formatted_address" : "Meg. Alexandrou 219, Patra 263 34, Greece",
         "geometry" : {
            "location" : {
               "lat" : 38.2202322,
               "lng" : 21.7473406
            },
            "location_type" : "ROOFTOP",
            "viewport" : {
               "northeast" : {
                  "lat" : 38.2215811802915,
                  "lng" : 21.7486895802915
               },
               "southwest" : {
                  "lat" : 38.2188832197085,
                  "lng" : 21.7459916197085
               }
            }
         },
         "place_id" : "ChIJw40pOBI2XhMR8H_9aM-ACm4",
         "plus_code" : {
            "compound_code" : "6PCW+3W Patras, Patra, Greece",
            "global_code" : "8GC36PCW+3W"
         },
         "types" : [ "street_address" ]
      },
      {
         "address_components" : [
            {
               "long_name" : "211",
               "short_name" : "211",
               "types" : [ "street_number" ]
            },
            {
               "long_name" : "Kalavriton",
               "short_name" : "Kalavriton",
               "types" : [ "route" ]
            },
            {
               "long_name" : "Patra",
               "short_name" : "Patra",
               "types" : [ "locality", "political" ]
            },
            {
               "long_name" : "Greece",
               "short_name" : "GR",
               "types" : [ "country", "political" ]
            },
            {
               "long_name" : "263 34",
               "short_name" : "263 34",
               "types" : [ "postal_code" ]
            }
         ],
         "formatted_address" : "Kalavriton 211, Patra 263 34, Greece",
         "geometry" : {
            "location" : {
               "lat" : 38.22027509999999,
               "lng" : 21.7460574
            },
            "location_type" : "RANGE_INTERPOLATED",
            "viewport" : {
               "northeast" : {
                  "lat" : 38.22162408029149,
                  "lng" : 21.7474063802915
               },
               "southwest" : {
                  "lat" : 38.21892611970849,
                  "lng" : 21.74470841970849
               }
            }
         },
         "place_id" : "EiRLYWxhdnJpdG9uIDIxMSwgUGF0cmEgMjYzIDM0LCBIZWxsYXMiGxIZChQKEglpR_jLEzZeExHfUaPAeGs8zhDTAQ",
         "types" : [ "street_address" ]
      },
      {
         "address_components" : [
            {
               "long_name" : "263 34",
               "short_name" : "263 34",
               "types" : [ "postal_code" ]
            },
            {
               "long_name" : "Patra",
               "short_name" : "Patra",
               "types" : [ "administrative_area_level_4", "political" ]
            },
            {
               "long_name" : "Achaea",
               "short_name" : "Achaea",
               "types" : [ "administrative_area_level_3", "political" ]
            },
            {
               "long_name" : "Greece",
               "short_name" : "GR",
               "types" : [ "country", "political" ]
            }
         ],
         "formatted_address" : "Patra 263 34, Greece",
         "geometry" : {
            "bounds" : {
               "northeast" : {
                  "lat" : 38.2280752,
                  "lng" : 21.7649967
               },
               "southwest" : {
                  "lat" : 38.1748004,
                  "lng" : 21.7132777
               }
            },
            "location" : {
               "lat" : 38.223562,
               "lng" : 21.7456454
            },
            "location_type" : "APPROXIMATE",
            "viewport" : {
               "northeast" : {
                  "lat" : 38.2280752,
                  "lng" : 21.7649967
               },
               "southwest" : {
                  "lat" : 38.1748004,
                  "lng" : 21.7132777
               }
            }
         },
         "place_id" : "ChIJX0X73w02XhMRcGJsIDC9ABw",
         "types" : [ "postal_code" ]
      },
      {
         "address_components" : [
            {
               "long_name" : "Patras",
               "short_name" : "Patras",
               "types" : [ "locality", "political" ]
            },
            {
               "long_name" : "Achaea",
               "short_name" : "Achaea",
               "types" : [ "administrative_area_level_3", "political" ]
            },
            {
               "long_name" : "Greece",
               "short_name" : "GR",
               "types" : [ "country", "political" ]
            }
         ],
         "formatted_address" : "Patras, Greece",
         "geometry" : {
            "bounds" : {
               "northeast" : {
                  "lat" : 38.2958083,
                  "lng" : 21.7817796
               },
               "southwest" : {
                  "lat" : 38.2022205,
                  "lng" : 21.709432
               }
            },
            "location" : {
               "lat" : 38.2466395,
               "lng" : 21.734574
            },
            "location_type" : "APPROXIMATE",
            "viewport" : {
               "northeast" : {
                  "lat" : 38.2958083,
                  "lng" : 21.7817796
               },
               "southwest" : {
                  "lat" : 38.2022205,
                  "lng" : 21.709432
               }
            }
         },
         "place_id" : "ChIJLe0kpZk1XhMRoIy54iy9AAQ",
         "types" : [ "locality", "political" ]
      },
      {
         "address_components" : [
            {
               "long_name" : "Patra",
               "short_name" : "Patra",
               "types" : [ "administrative_area_level_5", "political" ]
            },
            {
               "long_name" : "Achaia",
               "short_name" : "Achaia",
               "types" : [ "administrative_area_level_3", "political" ]
            },
            {
               "long_name" : "Greece",
               "short_name" : "GR",
               "types" : [ "country", "political" ]
            }
         ],
         "formatted_address" : "Patra, Greece",
         "geometry" : {
            "bounds" : {
               "northeast" : {
                  "lat" : 38.2970315,
                  "lng" : 21.8894393
               },
               "southwest" : {
                  "lat" : 38.1216284,
                  "lng" : 21.709432
               }
            },
            "location" : {
               "lat" : 38.1995501,
               "lng" : 21.8330106
            },
            "location_type" : "APPROXIMATE",
            "viewport" : {
               "northeast" : {
                  "lat" : 38.2970315,
                  "lng" : 21.8894393
               },
               "southwest" : {
                  "lat" : 38.1216284,
                  "lng" : 21.709432
               }
            }
         },
         "place_id" : "ChIJo2cuxZw1XhMR3NjVDQasZe0",
         "types" : [ "administrative_area_level_5", "political" ]
      },
      {
         "address_components" : [
            {
               "long_name" : "Patra",
               "short_name" : "Patra",
               "types" : [ "administrative_area_level_4", "political" ]
            },
            {
               "long_name" : "Achaea",
               "short_name" : "Achaea",
               "types" : [ "administrative_area_level_3", "political" ]
            },
            {
               "long_name" : "Greece",
               "short_name" : "GR",
               "types" : [ "country", "political" ]
            }
         ],
         "formatted_address" : "Patra, Greece",
         "geometry" : {
            "bounds" : {
               "northeast" : {
                  "lat" : 38.34114890000001,
                  "lng" : 21.940921
               },
               "southwest" : {
                  "lat" : 38.1148839,
                  "lng" : 21.6031725
               }
            },
            "location" : {
               "lat" : 38.2088258,
               "lng" : 21.7853143
            },
            "location_type" : "APPROXIMATE",
            "viewport" : {
               "northeast" : {
                  "lat" : 38.34114890000001,
                  "lng" : 21.940921
               },
               "southwest" : {
                  "lat" : 38.1148839,
                  "lng" : 21.6031725
               }
            }
         },
         "place_id" : "ChIJfVqOQJA1XhMRb0n2bwpeWaE",
         "types" : [ "administrative_area_level_4", "political" ]
      },
      {
         "address_components" : [
            {
               "long_name" : "Achaea",
               "short_name" : "Achaea",
               "types" : [ "administrative_area_level_3", "political" ]
            },
            {
               "long_name" : "Greece",
               "short_name" : "GR",
               "types" : [ "country", "political" ]
            }
         ],
         "formatted_address" : "Achaea, Greece",
         "geometry" : {
            "bounds" : {
               "northeast" : {
                  "lat" : 38.34114890000001,
                  "lng" : 22.3801523
               },
               "southwest" : {
                  "lat" : 37.7799521,
                  "lng" : 21.3506248
               }
            },
            "location" : {
               "lat" : 38.1158729,
               "lng" : 21.9522491
            },
            "location_type" : "APPROXIMATE",
            "viewport" : {
               "northeast" : {
                  "lat" : 38.34114890000001,
                  "lng" : 22.3801523
               },
               "southwest" : {
                  "lat" : 37.7799521,
                  "lng" : 21.3506248
               }
            }
         },
         "place_id" : "ChIJeyW9IeBJXhMRybXS1TTnwV0",
         "types" : [ "administrative_area_level_3", "political" ]
      },
      {
         "address_components" : [
            {
               "long_name" : "Western Greece",
               "short_name" : "Western Greece",
               "types" : [ "administrative_area_level_2", "political" ]
            },
            {
               "long_name" : "Greece",
               "short_name" : "GR",
               "types" : [ "country", "political" ]
            }
         ],
         "formatted_address" : "Western Greece, Greece",
         "geometry" : {
            "bounds" : {
               "northeast" : {
                  "lat" : 39.1746625,
                  "lng" : 22.3801523
               },
               "southwest" : {
                  "lat" : 37.3749783,
                  "lng" : 20.7186183
               }
            },
            "location" : {
               "lat" : 38.5115496,
               "lng" : 21.5706786
            },
            "location_type" : "APPROXIMATE",
            "viewport" : {
               "northeast" : {
                  "lat" : 39.1746625,
                  "lng" : 22.3801523
               },
               "southwest" : {
                  "lat" : 37.3749783,
                  "lng" : 20.7186183
               }
            }
         },
         "place_id" : "ChIJg8jBI56QXxMREMa54iy9AAE",
         "types" : [ "administrative_area_level_2", "political" ]
      },
      {
         "address_components" : [
            {
               "long_name" : "Decentralized Administration of Peloponnese, Western Greece and the Ionian",
               "short_name" : "Decentralized Administration of Peloponnese, Western Greece and the Ionian",
               "types" : [ "administrative_area_level_1", "political" ]
            },
            {
               "long_name" : "Greece",
               "short_name" : "GR",
               "types" : [ "country", "political" ]
            }
         ],
         "formatted_address" : "Decentralized Administration of Peloponnese, Western Greece and the Ionian, Greece",
         "geometry" : {
            "bounds" : {
               "northeast" : {
                  "lat" : 39.8987729,
                  "lng" : 23.4546164
               },
               "southwest" : {
                  "lat" : 36.3853125,
                  "lng" : 19.3734224
               }
            },
            "location" : {
               "lat" : 37.4935496,
               "lng" : 22.2384017
            },
            "location_type" : "APPROXIMATE",
            "viewport" : {
               "northeast" : {
                  "lat" : 39.8987729,
                  "lng" : 23.4546164
               },
               "southwest" : {
                  "lat" : 36.3853125,
                  "lng" : 19.3734224
               }
            }
         },
         "place_id" : "ChIJ2_mmEEl5YBMRs6pM2wtaLpc",
         "types" : [ "administrative_area_level_1", "political" ]
      },
      {
         "address_components" : [
            {
               "long_name" : "Greece",
               "short_name" : "GR",
               "types" : [ "country", "political" ]
            }
         ],
         "formatted_address" : "Greece",
         "geometry" : {
            "bounds" : {
               "northeast" : {
                  "lat" : 41.7488784,
                  "lng" : 29.6527999
               },
               "southwest" : {
                  "lat" : 34.5428,
                  "lng" : 19.3098
               }
            },
            "location" : {
               "lat" : 39.074208,
               "lng" : 21.824312
            },
            "location_type" : "APPROXIMATE",
            "viewport" : {
               "northeast" : {
                  "lat" : 41.7488784,
                  "lng" : 29.6527999
               },
               "southwest" : {
                  "lat" : 34.5428,
                  "lng" : 19.3098
               }
            }
         },
         "place_id" : "ChIJY2xxEcdKWxMRHS2a3HUXOjY",
         "types" : [ "country", "political" ]
      }
   ],
   "status" : "OK"
}
