{
   "plus_code" : {
      "compound_code" : "589P+QF Vienna, Austria",
      "global_code" : "8FWR589P+QF"
   },
   "results" : [
      {
         "address_components" : [
            {
               "long_name" : "20",
               "short_name" : "20",
               "types" : [ "street_number" ]
            },
            {
               "long_name" : "Eibesbrunnergasse",
               "short_name" : "Eibesbrunnergasse",
               "types" : [ "route" ]
            },
            {
               "long_name" : "Meidling",
               "short_name" : "Meidling",
               "types" : [ "political", "sublocality", "sublocality_level_1" ]
            },
            {
               "long_name" : "Wien",
               "short_name" : "Wien",
               "types" : [ "locality", "political" ]
            },
            {
               "long_name" : "Wien",
               "short_name" : "Wien",
               "types" : [ "administrative_area_level_1", "political" ]
            },
            {
               "long_name" : "Austria",
               "short_name" : "AT",
               "types" : [ "country", "political" ]
            },
            {
               "long_name" : "1120",
               "short_name" : "1120",
               "types" : [ "postal_code" ]
            }
         ],
         "formatted_address" : "Eibesbrunnergasse 20, 1120 Wien, Austria",
         "geometry" : {
            "location" : {
               "lat" : 48.169455,
               "lng" : 16.336139
            },
            "location_type" : "ROOFTOP",
            "viewport" : {
               "northeast" : {
                  "lat" : 48.1708039802915,
                  "lng" : 16.3374879802915
               },
               "southwest" : {
                  "lat" : 48.1681060197085,
                  "lng" : 16.3347900197085
               }
            }
         },
         "place_id" : "ChIJ7-0LnEaobUcR9RbSiBc5oUw",
         "plus_code" : {
            "compound_code" : "589P+QF Vienna, Austria",
            "global_code" : "8FWR589P+QF"
         },
         "types" : [ "establishment", "point_of_interest" ]
      },
      {
         "address_components" : [
            {
               "long_name" : "20",
               "short_name" : "20",
               "types" : [ "street_number" ]
            },
            {
               "long_name" : "Eibesbrunnergasse",
               "short_name" : "Eibesbrunnergasse",
               "types" : [ "route" ]
            },
            {
               "long_name" : "Meidling",
               "short_name" : "Meidling",
               "types" : [ "political", "sublocality", "sublocality_level_1" ]
            },
            {
               "long_name" : "Wien",
               "short_name" : "Wien",
               "types" : [ "locality", "political" ]
            },
            {
               "long_name" : "Wien",
               "short_name" : "Wien",
               "types" : [ "administrative_area_level_1", "political" ]
            },
            {
               "long_name" : "Austria",
               "short_name" : "AT",
               "types" : [ "country", "political" ]
            },
            {
               "long_name" : "1120",
               "short_name" : "1120",
               "types" : [ "postal_code" ]
            }
         ],
         "formatted_address" : "Eibesbrunnergasse 20, 1120 Wien, Austria",
         "geometry" : {
            "bounds" : {
               "northeast" : {
                  "lat" : 48.1700559,
                  "lng" : 16.3364926
               },
               "southwest" : {
                  "lat" : 48.1689497,
                  "lng" : 16.3352982
               }
            },
            "location" : {
               "lat" : 48.1694848,
               "lng" : 16.3359796
            },
            "location_type" : "ROOFTOP",
            "viewport" : {
               "northeast" : {
                  "lat" : 48.17085178029151,
                  "lng" : 16.33724438029151
               },
               "southwest" : {
                  "lat" : 48.16815381970851,
                  "lng" : 16.3345464197085
               }
            }
         },
         "place_id" : "ChIJzVw6IESobUcRLj2YkbDxBpU",
         "types" : [ "premise" ]
      },
      {
         "address_components" : [
            {
               "long_name" : "20",
               "short_name" : "20",
               "types" : [ "street_number" ]
            },
            {
               "long_name" : "Eibesbrunnergasse",
               "short_name" : "Eibesbrunnergasse",
               "types" : [ "route" ]
            },
            {
               "long_name" : "Meidling",
               "short_name" : "Meidling",
               "types" : [ "political", "sublocality", "sublocality_level_1" ]
            },
            {
               "long_name" : "Wien",
               "short_name" : "Wien",
               "types" : [ "locality", "political" ]
            },
            {
               "long_name" : "Wien",
               "short_name" : "Wien",
               "types" : [ "administrative_area_level_1", "political" ]
            },
            {
               "long_name" : "Austria",
               "short_name" : "AT",
               "types" : [ "country", "political" ]
            },
            {
               "long_name" : "1120",
               "short_name" : "1120",
               "types" : [ "postal_code" ]
            }
         ],
         "formatted_address" : "Eibesbrunnergasse 20, 1120 Wien, Austria",
         "geometry" : {
            "location" : {
               "lat" : 48.1695181,
               "lng" : 16.3361492
            },
            "location_type" : "ROOFTOP",
            "viewport" : {
               "northeast" : {
                  "lat" : 48.1708670802915,
                  "lng" : 16.3374981802915
               },
               "southwest" : {
                  "lat" : 48.1681691197085,
                  "lng" : 16.3348002197085
               }
            }
         },
         "place_id" : "ChIJj2WdI0SobUcR_6WnK6JagpA",
         "plus_code" : {
            "compound_code" : "589P+RF Vienna, Austria",
            "global_code" : "8FWR589P+RF"
         },
         "types" : [ "street_address" ]
      },
      {
         "address_components" : [
            {
               "long_name" : "18-20",
               "short_name" : "18-20",
               "types" : [ "street_number" ]
            },
            {
               "long_name" : "Eibesbrunnergasse",
               "short_name" : "Eibesbrunnergasse",
               "types" : [ "route" ]
            },
            {
               "long_name" : "Meidling",
               "short_name" : "Meidling",
               "types" : [ "political", "sublocality", "sublocality_level_1" ]
            },
            {
               "long_name" : "Wien",
               "short_name" : "Wien",
               "types" : [ "locality", "political" ]
            },
            {
               "long_name" : "Wien",
               "short_name" : "Wien",
               "types" : [ "administrative_area_level_1", "political" ]
            },
            {
               "long_name" : "Austria",
               "short_name" : "AT",
               "types" : [ "country", "political" ]
            },
            {
               "long_name" : "1120",
               "short_name" : "1120",
               "types" : [ "postal_code" ]
            }
         ],
         "formatted_address" : "Eibesbrunnergasse 18-20, 1120 Wien, Austria",
         "geometry" : {
            "bounds" : {
               "northeast" : {
                  "lat" : 48.1701809,
                  "lng" : 16.3369037
               },
               "southwest" : {
                  "lat" : 48.1688409,
                  "lng" : 16.336055
               }
            },
            "location" : {
               "lat" : 48.1695109,
               "lng" : 16.3364794
            },
            "location_type" : "GEOMETRIC_CENTER",
            "viewport" : {
               "northeast" : {
                  "lat" : 48.17085988029149,
                  "lng" : 16.3378283302915
               },
               "southwest" : {
                  "lat" : 48.1681619197085,
                  "lng" : 16.3351303697085
               }
            }
         },
         "place_id" : "ChIJZUp5J0SobUcRglSXAbtMAAw",
         "types" : [ "route" ]
      },
      {
         "address_components" : [
            {
               "long_name" : "Meidling",
               "short_name" : "Meidling",
               "types" : [ "political", "sublocality", "sublocality_level_1" ]
            },
            {
               "long_name" : "Vienna",
               "short_name" : "Vienna",
               "types" : [ "locality", "political" ]
            },
            {
               "long_name" : "Vienna",
               "short_name" : "Vienna",
               "types" : [ "administrative_area_level_1", "political" ]
            },
            {
               "long_name" : "Austria",
               "short_name" : "AT",
               "types" : [ "country", "political" ]
            },
            {
               "long_name" : "1120",
               "short_name" : "1120",
               "types" : [ "postal_code" ]
            }
         ],
         "formatted_address" : "Meidling, 1120 Vienna, Austria",
         "geometry" : {
            "bounds" : {
               "northeast" : {
                  "lat" : 48.1885847,
                  "lng" : 16.349777
               },
               "southwest" : {
                  "lat" : 48.1548561,
                  "lng" : 16.2918594
               }
            },
            "location" : {
               "lat" : 48.1673681,
               "lng" : 16.3160467
            },
            "location_type" : "APPROXIMATE",
            "viewport" : {
               "northeast" : {
                  "lat" : 48.1885847,
                  "lng" : 16.349777
               },
               "southwest" : {
                  "lat" : 48.1548561,
                  "lng" : 16.2918594
               }
            }
         },
         "place_id" : "ChIJ4VvPqoQHbUcRYxbctMecunE",
         "types" : [ "political", "sublocality", "sublocality_level_1" ]
      },
      {
         "address_components" : [
            {
               "long_name" : "1120",
               "short_name" : "1120",
               "types" : [ "postal_code" ]
            },
            {
               "long_name" : "Meidling",
               "short_name" : "Meidling",
               "types" : [ "political", "sublocality", "sublocality_level_1" ]
            },
            {
               "long_name" : "Vienna",
               "short_name" : "Vienna",
               "types" : [ "locality", "political" ]
            },
            {
               "long_name" : "Vienna",
               "short_name" : "Vienna",
               "types" : [ "administrative_area_level_1", "political" ]
            },
            {
               "long_name" : "Austria",
               "short_name" : "AT",
               "types" : [ "country", "political" ]
            }
         ],
         "formatted_address" : "1120 Vienna, Austria",
         "geometry" : {
            "bounds" : {
               "northeast" : {
                  "lat" : 48.1885847,
                  "lng" : 16.349777
               },
               "southwest" : {
                  "lat" : 48.1548561,
                  "lng" : 16.2918594
               }
            },
            "location" : {
               "lat" : 48.1717869,
               "lng" : 16.3209877
            },
            "location_type" : "APPROXIMATE",
            "viewport" : {
               "northeast" : {
                  "lat" : 48.1885847,
                  "lng" : 16.349777
               },
               "southwest" : {
                  "lat" : 48.1548561,
                  "lng" : 16.2918594
               }
            }
         },
         "place_id" : "ChIJk4R_M2mobUcRmE0IKAZKTLo",
         "types" : [ "postal_code" ]
      },
      {
         "address_components" : [
            {
               "long_name" : "Vienna",
               "short_name" : "Vienna",
               "types" : [ "administrative_area_level_1", "political" ]
            },
            {
               "long_name" : "Vienna",
               "short_name" : "Vienna",
               "types" : [ "locality", "political" ]
            },
            {
               "long_name" : "Austria",
               "short_name" : "AT",
               "types" : [ "country", "political" ]
            }
         ],
         "formatted_address" : "Vienna, Austria",
         "geometry" : {
            "bounds" : {
               "northeast" : {
                  "lat" : 48.3230999,
                  "lng" : 16.5774999
               },
               "southwest" : {
                  "lat" : 48.1182699,
                  "lng" : 16.18262
               }
            },
            "location" : {
               "lat" : 48.20823499999999,
               "lng" : 16.3738138
            },
            "location_type" : "APPROXIMATE",
            "viewport" : {
               "northeast" : {
                  "lat" : 48.3230999,
                  "lng" : 16.5774999
               },
               "southwest" : {
                  "lat" : 48.1182699,
                  "lng" : 16.18262
               }
            }
         },
         "place_id" : "ChIJfyqdJZsHbUcRLtSMhiK2NLw",
         "types" : [ "administrative_area_level_1", "political" ]
      },
      {
         "address_components" : [
            {
               "long_name" : "Vienna",
               "short_name" : "Vienna",
               "types" : [ "locality", "political" ]
            },
            {
               "long_name" : "Vienna",
               "short_name" : "Vienna",
               "types" : [ "administrative_area_level_1", "political" ]
            },
            {
               "long_name" : "Austria",
               "short_name" : "AT",
               "types" : [ "country", "political" ]
            }
         ],
         "formatted_address" : "Vienna, Austria",
         "geometry" : {
            "bounds" : {
               "northeast" : {
                  "lat" : 48.3230999,
                  "lng" : 16.5774999
               },
               "southwest" : {
                  "lat" : 48.1182699,
                  "lng" : 16.18262
               }
            },
            "location" : {
               "lat" : 48.2081743,
               "lng" : 16.3738189
            },
            "location_type" : "APPROXIMATE",
            "viewport" : {
               "northeast" : {
                  "lat" : 48.3230999,
                  "lng" : 16.5774999
               },
               "southwest" : {
                  "lat" : 48.1182699,
                  "lng" : 16.18262
               }
            }
         },
         "place_id" : "ChIJn8o2UZ4HbUcRRluiUYrlwv0",
         "types" : [ "locality", "political" ]
      },
      {
         "address_components" : [
            {
               "long_name" : "Wien",
               "short_name" : "Wien",
               "types" : [ "postal_town" ]
            },
            {
               "long_name" : "Wien",
               "short_name" : "Wien",
               "types" : [ "locality", "political" ]
            },
            {
               "long_name" : "Austria",
               "short_name" : "AT",
               "types" : [ "country", "political" ]
            },
            {
               "long_name" : "1010",
               "short_name" : "1010",
               "types" : [ "postal_code" ]
            }
         ],
         "formatted_address" : "Wien, 1010 Wien, Austria",
         "geometry" : {
            "bounds" : {
               "northeast" : {
                  "lat" : 48.3246262,
                  "lng" : 16.5776676
               },
               "southwest" : {
                  "lat" : 48.1178444,
                  "lng" : 16.1819291
               }
            },
            "location" : {
               "lat" : 48.2280577,
               "lng" : 16.3902262
            },
            "location_type" : "APPROXIMATE",
            "viewport" : {
               "northeast" : {
                  "lat" : 48.3246262,
                  "lng" : 16.5776676
               },
               "southwest" : {
                  "lat" : 48.1178444,
                  "lng" : 16.1819291
               }
            }
         },
         "place_id" : "ChIJOe-7qAcHbUcRainLMweZtfg",
         "types" : [ "postal_town" ]
      },
      {
         "address_components" : [
            {
               "long_name" : "Austria",
               "short_name" : "AT",
               "types" : [ "country", "political" ]
            }
         ],
         "formatted_address" : "Austria",
         "geometry" : {
            "bounds" : {
               "northeast" : {
                  "lat" : 49.0206081,
                  "lng" : 17.1607329
               },
               "southwest" : {
                  "lat" : 46.37233579999999,
                  "lng" : 9.530783399999999
               }
            },
            "location" : {
               "lat" : 47.516231,
               "lng" : 14.550072
            },
            "location_type" : "APPROXIMATE",
            "viewport" : {
               "northeast" : {
                  "lat" : 49.0206081,
                  "lng" : 17.1607329
               },
               "southwest" : {
                  "lat" : 46.37233579999999,
                  "lng" : 9.530783399999999
               }
            }
         },
         "place_id" : "ChIJfyqdJZsHbUcRr8Hk3XvUEhA",
         "types" : [ "country", "political" ]
      }
   ],
   "status" : "OK"
}
