{
   "results" : [
      {
         "address_components" : [
            {
               "long_name" : "Vías Universidad Del Valle",
               "short_name" : "Vías Universidad Del Valle",
               "types" : [ "route" ]
            },
            {
               "long_name" : "Cali",
               "short_name" : "Cali",
               "types" : [ "locality", "political" ]
            },
            {
               "long_name" : "Cali",
               "short_name" : "Cali",
               "types" : [ "administrative_area_level_2", "political" ]
            },
            {
               "long_name" : "Valle del Cauca",
               "short_name" : "Valle del Cauca",
               "types" : [ "administrative_area_level_1", "political" ]
            },
            {
               "long_name" : "Colombia",
               "short_name" : "CO",
               "types" : [ "country", "political" ]
            },
            {
               "long_name" : "760032",
               "short_name" : "760032",
               "types" : [ "postal_code" ]
            }
         ],
         "formatted_address" : "Vías Universidad Del Valle, Cali, Valle del Cauca, Colombia",
         "geometry" : {
            "bounds" : {
               "northeast" : {
                  "lat" : 3.375642,
                  "lng" : -76.53499909999999
               },
               "southwest" : {
                  "lat" : 3.3750565,
                  "lng" : -76.53501
               }
            },
            "location" : {
               "lat" : 3.3753492,
               "lng" : -76.535009
            },
            "location_type" : "GEOMETRIC_CENTER",
            "viewport" : {
               "northeast" : {
                  "lat" : 3.376698230291502,
                  "lng" : -76.5336555697085
               },
               "southwest" : {
                  "lat" : 3.374000269708498,
                  "lng" : -76.53635353029151
               }
            }
         },
         "place_id" : "ChIJuYzA0G-hMI4RX2EZ5xhF6yc",
         "types" : [ "route" ]
      },
      {
         "address_components" : [
            {
               "long_name" : "Cali",
               "short_name" : "Cali",
               "types" : [ "locality", "political" ]
            },
            {
               "long_name" : "Cali",
               "short_name" : "Cali",
               "types" : [ "administrative_area_level_2", "political" ]
            },
            {
               "long_name" : "Valle del Cauca",
               "short_name" : "Valle del Cauca",
               "types" : [ "administrative_area_level_1", "political" ]
            },
            {
               "long_name" : "Colombia",
               "short_name" : "CO",
               "types" : [ "country", "political" ]
            }
         ],
         "formatted_address" : "Cali, Valle del Cauca, Colombia",
         "geometry" : {
            "bounds" : {
               "northeast" : {
                  "lat" : 3.505554,
                  "lng" : -76.46082489999999
               },
               "southwest" : {
                  "lat" : 3.2845748,
                  "lng" : -76.590503
               }
            },
            "location" : {
               "lat" : 3.4516467,
               "lng" : -76.5319854
            },
            "location_type" : "APPROXIMATE",
            "viewport" : {
               "northeast" : {
                  "lat" : 3.505554,
                  "lng" : -76.46082489999999
               },
               "southwest" : {
                  "lat" : 3.2845748,
                  "lng" : -76.590503
               }
            }
         },
         "place_id" : "ChIJ8bNLzPCmMI4RaGGuUum1Dx8",
         "types" : [ "locality", "political" ]
      },
      {
         "address_components" : [
            {
               "long_name" : "760032",
               "short_name" : "760032",
               "types" : [ "postal_code" ]
            },
            {
               "long_name" : "Cali",
               "short_name" : "Cali",
               "types" : [ "administrative_area_level_2", "political" ]
            },
            {
               "long_name" : "Valle del Cauca",
               "short_name" : "Valle del Cauca",
               "types" : [ "administrative_area_level_1", "political" ]
            },
            {
               "long_name" : "Colombia",
               "short_name" : "CO",
               "types" : [ "country", "political" ]
            }
         ],
         "formatted_address" : "Cali, Valle del Cauca, Colombia",
         "geometry" : {
            "bounds" : {
               "northeast" : {
                  "lat" : 3.394742,
                  "lng" : -76.52415599999999
               },
               "southwest" : {
                  "lat" : 3.360995,
                  "lng" : -76.573302
               }
            },
            "location" : {
               "lat" : 3.3724081,
               "lng" : -76.5343721
            },
            "location_type" : "APPROXIMATE",
            "viewport" : {
               "northeast" : {
                  "lat" : 3.394742,
                  "lng" : -76.52415599999999
               },
               "southwest" : {
                  "lat" : 3.360995,
                  "lng" : -76.573302
               }
            }
         },
         "place_id" : "ChIJbeLHeGKhMI4RNr8Z6QeowKs",
         "types" : [ "postal_code" ]
      },
      {
         "address_components" : [
            {
               "long_name" : "Cali",
               "short_name" : "Cali",
               "types" : [ "administrative_area_level_2", "political" ]
            },
            {
               "long_name" : "Valle del Cauca",
               "short_name" : "Valle del Cauca",
               "types" : [ "administrative_area_level_1", "political" ]
            },
            {
               "long_name" : "Colombia",
               "short_name" : "CO",
               "types" : [ "country", "political" ]
            }
         ],
         "formatted_address" : "Cali, Valle del Cauca, Colombia",
         "geometry" : {
            "bounds" : {
               "northeast" : {
                  "lat" : 3.5476371,
                  "lng" : -76.458855
               },
               "southwest" : {
                  "lat" : 3.273552,
                  "lng" : -76.7073891
               }
            },
            "location" : {
               "lat" : 3.45246,
               "lng" : -76.535758
            },
            "location_type" : "APPROXIMATE",
            "viewport" : {
               "northeast" : {
                  "lat" : 3.5476371,
                  "lng" : -76.458855
               },
               "southwest" : {
                  "lat" : 3.273552,
                  "lng" : -76.7073891
               }
            }
         },
         "place_id" : "ChIJESedtkOmMI4R--NFJ63l3jc",
         "types" : [ "administrative_area_level_2", "political" ]
      },
      {
         "address_components" : [
            {
               "long_name" : "Valle del Cauca",
               "short_name" : "Valle del Cauca",
               "types" : [ "administrative_area_level_1", "political" ]
            },
            {
               "long_name" : "Colombia",
               "short_name" : "CO",
               "types" : [ "country", "political" ]
            }
         ],
         "formatted_address" : "Valle del Cauca, Colombia",
         "geometry" : {
            "bounds" : {
               "northeast" : {
                  "lat" : 5.015258,
                  "lng" : -75.704875
               },
               "southwest" : {
                  "lat" : 3.0615429,
                  "lng" : -77.5532631
               }
            },
            "location" : {
               "lat" : 3.8008893,
               "lng" : -76.64127119999999
            },
            "location_type" : "APPROXIMATE",
            "viewport" : {
               "northeast" : {
                  "lat" : 5.015258,
                  "lng" : -75.704875
               },
               "southwest" : {
                  "lat" : 3.0615429,
                  "lng" : -77.5532631
               }
            }
         },
         "place_id" : "ChIJj0EMhiryNo4RoExlemHhg-s",
         "types" : [ "administrative_area_level_1", "political" ]
      },
      {
         "address_components" : [
            {
               "long_name" : "Colombia",
               "short_name" : "CO",
               "types" : [ "country", "political" ]
            }
         ],
         "formatted_address" : "Colombia",
         "geometry" : {
            "bounds" : {
               "northeast" : {
                  "lat" : 13.5177999,
                  "lng" : -66.8463122
               },
               "southwest" : {
                  "lat" : -4.227109899999999,
                  "lng" : -81.8317
               }
            },
            "location" : {
               "lat" : 4.570868,
               "lng" : -74.29733299999999
            },
            "location_type" : "APPROXIMATE",
            "viewport" : {
               "northeast" : {
                  "lat" : 13.5177999,
                  "lng" : -66.8463122
               },
               "southwest" : {
                  "lat" : -4.227109899999999,
                  "lng" : -81.8317
               }
            }
         },
         "place_id" : "ChIJo5QVrjqkFY4RQKPy7wSaDZo",
         "types" : [ "country", "political" ]
      }
   ],
   "status" : "OK"
}
