{
   "results" : [
      {
         "address_components" : [
            {
               "long_name" : "74-212",
               "short_name" : "74-212",
               "types" : [ "street_number" ]
            },
            {
               "long_name" : "Carrera 38",
               "short_name" : "Cra. 38",
               "types" : [ "route" ]
            },
            {
               "long_name" : "Betania",
               "short_name" : "Betania",
               "types" : [ "neighborhood", "political" ]
            },
            {
               "long_name" : "Barranquilla",
               "short_name" : "Barranquilla",
               "types" : [ "locality", "political" ]
            },
            {
               "long_name" : "Barranquilla",
               "short_name" : "Barranquilla",
               "types" : [ "administrative_area_level_2", "political" ]
            },
            {
               "long_name" : "Atlántico",
               "short_name" : "Atlántico",
               "types" : [ "administrative_area_level_1", "political" ]
            },
            {
               "long_name" : "Colombia",
               "short_name" : "CO",
               "types" : [ "country", "political" ]
            },
            {
               "long_name" : "080016",
               "short_name" : "080016",
               "types" : [ "postal_code" ]
            }
         ],
         "formatted_address" : "Cra. 38 #74-212, Barranquilla, Atlántico, Colombia",
         "geometry" : {
            "location" : {
               "lat" : 10.9860966,
               "lng" : -74.8136339
            },
            "location_type" : "ROOFTOP",
            "viewport" : {
               "northeast" : {
                  "lat" : 10.9874455802915,
                  "lng" : -74.81228491970849
               },
               "southwest" : {
                  "lat" : 10.9847476197085,
                  "lng" : -74.81498288029151
               }
            }
         },
         "place_id" : "ChIJg6heLuEs9I4RZmBkg0bWO1g",
         "types" : [ "street_address" ]
      },
      {
         "address_components" : [
            {
               "long_name" : "Las Mercedes Sur",
               "short_name" : "Las Mercedes Sur",
               "types" : [ "political", "sublocality", "sublocality_level_1" ]
            },
            {
               "long_name" : "Barranquilla",
               "short_name" : "Barranquilla",
               "types" : [ "locality", "political" ]
            },
            {
               "long_name" : "Barranquilla",
               "short_name" : "Barranquilla",
               "types" : [ "administrative_area_level_2", "political" ]
            },
            {
               "long_name" : "Atlántico",
               "short_name" : "Atlántico",
               "types" : [ "administrative_area_level_1", "political" ]
            },
            {
               "long_name" : "Colombia",
               "short_name" : "CO",
               "types" : [ "country", "political" ]
            },
            {
               "long_name" : "080016",
               "short_name" : "080016",
               "types" : [ "postal_code" ]
            }
         ],
         "formatted_address" : "Las Mercedes Sur, Barranquilla, Atlántico, Colombia",
         "geometry" : {
            "bounds" : {
               "northeast" : {
                  "lat" : 10.9870894,
                  "lng" : -74.8111787
               },
               "southwest" : {
                  "lat" : 10.9777696,
                  "lng" : -74.81862199999999
               }
            },
            "location" : {
               "lat" : 10.9822008,
               "lng" : -74.8148887
            },
            "location_type" : "APPROXIMATE",
            "viewport" : {
               "northeast" : {
                  "lat" : 10.9870894,
                  "lng" : -74.8111787
               },
               "southwest" : {
                  "lat" : 10.9777696,
                  "lng" : -74.81862199999999
               }
            }
         },
         "place_id" : "ChIJfb__2Bkt9I4RNwqZroL0aT4",
         "types" : [ "political", "sublocality", "sublocality_level_1" ]
      },
      {
         "address_components" : [
            {
               "long_name" : "Suroccidente",
               "short_name" : "Suroccidente",
               "types" : [ "political", "sublocality", "sublocality_level_1" ]
            },
            {
               "long_name" : "Barranquilla",
               "short_name" : "Barranquilla",
               "types" : [ "administrative_area_level_2", "political" ]
            },
            {
               "long_name" : "Atlántico",
               "short_name" : "Atlántico",
               "types" : [ "administrative_area_level_1", "political" ]
            },
            {
               "long_name" : "Colombia",
               "short_name" : "CO",
               "types" : [ "country", "political" ]
            }
         ],
         "formatted_address" : "Suroccidente, Barranquilla, Atlántico, Colombia",
         "geometry" : {
            "bounds" : {
               "northeast" : {
                  "lat" : 10.9872841,
                  "lng" : -74.78708979999999
               },
               "southwest" : {
                  "lat" : 10.936557,
                  "lng" : -74.90298279999999
               }
            },
            "location" : {
               "lat" : 10.9638155,
               "lng" : -74.8448648
            },
            "location_type" : "APPROXIMATE",
            "viewport" : {
               "northeast" : {
                  "lat" : 10.9872841,
                  "lng" : -74.78708979999999
               },
               "southwest" : {
                  "lat" : 10.936557,
                  "lng" : -74.90298279999999
               }
            }
         },
         "place_id" : "ChIJQX-NEtIs9I4RnGsrCgz8x-w",
         "types" : [ "political", "sublocality", "sublocality_level_1" ]
      },
      {
         "address_components" : [
            {
               "long_name" : "Barranquilla",
               "short_name" : "Barranquilla",
               "types" : [ "locality", "political" ]
            },
            {
               "long_name" : "Barranquilla",
               "short_name" : "Barranquilla",
               "types" : [ "administrative_area_level_2", "political" ]
            },
            {
               "long_name" : "Atlantico",
               "short_name" : "Atlantico",
               "types" : [ "administrative_area_level_1", "political" ]
            },
            {
               "long_name" : "Colombia",
               "short_name" : "CO",
               "types" : [ "country", "political" ]
            }
         ],
         "formatted_address" : "Barranquilla, Atlantico, Colombia",
         "geometry" : {
            "bounds" : {
               "northeast" : {
                  "lat" : 11.0463319,
                  "lng" : -74.75853909999999
               },
               "southwest" : {
                  "lat" : 10.921292,
                  "lng" : -74.87749599999999
               }
            },
            "location" : {
               "lat" : 11.0041072,
               "lng" : -74.80698129999999
            },
            "location_type" : "APPROXIMATE",
            "viewport" : {
               "northeast" : {
                  "lat" : 11.0463319,
                  "lng" : -74.75853909999999
               },
               "southwest" : {
                  "lat" : 10.921292,
                  "lng" : -74.87749599999999
               }
            }
         },
         "place_id" : "ChIJBeYq0UQt9I4Rshe5gUWEMyY",
         "types" : [ "locality", "political" ]
      },
      {
         "address_components" : [
            {
               "long_name" : "080016",
               "short_name" : "080016",
               "types" : [ "postal_code" ]
            },
            {
               "long_name" : "Suroccidente",
               "short_name" : "Suroccidente",
               "types" : [ "political", "sublocality", "sublocality_level_1" ]
            },
            {
               "long_name" : "Barranquilla",
               "short_name" : "Barranquilla",
               "types" : [ "locality", "political" ]
            },
            {
               "long_name" : "Barranquilla",
               "short_name" : "Barranquilla",
               "types" : [ "administrative_area_level_2", "political" ]
            },
            {
               "long_name" : "Atlántico",
               "short_name" : "Atlántico",
               "types" : [ "administrative_area_level_1", "political" ]
            },
            {
               "long_name" : "Colombia",
               "short_name" : "CO",
               "types" : [ "country", "political" ]
            }
         ],
         "formatted_address" : "Barranquilla, Atlántico, Colombia",
         "geometry" : {
            "bounds" : {
               "northeast" : {
                  "lat" : 10.987307,
                  "lng" : -74.801968
               },
               "southwest" : {
                  "lat" : 10.96364,
                  "lng" : -74.82691899999999
               }
            },
            "location" : {
               "lat" : 10.9762091,
               "lng" : -74.8185446
            },
            "location_type" : "APPROXIMATE",
            "viewport" : {
               "northeast" : {
                  "lat" : 10.987307,
                  "lng" : -74.801968
               },
               "southwest" : {
                  "lat" : 10.96364,
                  "lng" : -74.82691899999999
               }
            }
         },
         "place_id" : "ChIJS6iL3Dwt9I4RRH6vLoOM_jg",
         "types" : [ "postal_code" ]
      },
      {
         "address_components" : [
            {
               "long_name" : "Barranquilla",
               "short_name" : "Barranquilla",
               "types" : [ "administrative_area_level_2", "political" ]
            },
            {
               "long_name" : "Atlantico",
               "short_name" : "Atlantico",
               "types" : [ "administrative_area_level_1", "political" ]
            },
            {
               "long_name" : "Colombia",
               "short_name" : "CO",
               "types" : [ "country", "political" ]
            }
         ],
         "formatted_address" : "Barranquilla, Atlantico, Colombia",
         "geometry" : {
            "bounds" : {
               "northeast" : {
                  "lat" : 11.109264,
                  "lng" : -74.75845079999999
               },
               "southwest" : {
                  "lat" : 10.876548,
                  "lng" : -74.9195819
               }
            },
            "location" : {
               "lat" : 10.983812,
               "lng" : -74.818017
            },
            "location_type" : "APPROXIMATE",
            "viewport" : {
               "northeast" : {
                  "lat" : 11.109264,
                  "lng" : -74.75845079999999
               },
               "southwest" : {
                  "lat" : 10.876548,
                  "lng" : -74.9195819
               }
            }
         },
         "place_id" : "ChIJORHUIlAs9I4R7Hv0XI18dwc",
         "types" : [ "administrative_area_level_2", "political" ]
      },
      {
         "address_components" : [
            {
               "long_name" : "Atlantico",
               "short_name" : "Atlantico",
               "types" : [ "administrative_area_level_1", "political" ]
            },
            {
               "long_name" : "Colombia",
               "short_name" : "CO",
               "types" : [ "country", "political" ]
            }
         ],
         "formatted_address" : "Atlantico, Colombia",
         "geometry" : {
            "bounds" : {
               "northeast" : {
                  "lat" : 11.109264,
                  "lng" : -74.71544999999999
               },
               "southwest" : {
                  "lat" : 10.2537891,
                  "lng" : -75.26694909999999
               }
            },
            "location" : {
               "lat" : 10.6966159,
               "lng" : -74.8741045
            },
            "location_type" : "APPROXIMATE",
            "viewport" : {
               "northeast" : {
                  "lat" : 11.109264,
                  "lng" : -74.71544999999999
               },
               "southwest" : {
                  "lat" : 10.2537891,
                  "lng" : -75.26694909999999
               }
            }
         },
         "place_id" : "ChIJ89ro1UIt9I4RfwE4srgW80c",
         "types" : [ "administrative_area_level_1", "political" ]
      },
      {
         "address_components" : [
            {
               "long_name" : "Colombia",
               "short_name" : "CO",
               "types" : [ "country", "political" ]
            }
         ],
         "formatted_address" : "Colombia",
         "geometry" : {
            "bounds" : {
               "northeast" : {
                  "lat" : 13.5177999,
                  "lng" : -66.8463122
               },
               "southwest" : {
                  "lat" : -4.227109899999999,
                  "lng" : -81.8317
               }
            },
            "location" : {
               "lat" : 4.570868,
               "lng" : -74.29733299999999
            },
            "location_type" : "APPROXIMATE",
            "viewport" : {
               "northeast" : {
                  "lat" : 13.5177999,
                  "lng" : -66.8463122
               },
               "southwest" : {
                  "lat" : -4.227109899999999,
                  "lng" : -81.8317
               }
            }
         },
         "place_id" : "ChIJo5QVrjqkFY4RQKPy7wSaDZo",
         "types" : [ "country", "political" ]
      }
   ],
   "status" : "OK"
}
