{
   "plus_code" : {
      "compound_code" : "P335+Q7 Sogamoso, Boyaca, Colombia",
      "global_code" : "67Q9P335+Q7"
   },
   "results" : [
      {
         "address_components" : [
            {
               "long_name" : "Sogamoso",
               "short_name" : "Sogamoso",
               "types" : [ "administrative_area_level_2", "political" ]
            },
            {
               "long_name" : "Boyacá",
               "short_name" : "Boyacá",
               "types" : [ "administrative_area_level_1", "political" ]
            },
            {
               "long_name" : "Colombia",
               "short_name" : "CO",
               "types" : [ "country", "political" ]
            }
         ],
         "formatted_address" : "Calle 4 A Sur No. 15-134,, Sogamoso, Boyacá, Colombia",
         "geometry" : {
            "location" : {
               "lat" : 5.704415500000001,
               "lng" : -72.94179430000001
            },
            "location_type" : "GEOMETRIC_CENTER",
            "viewport" : {
               "northeast" : {
                  "lat" : 5.705764480291503,
                  "lng" : -72.94044531970852
               },
               "southwest" : {
                  "lat" : 5.703066519708499,
                  "lng" : -72.94314328029152
               }
            }
         },
         "place_id" : "ChIJj0RyhMtFao4RdV0YAqB2t2M",
         "types" : [ "establishment", "point_of_interest", "university" ]
      },
      {
         "address_components" : [
            {
               "long_name" : "14177",
               "short_name" : "14177",
               "types" : [ "street_number" ]
            },
            {
               "long_name" : "Calle 3 Sur",
               "short_name" : "Calle 3 Sur",
               "types" : [ "route" ]
            },
            {
               "long_name" : "Sogamoso",
               "short_name" : "Sogamoso",
               "types" : [ "locality", "political" ]
            },
            {
               "long_name" : "Sogamoso",
               "short_name" : "Sogamoso",
               "types" : [ "administrative_area_level_2", "political" ]
            },
            {
               "long_name" : "Boyacá",
               "short_name" : "Boyacá",
               "types" : [ "administrative_area_level_1", "political" ]
            },
            {
               "long_name" : "Colombia",
               "short_name" : "CO",
               "types" : [ "country", "political" ]
            },
            {
               "long_name" : "152211",
               "short_name" : "152211",
               "types" : [ "postal_code" ]
            }
         ],
         "formatted_address" : "Calle 3 Sur #14-177, Sogamoso, Boyacá, Colombia",
         "geometry" : {
            "location" : {
               "lat" : 5.703927999999999,
               "lng" : -72.9420056
            },
            "location_type" : "RANGE_INTERPOLATED",
            "viewport" : {
               "northeast" : {
                  "lat" : 5.705276980291502,
                  "lng" : -72.94065661970851
               },
               "southwest" : {
                  "lat" : 5.702579019708497,
                  "lng" : -72.94335458029151
               }
            }
         },
         "place_id" : "EjBDYWxsZSAzIFN1ciAjMTQtMTc3LCBTb2dhbW9zbywgQm95YWPDoSwgQ29sb21iaWEiGxIZChQKEgl9FRRNykVqjhFCvLNvW6mrFhCxAQ",
         "types" : [ "street_address" ]
      },
      {
         "address_components" : [
            {
               "long_name" : "152211",
               "short_name" : "152211",
               "types" : [ "postal_code" ]
            },
            {
               "long_name" : "Sogamoso",
               "short_name" : "Sogamoso",
               "types" : [ "locality", "political" ]
            },
            {
               "long_name" : "Sogamoso",
               "short_name" : "Sogamoso",
               "types" : [ "administrative_area_level_2", "political" ]
            },
            {
               "long_name" : "Boyaca",
               "short_name" : "Boyaca",
               "types" : [ "administrative_area_level_1", "political" ]
            },
            {
               "long_name" : "Colombia",
               "short_name" : "CO",
               "types" : [ "country", "political" ]
            }
         ],
         "formatted_address" : "Sogamoso, Boyaca, Colombia",
         "geometry" : {
            "bounds" : {
               "northeast" : {
                  "lat" : 5.741505099999999,
                  "lng" : -72.925996
               },
               "southwest" : {
                  "lat" : 5.68465,
                  "lng" : -72.95286279999999
               }
            },
            "location" : {
               "lat" : 5.7142746,
               "lng" : -72.9431038
            },
            "location_type" : "APPROXIMATE",
            "viewport" : {
               "northeast" : {
                  "lat" : 5.741505099999999,
                  "lng" : -72.925996
               },
               "southwest" : {
                  "lat" : 5.68465,
                  "lng" : -72.95286279999999
               }
            }
         },
         "place_id" : "ChIJmcmGjdFFao4ReyylTTnoflo",
         "types" : [ "postal_code" ]
      },
      {
         "address_components" : [
            {
               "long_name" : "Sogamoso",
               "short_name" : "Sogamoso",
               "types" : [ "locality", "political" ]
            },
            {
               "long_name" : "Sogamoso",
               "short_name" : "Sogamoso",
               "types" : [ "administrative_area_level_2", "political" ]
            },
            {
               "long_name" : "Boyaca",
               "short_name" : "Boyaca",
               "types" : [ "administrative_area_level_1", "political" ]
            },
            {
               "long_name" : "Colombia",
               "short_name" : "CO",
               "types" : [ "country", "political" ]
            }
         ],
         "formatted_address" : "Sogamoso, Boyaca, Colombia",
         "geometry" : {
            "bounds" : {
               "northeast" : {
                  "lat" : 5.7629278,
                  "lng" : -72.886214
               },
               "southwest" : {
                  "lat" : 5.684648,
                  "lng" : -72.95294699999999
               }
            },
            "location" : {
               "lat" : 5.7160848,
               "lng" : -72.93112889999999
            },
            "location_type" : "APPROXIMATE",
            "viewport" : {
               "northeast" : {
                  "lat" : 5.7629278,
                  "lng" : -72.886214
               },
               "southwest" : {
                  "lat" : 5.684648,
                  "lng" : -72.95294699999999
               }
            }
         },
         "place_id" : "ChIJ69O1p9hFao4RPj-sIrwjges",
         "types" : [ "locality", "political" ]
      },
      {
         "address_components" : [
            {
               "long_name" : "Sogamoso",
               "short_name" : "Sogamoso",
               "types" : [ "administrative_area_level_2", "political" ]
            },
            {
               "long_name" : "Boyaca",
               "short_name" : "Boyaca",
               "types" : [ "administrative_area_level_1", "political" ]
            },
            {
               "long_name" : "Colombia",
               "short_name" : "CO",
               "types" : [ "country", "political" ]
            }
         ],
         "formatted_address" : "Sogamoso, Boyaca, Colombia",
         "geometry" : {
            "bounds" : {
               "northeast" : {
                  "lat" : 5.76954,
                  "lng" : -72.7701321
               },
               "southwest" : {
                  "lat" : 5.583595000000001,
                  "lng" : -72.9695231
               }
            },
            "location" : {
               "lat" : 5.714881999999999,
               "lng" : -72.927801
            },
            "location_type" : "APPROXIMATE",
            "viewport" : {
               "northeast" : {
                  "lat" : 5.76954,
                  "lng" : -72.7701321
               },
               "southwest" : {
                  "lat" : 5.583595000000001,
                  "lng" : -72.9695231
               }
            }
         },
         "place_id" : "ChIJ_zIxAdhFao4Rn1Zq8xIH2Ac",
         "types" : [ "administrative_area_level_2", "political" ]
      },
      {
         "address_components" : [
            {
               "long_name" : "Boyaca",
               "short_name" : "Boyaca",
               "types" : [ "administrative_area_level_1", "political" ]
            },
            {
               "long_name" : "Colombia",
               "short_name" : "CO",
               "types" : [ "country", "political" ]
            }
         ],
         "formatted_address" : "Boyaca, Colombia",
         "geometry" : {
            "bounds" : {
               "northeast" : {
                  "lat" : 7.055604,
                  "lng" : -71.948539
               },
               "southwest" : {
                  "lat" : 4.655213,
                  "lng" : -74.664039
               }
            },
            "location" : {
               "lat" : 5.454511,
               "lng" : -73.362003
            },
            "location_type" : "APPROXIMATE",
            "viewport" : {
               "northeast" : {
                  "lat" : 7.055604,
                  "lng" : -71.948539
               },
               "southwest" : {
                  "lat" : 4.655213,
                  "lng" : -74.664039
               }
            }
         },
         "place_id" : "ChIJg6KQ-HWkaY4R95-8ZFsl4f8",
         "types" : [ "administrative_area_level_1", "political" ]
      },
      {
         "address_components" : [
            {
               "long_name" : "Colombia",
               "short_name" : "CO",
               "types" : [ "country", "political" ]
            }
         ],
         "formatted_address" : "Colombia",
         "geometry" : {
            "bounds" : {
               "northeast" : {
                  "lat" : 13.5177999,
                  "lng" : -66.8463122
               },
               "southwest" : {
                  "lat" : -4.227109899999999,
                  "lng" : -81.8317
               }
            },
            "location" : {
               "lat" : 4.570868,
               "lng" : -74.29733299999999
            },
            "location_type" : "APPROXIMATE",
            "viewport" : {
               "northeast" : {
                  "lat" : 13.5177999,
                  "lng" : -66.8463122
               },
               "southwest" : {
                  "lat" : -4.227109899999999,
                  "lng" : -81.8317
               }
            }
         },
         "place_id" : "ChIJo5QVrjqkFY4RQKPy7wSaDZo",
         "types" : [ "country", "political" ]
      }
   ],
   "status" : "OK"
}
