{
   "plus_code" : {
      "compound_code" : "79J5+99 Piracicaba, State of São Paulo, Brazil",
      "global_code" : "589J79J5+99"
   },
   "results" : [
      {
         "address_components" : [
            {
               "long_name" : "1152",
               "short_name" : "1152",
               "types" : [ "street_number" ]
            },
            {
               "long_name" : "Rua Campos Salles",
               "short_name" : "R. Campos Salles",
               "types" : [ "route" ]
            },
            {
               "long_name" : "Cidade Jardim",
               "short_name" : "Cidade Jardim",
               "types" : [ "political", "sublocality", "sublocality_level_1" ]
            },
            {
               "long_name" : "Piracicaba",
               "short_name" : "Piracicaba",
               "types" : [ "administrative_area_level_2", "political" ]
            },
            {
               "long_name" : "São Paulo",
               "short_name" : "SP",
               "types" : [ "administrative_area_level_1", "political" ]
            },
            {
               "long_name" : "Brazil",
               "short_name" : "BR",
               "types" : [ "country", "political" ]
            },
            {
               "long_name" : "13416-310",
               "short_name" : "13416-310",
               "types" : [ "postal_code" ]
            }
         ],
         "formatted_address" : "R. Campos Salles, 1152 - Cidade Jardim, Piracicaba - SP, 13416-310, Brazil",
         "geometry" : {
            "location" : {
               "lat" : -22.719075,
               "lng" : -47.641587
            },
            "location_type" : "ROOFTOP",
            "viewport" : {
               "northeast" : {
                  "lat" : -22.7177260197085,
                  "lng" : -47.64023801970851
               },
               "southwest" : {
                  "lat" : -22.7204239802915,
                  "lng" : -47.6429359802915
               }
            }
         },
         "place_id" : "ChIJfTVWhaUxxpQR4sgMuBNFlc8",
         "plus_code" : {
            "compound_code" : "79J5+99 Piracicaba, State of São Paulo, Brazil",
            "global_code" : "589J79J5+99"
         },
         "types" : [ "establishment", "point_of_interest" ]
      },
      {
         "address_components" : [
            {
               "long_name" : "1151",
               "short_name" : "1151",
               "types" : [ "street_number" ]
            },
            {
               "long_name" : "Rua Campos Salles",
               "short_name" : "R. Campos Salles",
               "types" : [ "route" ]
            },
            {
               "long_name" : "Vila Boyes",
               "short_name" : "Vila Boyes",
               "types" : [ "political", "sublocality", "sublocality_level_1" ]
            },
            {
               "long_name" : "Piracicaba",
               "short_name" : "Piracicaba",
               "types" : [ "administrative_area_level_2", "political" ]
            },
            {
               "long_name" : "São Paulo",
               "short_name" : "SP",
               "types" : [ "administrative_area_level_1", "political" ]
            },
            {
               "long_name" : "Brazil",
               "short_name" : "BR",
               "types" : [ "country", "political" ]
            },
            {
               "long_name" : "13416-310",
               "short_name" : "13416-310",
               "types" : [ "postal_code" ]
            }
         ],
         "formatted_address" : "R. Campos Salles, 1151 - Vila Boyes, Piracicaba - SP, 13416-310, Brazil",
         "geometry" : {
            "location" : {
               "lat" : -22.7190907,
               "lng" : -47.6414616
            },
            "location_type" : "ROOFTOP",
            "viewport" : {
               "northeast" : {
                  "lat" : -22.7177417197085,
                  "lng" : -47.6401126197085
               },
               "southwest" : {
                  "lat" : -22.7204396802915,
                  "lng" : -47.6428105802915
               }
            }
         },
         "place_id" : "ChIJVV7pnaExxpQR2Dn3VXn1fpw",
         "plus_code" : {
            "compound_code" : "79J5+9C Piracicaba, State of São Paulo, Brazil",
            "global_code" : "589J79J5+9C"
         },
         "types" : [ "street_address" ]
      },
      {
         "address_components" : [
            {
               "long_name" : "1141",
               "short_name" : "1141",
               "types" : [ "street_number" ]
            },
            {
               "long_name" : "Rua Campos Salles",
               "short_name" : "R. Campos Salles",
               "types" : [ "route" ]
            },
            {
               "long_name" : "Vila Boyes",
               "short_name" : "Vila Boyes",
               "types" : [ "political", "sublocality", "sublocality_level_1" ]
            },
            {
               "long_name" : "Piracicaba",
               "short_name" : "Piracicaba",
               "types" : [ "administrative_area_level_2", "political" ]
            },
            {
               "long_name" : "São Paulo",
               "short_name" : "SP",
               "types" : [ "administrative_area_level_1", "political" ]
            },
            {
               "long_name" : "Brazil",
               "short_name" : "BR",
               "types" : [ "country", "political" ]
            },
            {
               "long_name" : "13416-310",
               "short_name" : "13416-310",
               "types" : [ "postal_code" ]
            }
         ],
         "formatted_address" : "R. Campos Salles, 1141 - Vila Boyes, Piracicaba - SP, 13416-310, Brazil",
         "geometry" : {
            "location" : {
               "lat" : -22.7191076,
               "lng" : -47.6416055
            },
            "location_type" : "RANGE_INTERPOLATED",
            "viewport" : {
               "northeast" : {
                  "lat" : -22.7177586197085,
                  "lng" : -47.64025651970851
               },
               "southwest" : {
                  "lat" : -22.7204565802915,
                  "lng" : -47.64295448029151
               }
            }
         },
         "place_id" : "EkdSLiBDYW1wb3MgU2FsbGVzLCAxMTQxIC0gVmlsYSBCb3llcywgUGlyYWNpY2FiYSAtIFNQLCAxMzQxNi0zMTAsIEJyYXNpbCIbEhkKFAoSCWn0UZ6hMcaUERkvKmGzDt1nEPUI",
         "types" : [ "street_address" ]
      },
      {
         "address_components" : [
            {
               "long_name" : "13416-403",
               "short_name" : "13416-403",
               "types" : [ "postal_code" ]
            },
            {
               "long_name" : "São Dimas",
               "short_name" : "São Dimas",
               "types" : [ "political", "sublocality", "sublocality_level_1" ]
            },
            {
               "long_name" : "Piracicaba",
               "short_name" : "Piracicaba",
               "types" : [ "administrative_area_level_2", "political" ]
            },
            {
               "long_name" : "São Paulo",
               "short_name" : "SP",
               "types" : [ "administrative_area_level_1", "political" ]
            },
            {
               "long_name" : "Brazil",
               "short_name" : "BR",
               "types" : [ "country", "political" ]
            }
         ],
         "formatted_address" : "São Dimas, Piracicaba - SP, 13416-403, Brazil",
         "geometry" : {
            "bounds" : {
               "northeast" : {
                  "lat" : -22.7144584,
                  "lng" : -47.6381358
               },
               "southwest" : {
                  "lat" : -22.7192697,
                  "lng" : -47.6418262
               }
            },
            "location" : {
               "lat" : -22.7173995,
               "lng" : -47.6402989
            },
            "location_type" : "APPROXIMATE",
            "viewport" : {
               "northeast" : {
                  "lat" : -22.7144584,
                  "lng" : -47.6381358
               },
               "southwest" : {
                  "lat" : -22.7192697,
                  "lng" : -47.6418262
               }
            }
         },
         "place_id" : "ChIJZQETGaIxxpQRjpEVgCVxl94",
         "types" : [ "postal_code" ]
      },
      {
         "address_components" : [
            {
               "long_name" : "Jardim Europa",
               "short_name" : "Jardim Europa",
               "types" : [ "political", "sublocality", "sublocality_level_1" ]
            },
            {
               "long_name" : "Piracicaba",
               "short_name" : "Piracicaba",
               "types" : [ "administrative_area_level_2", "political" ]
            },
            {
               "long_name" : "São Paulo",
               "short_name" : "SP",
               "types" : [ "administrative_area_level_1", "political" ]
            },
            {
               "long_name" : "Brazil",
               "short_name" : "BR",
               "types" : [ "country", "political" ]
            }
         ],
         "formatted_address" : "Jardim Europa, Piracicaba - SP, Brazil",
         "geometry" : {
            "bounds" : {
               "northeast" : {
                  "lat" : -22.7169797,
                  "lng" : -47.6398153
               },
               "southwest" : {
                  "lat" : -22.7229762,
                  "lng" : -47.6462788
               }
            },
            "location" : {
               "lat" : -22.719267,
               "lng" : -47.6436715
            },
            "location_type" : "APPROXIMATE",
            "viewport" : {
               "northeast" : {
                  "lat" : -22.7169797,
                  "lng" : -47.6398153
               },
               "southwest" : {
                  "lat" : -22.7229762,
                  "lng" : -47.6462788
               }
            }
         },
         "place_id" : "ChIJ3_0AAqExxpQR0TCFMiRdivI",
         "types" : [ "political", "sublocality", "sublocality_level_1" ]
      },
      {
         "address_components" : [
            {
               "long_name" : "13416",
               "short_name" : "13416",
               "types" : [ "postal_code", "postal_code_prefix" ]
            },
            {
               "long_name" : "Piracicaba",
               "short_name" : "Piracicaba",
               "types" : [ "administrative_area_level_2", "political" ]
            },
            {
               "long_name" : "State of São Paulo",
               "short_name" : "SP",
               "types" : [ "administrative_area_level_1", "political" ]
            },
            {
               "long_name" : "Brazil",
               "short_name" : "BR",
               "types" : [ "country", "political" ]
            }
         ],
         "formatted_address" : "Piracicaba - State of São Paulo, Brazil",
         "geometry" : {
            "bounds" : {
               "northeast" : {
                  "lat" : -22.7020392,
                  "lng" : -47.6147277
               },
               "southwest" : {
                  "lat" : -22.726826,
                  "lng" : -47.64746359999999
               }
            },
            "location" : {
               "lat" : -22.711656,
               "lng" : -47.6332155
            },
            "location_type" : "APPROXIMATE",
            "viewport" : {
               "northeast" : {
                  "lat" : -22.7020392,
                  "lng" : -47.6147277
               },
               "southwest" : {
                  "lat" : -22.726826,
                  "lng" : -47.64746359999999
               }
            }
         },
         "place_id" : "ChIJGTwo570xxpQROZm9X_A-eO4",
         "types" : [ "postal_code", "postal_code_prefix" ]
      },
      {
         "address_components" : [
            {
               "long_name" : "Piracicaba",
               "short_name" : "Piracicaba",
               "types" : [ "locality", "political" ]
            },
            {
               "long_name" : "Piracicaba",
               "short_name" : "Piracicaba",
               "types" : [ "administrative_area_level_2", "political" ]
            },
            {
               "long_name" : "State of São Paulo",
               "short_name" : "SP",
               "types" : [ "administrative_area_level_1", "political" ]
            },
            {
               "long_name" : "Brazil",
               "short_name" : "BR",
               "types" : [ "country", "political" ]
            }
         ],
         "formatted_address" : "Piracicaba, State of São Paulo, Brazil",
         "geometry" : {
            "bounds" : {
               "northeast" : {
                  "lat" : -22.6432728,
                  "lng" : -47.5046825
               },
               "southwest" : {
                  "lat" : -22.7859985,
                  "lng" : -47.7389819
               }
            },
            "location" : {
               "lat" : -22.7342864,
               "lng" : -47.6480644
            },
            "location_type" : "APPROXIMATE",
            "viewport" : {
               "northeast" : {
                  "lat" : -22.6432728,
                  "lng" : -47.5046825
               },
               "southwest" : {
                  "lat" : -22.7859985,
                  "lng" : -47.7389819
               }
            }
         },
         "place_id" : "ChIJO51MT8ExxpQRHDTcEwDDDic",
         "types" : [ "locality", "political" ]
      },
      {
         "address_components" : [
            {
               "long_name" : "Piracicaba",
               "short_name" : "Piracicaba",
               "types" : [ "administrative_area_level_2", "political" ]
            },
            {
               "long_name" : "State of São Paulo",
               "short_name" : "SP",
               "types" : [ "administrative_area_level_1", "political" ]
            },
            {
               "long_name" : "Brazil",
               "short_name" : "BR",
               "types" : [ "country", "political" ]
            }
         ],
         "formatted_address" : "Piracicaba - State of São Paulo, Brazil",
         "geometry" : {
            "bounds" : {
               "northeast" : {
                  "lat" : -22.5205468,
                  "lng" : -47.4904598
               },
               "southwest" : {
                  "lat" : -22.901498,
                  "lng" : -48.0986639
               }
            },
            "location" : {
               "lat" : -22.7626467,
               "lng" : -47.8427298
            },
            "location_type" : "APPROXIMATE",
            "viewport" : {
               "northeast" : {
                  "lat" : -22.5205468,
                  "lng" : -47.4904598
               },
               "southwest" : {
                  "lat" : -22.901498,
                  "lng" : -48.0986639
               }
            }
         },
         "place_id" : "ChIJzUuGr6UxxpQRLLFOdG64dBs",
         "types" : [ "administrative_area_level_2", "political" ]
      },
      {
         "address_components" : [
            {
               "long_name" : "State of São Paulo",
               "short_name" : "State of São Paulo",
               "types" : [ "administrative_area_level_1", "political" ]
            },
            {
               "long_name" : "Brazil",
               "short_name" : "BR",
               "types" : [ "country", "political" ]
            }
         ],
         "formatted_address" : "State of São Paulo, Brazil",
         "geometry" : {
            "bounds" : {
               "northeast" : {
                  "lat" : -19.7796583,
                  "lng" : -44.1613651
               },
               "southwest" : {
                  "lat" : -25.3126231,
                  "lng" : -53.1101046
               }
            },
            "location" : {
               "lat" : -23.5431786,
               "lng" : -46.6291845
            },
            "location_type" : "APPROXIMATE",
            "viewport" : {
               "northeast" : {
                  "lat" : -19.7796583,
                  "lng" : -44.1613651
               },
               "southwest" : {
                  "lat" : -25.3126231,
                  "lng" : -53.1101046
               }
            }
         },
         "place_id" : "ChIJrVgvRn1ZzpQRF3x74eJBUh4",
         "types" : [ "administrative_area_level_1", "political" ]
      },
      {
         "address_components" : [
            {
               "long_name" : "Brazil",
               "short_name" : "BR",
               "types" : [ "country", "political" ]
            }
         ],
         "formatted_address" : "Brazil",
         "geometry" : {
            "bounds" : {
               "northeast" : {
                  "lat" : 5.2717863,
                  "lng" : -28.650543
               },
               "southwest" : {
                  "lat" : -34.0891,
                  "lng" : -73.9828169
               }
            },
            "location" : {
               "lat" : -14.235004,
               "lng" : -51.92528
            },
            "location_type" : "APPROXIMATE",
            "viewport" : {
               "northeast" : {
                  "lat" : 5.2717863,
                  "lng" : -28.650543
               },
               "southwest" : {
                  "lat" : -34.0891,
                  "lng" : -73.9828169
               }
            }
         },
         "place_id" : "ChIJzyjM68dZnAARYz4p8gYVWik",
         "types" : [ "country", "political" ]
      }
   ],
   "status" : "OK"
}
