{
   "results" : [
      {
         "address_components" : [
            {
               "long_name" : "Block B",
               "short_name" : "Block B",
               "types" : [ "premise" ]
            },
            {
               "long_name" : "Suba",
               "short_name" : "Suba",
               "types" : [ "political", "sublocality", "sublocality_level_1" ]
            },
            {
               "long_name" : "Bogotá",
               "short_name" : "Bogotá",
               "types" : [ "locality", "political" ]
            },
            {
               "long_name" : "Bogotá",
               "short_name" : "Bogotá",
               "types" : [ "administrative_area_level_1", "political" ]
            },
            {
               "long_name" : "Colombia",
               "short_name" : "CO",
               "types" : [ "country", "political" ]
            },
            {
               "long_name" : "111166",
               "short_name" : "111166",
               "types" : [ "postal_code" ]
            }
         ],
         "formatted_address" : "Block B, Bogotá, Colombia",
         "geometry" : {
            "bounds" : {
               "northeast" : {
                  "lat" : 4.7831202,
                  "lng" : -74.04232279999999
               },
               "southwest" : {
                  "lat" : 4.782604699999999,
                  "lng" : -74.0431129
               }
            },
            "location" : {
               "lat" : 4.7828209,
               "lng" : -74.0427543
            },
            "location_type" : "ROOFTOP",
            "viewport" : {
               "northeast" : {
                  "lat" : 4.784211430291502,
                  "lng" : -74.04136886970848
               },
               "southwest" : {
                  "lat" : 4.781513469708497,
                  "lng" : -74.0440668302915
               }
            }
         },
         "place_id" : "ChIJFZ5QJOOFP44R8IhbnIcKdIs",
         "types" : [ "premise" ]
      },
      {
         "address_components" : [
            {
               "long_name" : "205",
               "short_name" : "205",
               "types" : [ "street_number" ]
            },
            {
               "long_name" : "Autopista Norte",
               "short_name" : "Autopista Nte.",
               "types" : [ "route" ]
            },
            {
               "long_name" : "Suba",
               "short_name" : "Suba",
               "types" : [ "political", "sublocality", "sublocality_level_1" ]
            },
            {
               "long_name" : "Bogotá",
               "short_name" : "Bogotá",
               "types" : [ "locality", "political" ]
            },
            {
               "long_name" : "Bogotá",
               "short_name" : "Bogotá",
               "types" : [ "administrative_area_level_1", "political" ]
            },
            {
               "long_name" : "Colombia",
               "short_name" : "CO",
               "types" : [ "country", "political" ]
            },
            {
               "long_name" : "111176",
               "short_name" : "111176",
               "types" : [ "postal_code" ]
            }
         ],
         "formatted_address" : "Autopista Nte. #205, Bogotá, Colombia",
         "geometry" : {
            "location" : {
               "lat" : 4.783029,
               "lng" : -74.0426662
            },
            "location_type" : "ROOFTOP",
            "viewport" : {
               "northeast" : {
                  "lat" : 4.784377980291502,
                  "lng" : -74.0413172197085
               },
               "southwest" : {
                  "lat" : 4.781680019708499,
                  "lng" : -74.04401518029151
               }
            }
         },
         "place_id" : "ChIJ5zCURCuGP44RZvuWySGlPM0",
         "types" : [ "street_address" ]
      },
      {
         "address_components" : [
            {
               "long_name" : "Suba",
               "short_name" : "Suba",
               "types" : [ "political", "sublocality", "sublocality_level_1" ]
            },
            {
               "long_name" : "Bogotá",
               "short_name" : "Bogotá",
               "types" : [ "locality", "political" ]
            },
            {
               "long_name" : "Bogota",
               "short_name" : "Bogota",
               "types" : [ "administrative_area_level_1", "political" ]
            },
            {
               "long_name" : "Colombia",
               "short_name" : "CO",
               "types" : [ "country", "political" ]
            }
         ],
         "formatted_address" : "Suba, Bogotá, Bogota, Colombia",
         "geometry" : {
            "bounds" : {
               "northeast" : {
                  "lat" : 4.8371311,
                  "lng" : -74.034426
               },
               "southwest" : {
                  "lat" : 4.6857419,
                  "lng" : -74.131559
               }
            },
            "location" : {
               "lat" : 4.740881,
               "lng" : -74.08381
            },
            "location_type" : "APPROXIMATE",
            "viewport" : {
               "northeast" : {
                  "lat" : 4.8371311,
                  "lng" : -74.034426
               },
               "southwest" : {
                  "lat" : 4.6857419,
                  "lng" : -74.131559
               }
            }
         },
         "place_id" : "ChIJFwRwnVCEP44RFE_5QOlpzcc",
         "types" : [ "political", "sublocality", "sublocality_level_1" ]
      },
      {
         "address_components" : [
            {
               "long_name" : "Bogotá",
               "short_name" : "Bogotá",
               "types" : [ "locality", "political" ]
            },
            {
               "long_name" : "Bogota",
               "short_name" : "Bogota",
               "types" : [ "administrative_area_level_1", "political" ]
            },
            {
               "long_name" : "Colombia",
               "short_name" : "CO",
               "types" : [ "country", "political" ]
            }
         ],
         "formatted_address" : "Bogotá, Bogota, Colombia",
         "geometry" : {
            "bounds" : {
               "northeast" : {
                  "lat" : 4.8371311,
                  "lng" : -73.99197699999999
               },
               "southwest" : {
                  "lat" : 4.459464,
                  "lng" : -74.223637
               }
            },
            "location" : {
               "lat" : 4.710988599999999,
               "lng" : -74.072092
            },
            "location_type" : "APPROXIMATE",
            "viewport" : {
               "northeast" : {
                  "lat" : 4.8371311,
                  "lng" : -73.99197699999999
               },
               "southwest" : {
                  "lat" : 4.459464,
                  "lng" : -74.223637
               }
            }
         },
         "place_id" : "ChIJKcumLf2bP44RFDmjIFVjnSM",
         "types" : [ "locality", "political" ]
      },
      {
         "address_components" : [
            {
               "long_name" : "111166",
               "short_name" : "111166",
               "types" : [ "postal_code" ]
            },
            {
               "long_name" : "Suba",
               "short_name" : "Suba",
               "types" : [ "political", "sublocality", "sublocality_level_1" ]
            },
            {
               "long_name" : "Bogotá",
               "short_name" : "Bogotá",
               "types" : [ "locality", "political" ]
            },
            {
               "long_name" : "Bogota",
               "short_name" : "Bogota",
               "types" : [ "administrative_area_level_1", "political" ]
            },
            {
               "long_name" : "Colombia",
               "short_name" : "CO",
               "types" : [ "country", "political" ]
            }
         ],
         "formatted_address" : "Bogotá, Bogota, Colombia",
         "geometry" : {
            "bounds" : {
               "northeast" : {
                  "lat" : 4.8130689,
                  "lng" : -74.036852
               },
               "southwest" : {
                  "lat" : 4.7516481,
                  "lng" : -74.072249
               }
            },
            "location" : {
               "lat" : 4.790913600000001,
               "lng" : -74.04763779999999
            },
            "location_type" : "APPROXIMATE",
            "viewport" : {
               "northeast" : {
                  "lat" : 4.8130689,
                  "lng" : -74.036852
               },
               "southwest" : {
                  "lat" : 4.7516481,
                  "lng" : -74.072249
               }
            }
         },
         "place_id" : "ChIJMZ_xPd6FP44RFHTqKH5FvhY",
         "types" : [ "postal_code" ]
      },
      {
         "address_components" : [
            {
               "long_name" : "Bogota",
               "short_name" : "Bogota",
               "types" : [ "administrative_area_level_1", "political" ]
            },
            {
               "long_name" : "Colombia",
               "short_name" : "CO",
               "types" : [ "country", "political" ]
            }
         ],
         "formatted_address" : "Bogota, Colombia",
         "geometry" : {
            "bounds" : {
               "northeast" : {
                  "lat" : 4.8372401,
                  "lng" : -73.991733
               },
               "southwest" : {
                  "lat" : 3.726945,
                  "lng" : -74.45332089999999
               }
            },
            "location" : {
               "lat" : 4.648594,
               "lng" : -74.104466
            },
            "location_type" : "APPROXIMATE",
            "viewport" : {
               "northeast" : {
                  "lat" : 4.8372401,
                  "lng" : -73.991733
               },
               "southwest" : {
                  "lat" : 3.726945,
                  "lng" : -74.45332089999999
               }
            }
         },
         "place_id" : "ChIJZ0-SYJsAP44RBHEcWTjKX1U",
         "types" : [ "administrative_area_level_1", "political" ]
      },
      {
         "address_components" : [
            {
               "long_name" : "Bogota Metropolitan Area",
               "short_name" : "Bogota Metropolitan Area",
               "types" : [ "political" ]
            },
            {
               "long_name" : "Colombia",
               "short_name" : "CO",
               "types" : [ "country", "political" ]
            }
         ],
         "formatted_address" : "Bogota Metropolitan Area, Colombia",
         "geometry" : {
            "bounds" : {
               "northeast" : {
                  "lat" : 5.15845,
                  "lng" : -73.791026
               },
               "southwest" : {
                  "lat" : 3.726945,
                  "lng" : -74.45332089999999
               }
            },
            "location" : {
               "lat" : 4.6279127,
               "lng" : -74.12399599999999
            },
            "location_type" : "APPROXIMATE",
            "viewport" : {
               "northeast" : {
                  "lat" : 5.15845,
                  "lng" : -73.791026
               },
               "southwest" : {
                  "lat" : 3.726945,
                  "lng" : -74.45332089999999
               }
            }
         },
         "place_id" : "ChIJi7h3Jfp4P44RcrwqNBE3Psg",
         "types" : [ "political" ]
      },
      {
         "address_components" : [
            {
               "long_name" : "Colombia",
               "short_name" : "CO",
               "types" : [ "country", "political" ]
            }
         ],
         "formatted_address" : "Colombia",
         "geometry" : {
            "bounds" : {
               "northeast" : {
                  "lat" : 13.5177999,
                  "lng" : -66.8463122
               },
               "southwest" : {
                  "lat" : -4.227109899999999,
                  "lng" : -81.8317
               }
            },
            "location" : {
               "lat" : 4.570868,
               "lng" : -74.29733299999999
            },
            "location_type" : "APPROXIMATE",
            "viewport" : {
               "northeast" : {
                  "lat" : 13.5177999,
                  "lng" : -66.8463122
               },
               "southwest" : {
                  "lat" : -4.227109899999999,
                  "lng" : -81.8317
               }
            }
         },
         "place_id" : "ChIJo5QVrjqkFY4RQKPy7wSaDZo",
         "types" : [ "country", "political" ]
      }
   ],
   "status" : "OK"
}
