{
   "plus_code" : {
      "compound_code" : "PXJR+9G New York, NY, USA",
      "global_code" : "87G7PXJR+9G"
   },
   "results" : [
      {
         "address_components" : [
            {
               "long_name" : "96",
               "short_name" : "96",
               "types" : [ "street_number" ]
            },
            {
               "long_name" : "Morton Street",
               "short_name" : "Morton St",
               "types" : [ "route" ]
            },
            {
               "long_name" : "Manhattan",
               "short_name" : "Manhattan",
               "types" : [ "political", "sublocality", "sublocality_level_1" ]
            },
            {
               "long_name" : "New York",
               "short_name" : "New York",
               "types" : [ "locality", "political" ]
            },
            {
               "long_name" : "New York County",
               "short_name" : "New York County",
               "types" : [ "administrative_area_level_2", "political" ]
            },
            {
               "long_name" : "New York",
               "short_name" : "NY",
               "types" : [ "administrative_area_level_1", "political" ]
            },
            {
               "long_name" : "United States",
               "short_name" : "US",
               "types" : [ "country", "political" ]
            },
            {
               "long_name" : "10014",
               "short_name" : "10014",
               "types" : [ "postal_code" ]
            }
         ],
         "formatted_address" : "96 Morton St, New York, NY 10014, USA",
         "geometry" : {
            "location" : {
               "lat" : 40.7309965,
               "lng" : -74.00865449999999
            },
            "location_type" : "ROOFTOP",
            "viewport" : {
               "northeast" : {
                  "lat" : 40.73234548029149,
                  "lng" : -74.00730551970848
               },
               "southwest" : {
                  "lat" : 40.72964751970849,
                  "lng" : -74.01000348029149
               }
            }
         },
         "place_id" : "ChIJAc27Gu1ZwokRCwiIZMmySCQ",
         "plus_code" : {
            "compound_code" : "PXJR+9G New York, United States",
            "global_code" : "87G7PXJR+9G"
         },
         "types" : [ "establishment", "point_of_interest" ]
      },
      {
         "address_components" : [
            {
               "long_name" : "96",
               "short_name" : "96",
               "types" : [ "street_number" ]
            },
            {
               "long_name" : "Morton Street",
               "short_name" : "Morton St",
               "types" : [ "route" ]
            },
            {
               "long_name" : "Manhattan",
               "short_name" : "Manhattan",
               "types" : [ "political", "sublocality", "sublocality_level_1" ]
            },
            {
               "long_name" : "New York",
               "short_name" : "New York",
               "types" : [ "locality", "political" ]
            },
            {
               "long_name" : "New York County",
               "short_name" : "New York County",
               "types" : [ "administrative_area_level_2", "political" ]
            },
            {
               "long_name" : "New York",
               "short_name" : "NY",
               "types" : [ "administrative_area_level_1", "political" ]
            },
            {
               "long_name" : "United States",
               "short_name" : "US",
               "types" : [ "country", "political" ]
            },
            {
               "long_name" : "10014",
               "short_name" : "10014",
               "types" : [ "postal_code" ]
            }
         ],
         "formatted_address" : "96 Morton St, New York, NY 10014, USA",
         "geometry" : {
            "location" : {
               "lat" : 40.7309965,
               "lng" : -74.00865449999999
            },
            "location_type" : "ROOFTOP",
            "viewport" : {
               "northeast" : {
                  "lat" : 40.73234548029149,
                  "lng" : -74.00730551970848
               },
               "southwest" : {
                  "lat" : 40.72964751970849,
                  "lng" : -74.01000348029149
               }
            }
         },
         "place_id" : "ChIJv9J5Ge1ZwokRW-7IkddRobM",
         "plus_code" : {
            "compound_code" : "PXJR+9G New York, United States",
            "global_code" : "87G7PXJR+9G"
         },
         "types" : [ "street_address" ]
      },
      {
         "address_components" : [
            {
               "long_name" : "96",
               "short_name" : "96",
               "types" : [ "street_number" ]
            },
            {
               "long_name" : "Morton Street",
               "short_name" : "Morton St",
               "types" : [ "route" ]
            },
            {
               "long_name" : "Manhattan",
               "short_name" : "Manhattan",
               "types" : [ "political", "sublocality", "sublocality_level_1" ]
            },
            {
               "long_name" : "New York",
               "short_name" : "New York",
               "types" : [ "locality", "political" ]
            },
            {
               "long_name" : "New York County",
               "short_name" : "New York County",
               "types" : [ "administrative_area_level_2", "political" ]
            },
            {
               "long_name" : "New York",
               "short_name" : "NY",
               "types" : [ "administrative_area_level_1", "political" ]
            },
            {
               "long_name" : "United States",
               "short_name" : "US",
               "types" : [ "country", "political" ]
            },
            {
               "long_name" : "10014",
               "short_name" : "10014",
               "types" : [ "postal_code" ]
            }
         ],
         "formatted_address" : "96 Morton St, New York, NY 10014, USA",
         "geometry" : {
            "bounds" : {
               "northeast" : {
                  "lat" : 40.7310557,
                  "lng" : -74.00814849999999
               },
               "southwest" : {
                  "lat" : 40.730794,
                  "lng" : -74.00885020000001
               }
            },
            "location" : {
               "lat" : 40.7308656,
               "lng" : -74.00839119999999
            },
            "location_type" : "ROOFTOP",
            "viewport" : {
               "northeast" : {
                  "lat" : 40.7322738302915,
                  "lng" : -74.00715036970851
               },
               "southwest" : {
                  "lat" : 40.7295758697085,
                  "lng" : -74.00984833029152
               }
            }
         },
         "place_id" : "ChIJBet4Gu1ZwokRqrswd4K_VnY",
         "types" : [ "premise" ]
      },
      {
         "address_components" : [
            {
               "long_name" : "97",
               "short_name" : "97",
               "types" : [ "street_number" ]
            },
            {
               "long_name" : "Morton Street",
               "short_name" : "Morton St",
               "types" : [ "route" ]
            },
            {
               "long_name" : "New York",
               "short_name" : "New York",
               "types" : [ "locality", "political" ]
            },
            {
               "long_name" : "New York",
               "short_name" : "NY",
               "types" : [ "administrative_area_level_1", "political" ]
            },
            {
               "long_name" : "United States",
               "short_name" : "US",
               "types" : [ "country", "political" ]
            },
            {
               "long_name" : "10014",
               "short_name" : "10014",
               "types" : [ "postal_code" ]
            }
         ],
         "formatted_address" : "97 Morton St, New York, NY 10014, USA",
         "geometry" : {
            "location" : {
               "lat" : 40.7311501,
               "lng" : -74.00882609999999
            },
            "location_type" : "RANGE_INTERPOLATED",
            "viewport" : {
               "northeast" : {
                  "lat" : 40.7324990802915,
                  "lng" : -74.00747711970848
               },
               "southwest" : {
                  "lat" : 40.7298011197085,
                  "lng" : -74.01017508029149
               }
            }
         },
         "place_id" : "EiU5NyBNb3J0b24gU3QsIE5ldyBZb3JrLCBOWSAxMDAxNCwgVVNBIhoSGAoUChIJ8XO6G-1ZwokRca-WVwzPuPkQYQ",
         "types" : [ "street_address" ]
      },
      {
         "address_components" : [
            {
               "long_name" : "West Village",
               "short_name" : "West Village",
               "types" : [ "neighborhood", "political" ]
            },
            {
               "long_name" : "Manhattan",
               "short_name" : "Manhattan",
               "types" : [ "political", "sublocality", "sublocality_level_1" ]
            },
            {
               "long_name" : "New York",
               "short_name" : "New York",
               "types" : [ "locality", "political" ]
            },
            {
               "long_name" : "New York County",
               "short_name" : "New York County",
               "types" : [ "administrative_area_level_2", "political" ]
            },
            {
               "long_name" : "New York",
               "short_name" : "NY",
               "types" : [ "administrative_area_level_1", "political" ]
            },
            {
               "long_name" : "United States",
               "short_name" : "US",
               "types" : [ "country", "political" ]
            }
         ],
         "formatted_address" : "West Village, New York, NY, USA",
         "geometry" : {
            "bounds" : {
               "northeast" : {
                  "lat" : 40.7409452,
                  "lng" : -73.99685199999999
               },
               "southwest" : {
                  "lat" : 40.7283442,
                  "lng" : -74.0106976
               }
            },
            "location" : {
               "lat" : 40.735781,
               "lng" : -74.0035709
            },
            "location_type" : "APPROXIMATE",
            "viewport" : {
               "northeast" : {
                  "lat" : 40.7409452,
                  "lng" : -73.99685199999999
               },
               "southwest" : {
                  "lat" : 40.7283442,
                  "lng" : -74.0106976
               }
            }
         },
         "place_id" : "ChIJY1SflpRZwokRhLCM-FupOe8",
         "types" : [ "neighborhood", "political" ]
      },
      {
         "address_components" : [
            {
               "long_name" : "10014",
               "short_name" : "10014",
               "types" : [ "postal_code" ]
            },
            {
               "long_name" : "Manhattan",
               "short_name" : "Manhattan",
               "types" : [ "political", "sublocality", "sublocality_level_1" ]
            },
            {
               "long_name" : "New York",
               "short_name" : "New York",
               "types" : [ "locality", "political" ]
            },
            {
               "long_name" : "New York County",
               "short_name" : "New York County",
               "types" : [ "administrative_area_level_2", "political" ]
            },
            {
               "long_name" : "New York",
               "short_name" : "NY",
               "types" : [ "administrative_area_level_1", "political" ]
            },
            {
               "long_name" : "United States",
               "short_name" : "US",
               "types" : [ "country", "political" ]
            }
         ],
         "formatted_address" : "New York, NY 10014, USA",
         "geometry" : {
            "bounds" : {
               "northeast" : {
                  "lat" : 40.744127,
                  "lng" : -73.99955509999999
               },
               "southwest" : {
                  "lat" : 40.726073,
                  "lng" : -74.0211039
               }
            },
            "location" : {
               "lat" : 40.7366138,
               "lng" : -74.0094471
            },
            "location_type" : "APPROXIMATE",
            "viewport" : {
               "northeast" : {
                  "lat" : 40.744127,
                  "lng" : -73.99955509999999
               },
               "southwest" : {
                  "lat" : 40.726073,
                  "lng" : -74.0211039
               }
            }
         },
         "place_id" : "ChIJPcvECI1ZwokRPJi-DLxJEug",
         "types" : [ "postal_code" ]
      },
      {
         "address_components" : [
            {
               "long_name" : "New York County",
               "short_name" : "New York County",
               "types" : [ "administrative_area_level_2", "political" ]
            },
            {
               "long_name" : "Manhattan",
               "short_name" : "Manhattan",
               "types" : [ "political", "sublocality", "sublocality_level_1" ]
            },
            {
               "long_name" : "New York",
               "short_name" : "New York",
               "types" : [ "locality", "political" ]
            },
            {
               "long_name" : "New York",
               "short_name" : "NY",
               "types" : [ "administrative_area_level_1", "political" ]
            },
            {
               "long_name" : "United States",
               "short_name" : "US",
               "types" : [ "country", "political" ]
            }
         ],
         "formatted_address" : "New York County, New York, NY, USA",
         "geometry" : {
            "bounds" : {
               "northeast" : {
                  "lat" : 40.882214,
                  "lng" : -73.907
               },
               "southwest" : {
                  "lat" : 40.6803955,
                  "lng" : -74.047285
               }
            },
            "location" : {
               "lat" : 40.7830603,
               "lng" : -73.9712488
            },
            "location_type" : "APPROXIMATE",
            "viewport" : {
               "northeast" : {
                  "lat" : 40.882214,
                  "lng" : -73.907
               },
               "southwest" : {
                  "lat" : 40.6803955,
                  "lng" : -74.047285
               }
            }
         },
         "place_id" : "ChIJOwE7_GTtwokRFq0uOwLSE9g",
         "types" : [ "administrative_area_level_2", "political" ]
      },
      {
         "address_components" : [
            {
               "long_name" : "Manhattan",
               "short_name" : "Manhattan",
               "types" : [ "political", "sublocality", "sublocality_level_1" ]
            },
            {
               "long_name" : "New York",
               "short_name" : "New York",
               "types" : [ "locality", "political" ]
            },
            {
               "long_name" : "New York County",
               "short_name" : "New York County",
               "types" : [ "administrative_area_level_2", "political" ]
            },
            {
               "long_name" : "New York",
               "short_name" : "NY",
               "types" : [ "administrative_area_level_1", "political" ]
            },
            {
               "long_name" : "United States",
               "short_name" : "US",
               "types" : [ "country", "political" ]
            }
         ],
         "formatted_address" : "Manhattan, New York, NY, USA",
         "geometry" : {
            "bounds" : {
               "northeast" : {
                  "lat" : 40.882214,
                  "lng" : -73.907
               },
               "southwest" : {
                  "lat" : 40.6803955,
                  "lng" : -74.047285
               }
            },
            "location" : {
               "lat" : 40.7830603,
               "lng" : -73.9712488
            },
            "location_type" : "APPROXIMATE",
            "viewport" : {
               "northeast" : {
                  "lat" : 40.882214,
                  "lng" : -73.907
               },
               "southwest" : {
                  "lat" : 40.6803955,
                  "lng" : -74.047285
               }
            }
         },
         "place_id" : "ChIJYeZuBI9YwokRjMDs_IEyCwo",
         "types" : [ "political", "sublocality", "sublocality_level_1" ]
      },
      {
         "address_components" : [
            {
               "long_name" : "New York",
               "short_name" : "New York",
               "types" : [ "locality", "political" ]
            },
            {
               "long_name" : "New York",
               "short_name" : "NY",
               "types" : [ "administrative_area_level_1", "political" ]
            },
            {
               "long_name" : "United States",
               "short_name" : "US",
               "types" : [ "country", "political" ]
            }
         ],
         "formatted_address" : "New York, NY, USA",
         "geometry" : {
            "bounds" : {
               "northeast" : {
                  "lat" : 40.9175771,
                  "lng" : -73.70027209999999
               },
               "southwest" : {
                  "lat" : 40.4773991,
                  "lng" : -74.25908989999999
               }
            },
            "location" : {
               "lat" : 40.7127753,
               "lng" : -74.0059728
            },
            "location_type" : "APPROXIMATE",
            "viewport" : {
               "northeast" : {
                  "lat" : 40.9175771,
                  "lng" : -73.70027209999999
               },
               "southwest" : {
                  "lat" : 40.4773991,
                  "lng" : -74.25908989999999
               }
            }
         },
         "place_id" : "ChIJOwg_06VPwokRYv534QaPC8g",
         "types" : [ "locality", "political" ]
      },
      {
         "address_components" : [
            {
               "long_name" : "New York",
               "short_name" : "New York",
               "types" : [ "administrative_area_level_1", "political" ]
            },
            {
               "long_name" : "United States",
               "short_name" : "US",
               "types" : [ "country", "political" ]
            }
         ],
         "formatted_address" : "New York, USA",
         "geometry" : {
            "bounds" : {
               "northeast" : {
                  "lat" : 45.015865,
                  "lng" : -71.777491
               },
               "southwest" : {
                  "lat" : 40.4773991,
                  "lng" : -79.7625901
               }
            },
            "location" : {
               "lat" : 43.2994285,
               "lng" : -74.21793260000001
            },
            "location_type" : "APPROXIMATE",
            "viewport" : {
               "northeast" : {
                  "lat" : 45.015865,
                  "lng" : -71.777491
               },
               "southwest" : {
                  "lat" : 40.4773991,
                  "lng" : -79.7625901
               }
            }
         },
         "place_id" : "ChIJqaUj8fBLzEwRZ5UY3sHGz90",
         "types" : [ "administrative_area_level_1", "political" ]
      },
      {
         "address_components" : [
            {
               "long_name" : "United States",
               "short_name" : "US",
               "types" : [ "country", "political" ]
            }
         ],
         "formatted_address" : "United States",
         "geometry" : {
            "bounds" : {
               "northeast" : {
                  "lat" : 71.5388001,
                  "lng" : -66.885417
               },
               "southwest" : {
                  "lat" : 18.7763,
                  "lng" : 170.5957
               }
            },
            "location" : {
               "lat" : 37.09024,
               "lng" : -95.712891
            },
            "location_type" : "APPROXIMATE",
            "viewport" : {
               "northeast" : {
                  "lat" : 71.5388001,
                  "lng" : -66.885417
               },
               "southwest" : {
                  "lat" : 18.7763,
                  "lng" : 170.5957
               }
            }
         },
         "place_id" : "ChIJCzYy5IS16lQRQrfeQ5K5Oxw",
         "types" : [ "country", "political" ]
      }
   ],
   "status" : "OK"
}
