{
   "results" : [
      {
         "address_components" : [
            {
               "long_name" : "23",
               "short_name" : "23",
               "types" : [ "street_number" ]
            },
            {
               "long_name" : "Dennis Street",
               "short_name" : "Dennis St",
               "types" : [ "route" ]
            },
            {
               "long_name" : "Campbellfield",
               "short_name" : "Campbellfield",
               "types" : [ "locality", "political" ]
            },
            {
               "long_name" : "Hume City",
               "short_name" : "Hume",
               "types" : [ "administrative_area_level_2", "political" ]
            },
            {
               "long_name" : "Victoria",
               "short_name" : "VIC",
               "types" : [ "administrative_area_level_1", "political" ]
            },
            {
               "long_name" : "Australia",
               "short_name" : "AU",
               "types" : [ "country", "political" ]
            },
            {
               "long_name" : "3061",
               "short_name" : "3061",
               "types" : [ "postal_code" ]
            }
         ],
         "formatted_address" : "23 Dennis St, Campbellfield VIC 3061, Australia",
         "geometry" : {
            "bounds" : {
               "northeast" : {
                  "lat" : -37.643536,
                  "lng" : 144.9412442
               },
               "southwest" : {
                  "lat" : -37.643941,
                  "lng" : 144.9403444
               }
            },
            "location" : {
               "lat" : -37.6436945,
               "lng" : 144.9406218
            },
            "location_type" : "ROOFTOP",
            "viewport" : {
               "northeast" : {
                  "lat" : -37.6423895197085,
                  "lng" : 144.9421432802915
               },
               "southwest" : {
                  "lat" : -37.6450874802915,
                  "lng" : 144.9394453197085
               }
            }
         },
         "place_id" : "ChIJOS-_tDdQ1moRK62-Mlfo_PA",
         "types" : [ "premise" ]
      },
      {
         "address_components" : [
            {
               "long_name" : "21",
               "short_name" : "21",
               "types" : [ "street_number" ]
            },
            {
               "long_name" : "Thornycroft Street",
               "short_name" : "Thornycroft St",
               "types" : [ "route" ]
            },
            {
               "long_name" : "Campbellfield",
               "short_name" : "Campbellfield",
               "types" : [ "locality", "political" ]
            },
            {
               "long_name" : "Hume City",
               "short_name" : "Hume",
               "types" : [ "administrative_area_level_2", "political" ]
            },
            {
               "long_name" : "Victoria",
               "short_name" : "VIC",
               "types" : [ "administrative_area_level_1", "political" ]
            },
            {
               "long_name" : "Australia",
               "short_name" : "AU",
               "types" : [ "country", "political" ]
            },
            {
               "long_name" : "3061",
               "short_name" : "3061",
               "types" : [ "postal_code" ]
            }
         ],
         "formatted_address" : "21 Thornycroft St, Campbellfield VIC 3061, Australia",
         "geometry" : {
            "location" : {
               "lat" : -37.645237,
               "lng" : 144.942277
            },
            "location_type" : "ROOFTOP",
            "viewport" : {
               "northeast" : {
                  "lat" : -37.64388801970851,
                  "lng" : 144.9436259802915
               },
               "southwest" : {
                  "lat" : -37.6465859802915,
                  "lng" : 144.9409280197085
               }
            }
         },
         "place_id" : "ChIJJWODDDdQ1moRCGUZTvTivQE",
         "types" : [ "street_address" ]
      },
      {
         "address_components" : [
            {
               "long_name" : "Campbellfield",
               "short_name" : "Campbellfield",
               "types" : [ "locality", "political" ]
            },
            {
               "long_name" : "Hume City",
               "short_name" : "Hume",
               "types" : [ "administrative_area_level_2", "political" ]
            },
            {
               "long_name" : "Victoria",
               "short_name" : "VIC",
               "types" : [ "administrative_area_level_1", "political" ]
            },
            {
               "long_name" : "Australia",
               "short_name" : "AU",
               "types" : [ "country", "political" ]
            },
            {
               "long_name" : "3061",
               "short_name" : "3061",
               "types" : [ "postal_code" ]
            }
         ],
         "formatted_address" : "Campbellfield VIC 3061, Australia",
         "geometry" : {
            "bounds" : {
               "northeast" : {
                  "lat" : -37.6414,
                  "lng" : 144.9777664
               },
               "southwest" : {
                  "lat" : -37.6910048,
                  "lng" : 144.9347769
               }
            },
            "location" : {
               "lat" : -37.673,
               "lng" : 144.957
            },
            "location_type" : "APPROXIMATE",
            "viewport" : {
               "northeast" : {
                  "lat" : -37.6414,
                  "lng" : 144.9777664
               },
               "southwest" : {
                  "lat" : -37.6910048,
                  "lng" : 144.9347769
               }
            }
         },
         "place_id" : "ChIJRSmniRtQ1moRYNCMIXVWBAU",
         "types" : [ "locality", "political" ]
      },
      {
         "address_components" : [
            {
               "long_name" : "Melbourne",
               "short_name" : "Melbourne",
               "types" : [ "colloquial_area", "locality", "political" ]
            },
            {
               "long_name" : "Victoria",
               "short_name" : "VIC",
               "types" : [ "administrative_area_level_1", "political" ]
            },
            {
               "long_name" : "Australia",
               "short_name" : "AU",
               "types" : [ "country", "political" ]
            }
         ],
         "formatted_address" : "Melbourne VIC, Australia",
         "geometry" : {
            "bounds" : {
               "northeast" : {
                  "lat" : -37.5112737,
                  "lng" : 145.5125288
               },
               "southwest" : {
                  "lat" : -38.4338593,
                  "lng" : 144.5937418
               }
            },
            "location" : {
               "lat" : -37.8136276,
               "lng" : 144.9630576
            },
            "location_type" : "APPROXIMATE",
            "viewport" : {
               "northeast" : {
                  "lat" : -37.5112737,
                  "lng" : 145.5125288
               },
               "southwest" : {
                  "lat" : -38.4338593,
                  "lng" : 144.5937418
               }
            }
         },
         "place_id" : "ChIJ90260rVG1moRkM2MIXVWBAQ",
         "types" : [ "colloquial_area", "locality", "political" ]
      },
      {
         "address_components" : [
            {
               "long_name" : "3061",
               "short_name" : "3061",
               "types" : [ "postal_code" ]
            },
            {
               "long_name" : "Campbellfield",
               "short_name" : "Campbellfield",
               "types" : [ "locality", "political" ]
            },
            {
               "long_name" : "Hume City",
               "short_name" : "Hume",
               "types" : [ "administrative_area_level_2", "political" ]
            },
            {
               "long_name" : "Victoria",
               "short_name" : "VIC",
               "types" : [ "administrative_area_level_1", "political" ]
            },
            {
               "long_name" : "Australia",
               "short_name" : "AU",
               "types" : [ "country", "political" ]
            }
         ],
         "formatted_address" : "Campbellfield VIC 3061, Australia",
         "geometry" : {
            "bounds" : {
               "northeast" : {
                  "lat" : -37.6414,
                  "lng" : 144.9777664
               },
               "southwest" : {
                  "lat" : -37.6910048,
                  "lng" : 144.9347769
               }
            },
            "location" : {
               "lat" : -37.665113,
               "lng" : 144.955677
            },
            "location_type" : "APPROXIMATE",
            "viewport" : {
               "northeast" : {
                  "lat" : -37.6414,
                  "lng" : 144.9777664
               },
               "southwest" : {
                  "lat" : -37.6910048,
                  "lng" : 144.9347769
               }
            }
         },
         "place_id" : "ChIJ88gnG7Ra1moRcDsuRnhWBBw",
         "types" : [ "postal_code" ]
      },
      {
         "address_components" : [
            {
               "long_name" : "Hume City",
               "short_name" : "Hume",
               "types" : [ "administrative_area_level_2", "political" ]
            },
            {
               "long_name" : "Victoria",
               "short_name" : "VIC",
               "types" : [ "administrative_area_level_1", "political" ]
            },
            {
               "long_name" : "Australia",
               "short_name" : "AU",
               "types" : [ "country", "political" ]
            }
         ],
         "formatted_address" : "Hume, VIC, Australia",
         "geometry" : {
            "bounds" : {
               "northeast" : {
                  "lat" : -37.4819578,
                  "lng" : 144.9777664
               },
               "southwest" : {
                  "lat" : -37.7124163,
                  "lng" : 144.6324815
               }
            },
            "location" : {
               "lat" : -37.5986911,
               "lng" : 144.8291259
            },
            "location_type" : "APPROXIMATE",
            "viewport" : {
               "northeast" : {
                  "lat" : -37.4819578,
                  "lng" : 144.9777664
               },
               "southwest" : {
                  "lat" : -37.7124163,
                  "lng" : 144.6324815
               }
            }
         },
         "place_id" : "ChIJuTjvsclX1moRT9nh4K7b5fI",
         "types" : [ "administrative_area_level_2", "political" ]
      },
      {
         "address_components" : [
            {
               "long_name" : "Northern Suburbs",
               "short_name" : "Northern Suburbs",
               "types" : [ "political" ]
            },
            {
               "long_name" : "Victoria",
               "short_name" : "VIC",
               "types" : [ "administrative_area_level_1", "political" ]
            },
            {
               "long_name" : "Australia",
               "short_name" : "AU",
               "types" : [ "country", "political" ]
            }
         ],
         "formatted_address" : "Northern Suburbs, VIC, Australia",
         "geometry" : {
            "bounds" : {
               "northeast" : {
                  "lat" : -37.5020666,
                  "lng" : 145.1869361
               },
               "southwest" : {
                  "lat" : -37.8079229,
                  "lng" : 144.7976146
               }
            },
            "location" : {
               "lat" : -37.7034927,
               "lng" : 144.9171412
            },
            "location_type" : "APPROXIMATE",
            "viewport" : {
               "northeast" : {
                  "lat" : -37.5020666,
                  "lng" : 145.1869361
               },
               "southwest" : {
                  "lat" : -37.8079229,
                  "lng" : 144.7976146
               }
            }
         },
         "place_id" : "ChIJf7fg57JP1moREHtcMzP1LSU",
         "types" : [ "political" ]
      },
      {
         "address_components" : [
            {
               "long_name" : "Melbourne Metropolitan Area",
               "short_name" : "Melbourne Metropolitan Area",
               "types" : [ "political" ]
            },
            {
               "long_name" : "Victoria",
               "short_name" : "VIC",
               "types" : [ "administrative_area_level_1", "political" ]
            },
            {
               "long_name" : "Australia",
               "short_name" : "AU",
               "types" : [ "country", "political" ]
            }
         ],
         "formatted_address" : "Melbourne Metropolitan Area, VIC, Australia",
         "geometry" : {
            "bounds" : {
               "northeast" : {
                  "lat" : -37.4017502,
                  "lng" : 146.1925247
               },
               "southwest" : {
                  "lat" : -38.4999344,
                  "lng" : 144.4440773
               }
            },
            "location" : {
               "lat" : -37.8001063,
               "lng" : 145.3143491
            },
            "location_type" : "APPROXIMATE",
            "viewport" : {
               "northeast" : {
                  "lat" : -37.4017502,
                  "lng" : 146.1925247
               },
               "southwest" : {
                  "lat" : -38.4999344,
                  "lng" : 144.4440773
               }
            }
         },
         "place_id" : "ChIJmYjB3BaF1moRtCmV8wIoZQU",
         "types" : [ "political" ]
      },
      {
         "address_components" : [
            {
               "long_name" : "Victoria",
               "short_name" : "VIC",
               "types" : [ "administrative_area_level_1", "political" ]
            },
            {
               "long_name" : "Australia",
               "short_name" : "AU",
               "types" : [ "country", "political" ]
            }
         ],
         "formatted_address" : "Victoria, Australia",
         "geometry" : {
            "bounds" : {
               "northeast" : {
                  "lat" : -33.9806474,
                  "lng" : 150.0169685
               },
               "southwest" : {
                  "lat" : -39.18316069999999,
                  "lng" : 140.9616819
               }
            },
            "location" : {
               "lat" : -37.4713077,
               "lng" : 144.7851531
            },
            "location_type" : "APPROXIMATE",
            "viewport" : {
               "northeast" : {
                  "lat" : -33.9806474,
                  "lng" : 150.0169685
               },
               "southwest" : {
                  "lat" : -39.18316069999999,
                  "lng" : 140.9616819
               }
            }
         },
         "place_id" : "ChIJT5UYfksx1GoRNJWCvuL8Tlo",
         "types" : [ "administrative_area_level_1", "political" ]
      },
      {
         "address_components" : [
            {
               "long_name" : "Australia",
               "short_name" : "AU",
               "types" : [ "country", "political" ]
            }
         ],
         "formatted_address" : "Australia",
         "geometry" : {
            "bounds" : {
               "northeast" : {
                  "lat" : -9.187026399999999,
                  "lng" : 159.2872223
               },
               "southwest" : {
                  "lat" : -54.83376579999999,
                  "lng" : 110.9510339
               }
            },
            "location" : {
               "lat" : -25.274398,
               "lng" : 133.775136
            },
            "location_type" : "APPROXIMATE",
            "viewport" : {
               "northeast" : {
                  "lat" : -0.6911343999999999,
                  "lng" : 166.7429167
               },
               "southwest" : {
                  "lat" : -51.66332320000001,
                  "lng" : 100.0911072
               }
            }
         },
         "place_id" : "ChIJ38WHZwf9KysRUhNblaFnglM",
         "types" : [ "country", "political" ]
      }
   ],
   "status" : "OK"
}
