{
   "plus_code" : {
      "compound_code" : "X2X4+F8 Coimbatore, Tamil Nadu, India",
      "global_code" : "7J2VX2X4+F8"
   },
   "results" : [
      {
         "address_components" : [
            {
               "long_name" : "41",
               "short_name" : "41",
               "types" : [ "premise" ]
            },
            {
               "long_name" : "3rd Street",
               "short_name" : "3rd Street",
               "types" : [ "route" ]
            },
            {
               "long_name" : "B R Nagar",
               "short_name" : "B R Nagar",
               "types" : [ "neighborhood", "political" ]
            },
            {
               "long_name" : "Kothari Layout",
               "short_name" : "Kothari Layout",
               "types" : [ "political", "sublocality", "sublocality_level_2" ]
            },
            {
               "long_name" : "Ramanathapuram",
               "short_name" : "Ramanathapuram",
               "types" : [ "political", "sublocality", "sublocality_level_1" ]
            },
            {
               "long_name" : "Coimbatore",
               "short_name" : "Coimbatore",
               "types" : [ "locality", "political" ]
            },
            {
               "long_name" : "Coimbatore",
               "short_name" : "Coimbatore",
               "types" : [ "administrative_area_level_2", "political" ]
            },
            {
               "long_name" : "Tamil Nadu",
               "short_name" : "TN",
               "types" : [ "administrative_area_level_1", "political" ]
            },
            {
               "long_name" : "India",
               "short_name" : "IN",
               "types" : [ "country", "political" ]
            },
            {
               "long_name" : "641005",
               "short_name" : "641005",
               "types" : [ "postal_code" ]
            }
         ],
         "formatted_address" : "41, 3rd Street, B R Nagar, Kothari Layout, Ramanathapuram, Coimbatore, Tamil Nadu 641005, India",
         "geometry" : {
            "location" : {
               "lat" : 10.998704,
               "lng" : 77.005797
            },
            "location_type" : "ROOFTOP",
            "viewport" : {
               "northeast" : {
                  "lat" : 11.0000529802915,
                  "lng" : 77.00714598029151
               },
               "southwest" : {
                  "lat" : 10.9973550197085,
                  "lng" : 77.00444801970849
               }
            }
         },
         "place_id" : "ChIJY3Y4e6NZqDsR2kTVPkREcME",
         "plus_code" : {
            "compound_code" : "X2X4+F8 Coimbatore, Tamil Nadu, India",
            "global_code" : "7J2VX2X4+F8"
         },
         "types" : [ "establishment", "point_of_interest" ]
      },
      {
         "address_components" : [
            {
               "long_name" : "50",
               "short_name" : "50",
               "types" : [ "premise" ]
            },
            {
               "long_name" : "Kothari Layout",
               "short_name" : "Kothari Layout",
               "types" : [ "political", "sublocality", "sublocality_level_2" ]
            },
            {
               "long_name" : "Sowripalayam",
               "short_name" : "Sowripalayam",
               "types" : [ "political", "sublocality", "sublocality_level_1" ]
            },
            {
               "long_name" : "Coimbatore",
               "short_name" : "Coimbatore",
               "types" : [ "locality", "political" ]
            },
            {
               "long_name" : "Coimbatore",
               "short_name" : "Coimbatore",
               "types" : [ "administrative_area_level_2", "political" ]
            },
            {
               "long_name" : "Tamil Nadu",
               "short_name" : "TN",
               "types" : [ "administrative_area_level_1", "political" ]
            },
            {
               "long_name" : "India",
               "short_name" : "IN",
               "types" : [ "country", "political" ]
            },
            {
               "long_name" : "641015",
               "short_name" : "641015",
               "types" : [ "postal_code" ]
            }
         ],
         "formatted_address" : "50, Kothari Layout, Sowripalayam, Coimbatore, Tamil Nadu 641015, India",
         "geometry" : {
            "location" : {
               "lat" : 10.998313,
               "lng" : 77.005495
            },
            "location_type" : "ROOFTOP",
            "viewport" : {
               "northeast" : {
                  "lat" : 10.9996619802915,
                  "lng" : 77.00684398029149
               },
               "southwest" : {
                  "lat" : 10.9969640197085,
                  "lng" : 77.00414601970849
               }
            }
         },
         "place_id" : "ChIJn7p7sN5ZqDsRFcolUJwTP4Y",
         "plus_code" : {
            "compound_code" : "X2X4+85 Coimbatore, Tamil Nadu, India",
            "global_code" : "7J2VX2X4+85"
         },
         "types" : [ "street_address" ]
      },
      {
         "address_components" : [
            {
               "long_name" : "3rd Street",
               "short_name" : "3rd Street",
               "types" : [ "route" ]
            },
            {
               "long_name" : "Kothari Layout",
               "short_name" : "Kothari Layout",
               "types" : [ "political", "sublocality", "sublocality_level_2" ]
            },
            {
               "long_name" : "Coimbatore",
               "short_name" : "Coimbatore",
               "types" : [ "locality", "political" ]
            },
            {
               "long_name" : "Coimbatore",
               "short_name" : "Coimbatore",
               "types" : [ "administrative_area_level_2", "political" ]
            },
            {
               "long_name" : "Tamil Nadu",
               "short_name" : "TN",
               "types" : [ "administrative_area_level_1", "political" ]
            },
            {
               "long_name" : "India",
               "short_name" : "IN",
               "types" : [ "country", "political" ]
            },
            {
               "long_name" : "641015",
               "short_name" : "641015",
               "types" : [ "postal_code" ]
            }
         ],
         "formatted_address" : "3rd Street, Kothari Layout, Coimbatore, Tamil Nadu 641015, India",
         "geometry" : {
            "bounds" : {
               "northeast" : {
                  "lat" : 10.9984785,
                  "lng" : 77.0058458
               },
               "southwest" : {
                  "lat" : 10.9984678,
                  "lng" : 77.0049635
               }
            },
            "location" : {
               "lat" : 10.9984732,
               "lng" : 77.00540459999999
            },
            "location_type" : "GEOMETRIC_CENTER",
            "viewport" : {
               "northeast" : {
                  "lat" : 10.9998221302915,
                  "lng" : 77.0067536302915
               },
               "southwest" : {
                  "lat" : 10.9971241697085,
                  "lng" : 77.00405566970849
               }
            }
         },
         "place_id" : "ChIJuSjMsd5ZqDsR_k1HQx-arz0",
         "types" : [ "route" ]
      },
      {
         "address_components" : [
            {
               "long_name" : "Kothari Layout",
               "short_name" : "Kothari Layout",
               "types" : [ "political", "sublocality", "sublocality_level_2" ]
            },
            {
               "long_name" : "Coimbatore",
               "short_name" : "Coimbatore",
               "types" : [ "locality", "political" ]
            },
            {
               "long_name" : "Coimbatore",
               "short_name" : "Coimbatore",
               "types" : [ "administrative_area_level_2", "political" ]
            },
            {
               "long_name" : "Tamil Nadu",
               "short_name" : "TN",
               "types" : [ "administrative_area_level_1", "political" ]
            },
            {
               "long_name" : "India",
               "short_name" : "IN",
               "types" : [ "country", "political" ]
            }
         ],
         "formatted_address" : "Kothari Layout, Coimbatore, Tamil Nadu, India",
         "geometry" : {
            "bounds" : {
               "northeast" : {
                  "lat" : 10.999774,
                  "lng" : 77.00829399999999
               },
               "southwest" : {
                  "lat" : 10.996754,
                  "lng" : 77.003063
               }
            },
            "location" : {
               "lat" : 10.9979468,
               "lng" : 77.0057059
            },
            "location_type" : "APPROXIMATE",
            "viewport" : {
               "northeast" : {
                  "lat" : 10.999774,
                  "lng" : 77.00829399999999
               },
               "southwest" : {
                  "lat" : 10.996754,
                  "lng" : 77.003063
               }
            }
         },
         "place_id" : "ChIJvSuZo95ZqDsR3uaNGdIcDl8",
         "types" : [ "political", "sublocality", "sublocality_level_2" ]
      },
      {
         "address_components" : [
            {
               "long_name" : "641015",
               "short_name" : "641015",
               "types" : [ "postal_code" ]
            },
            {
               "long_name" : "Coimbatore",
               "short_name" : "Coimbatore",
               "types" : [ "locality", "political" ]
            },
            {
               "long_name" : "Coimbatore",
               "short_name" : "Coimbatore",
               "types" : [ "administrative_area_level_2", "political" ]
            },
            {
               "long_name" : "Tamil Nadu",
               "short_name" : "TN",
               "types" : [ "administrative_area_level_1", "political" ]
            },
            {
               "long_name" : "India",
               "short_name" : "IN",
               "types" : [ "country", "political" ]
            }
         ],
         "formatted_address" : "Coimbatore, Tamil Nadu 641015, India",
         "geometry" : {
            "bounds" : {
               "northeast" : {
                  "lat" : 11.0247189,
                  "lng" : 77.0293047
               },
               "southwest" : {
                  "lat" : 10.9967432,
                  "lng" : 76.9963922
               }
            },
            "location" : {
               "lat" : 11.0076142,
               "lng" : 77.0132643
            },
            "location_type" : "APPROXIMATE",
            "viewport" : {
               "northeast" : {
                  "lat" : 11.0247189,
                  "lng" : 77.0293047
               },
               "southwest" : {
                  "lat" : 10.9967432,
                  "lng" : 76.9963922
               }
            }
         },
         "place_id" : "ChIJT4jAen5XqDsRFSbtdCq_vS8",
         "types" : [ "postal_code" ]
      },
      {
         "address_components" : [
            {
               "long_name" : "Coimbatore",
               "short_name" : "Coimbatore",
               "types" : [ "locality", "political" ]
            },
            {
               "long_name" : "Coimbatore",
               "short_name" : "Coimbatore",
               "types" : [ "administrative_area_level_2", "political" ]
            },
            {
               "long_name" : "Tamil Nadu",
               "short_name" : "TN",
               "types" : [ "administrative_area_level_1", "political" ]
            },
            {
               "long_name" : "India",
               "short_name" : "IN",
               "types" : [ "country", "political" ]
            }
         ],
         "formatted_address" : "Coimbatore, Tamil Nadu, India",
         "geometry" : {
            "bounds" : {
               "northeast" : {
                  "lat" : 11.1166118,
                  "lng" : 77.07481589999999
               },
               "southwest" : {
                  "lat" : 10.9068074,
                  "lng" : 76.8596541
               }
            },
            "location" : {
               "lat" : 11.0168445,
               "lng" : 76.95583209999999
            },
            "location_type" : "APPROXIMATE",
            "viewport" : {
               "northeast" : {
                  "lat" : 11.1166118,
                  "lng" : 77.07481589999999
               },
               "southwest" : {
                  "lat" : 10.9068074,
                  "lng" : 76.8596541
               }
            }
         },
         "place_id" : "ChIJtRyXL69ZqDsRgtI-GB7IwS8",
         "types" : [ "locality", "political" ]
      },
      {
         "address_components" : [
            {
               "long_name" : "Coimbatore",
               "short_name" : "Coimbatore",
               "types" : [ "administrative_area_level_2", "political" ]
            },
            {
               "long_name" : "Tamil Nadu",
               "short_name" : "TN",
               "types" : [ "administrative_area_level_1", "political" ]
            },
            {
               "long_name" : "India",
               "short_name" : "IN",
               "types" : [ "country", "political" ]
            }
         ],
         "formatted_address" : "Coimbatore, Tamil Nadu, India",
         "geometry" : {
            "bounds" : {
               "northeast" : {
                  "lat" : 11.4057969,
                  "lng" : 77.1766741
               },
               "southwest" : {
                  "lat" : 10.21881,
                  "lng" : 76.656036
               }
            },
            "location" : {
               "lat" : 10.9675289,
               "lng" : 76.91820969999999
            },
            "location_type" : "APPROXIMATE",
            "viewport" : {
               "northeast" : {
                  "lat" : 11.4057969,
                  "lng" : 77.1766741
               },
               "southwest" : {
                  "lat" : 10.21881,
                  "lng" : 76.656036
               }
            }
         },
         "place_id" : "ChIJtRyXL69ZqDsRl3v5ZMPoVUA",
         "types" : [ "administrative_area_level_2", "political" ]
      },
      {
         "address_components" : [
            {
               "long_name" : "Tamil Nadu",
               "short_name" : "Tamil Nadu",
               "types" : [ "administrative_area_level_1", "political" ]
            },
            {
               "long_name" : "India",
               "short_name" : "IN",
               "types" : [ "country", "political" ]
            }
         ],
         "formatted_address" : "Tamil Nadu, India",
         "geometry" : {
            "bounds" : {
               "northeast" : {
                  "lat" : 13.496666,
                  "lng" : 80.3464511
               },
               "southwest" : {
                  "lat" : 8.0690069,
                  "lng" : 76.23055409999999
               }
            },
            "location" : {
               "lat" : 11.1271225,
               "lng" : 78.6568942
            },
            "location_type" : "APPROXIMATE",
            "viewport" : {
               "northeast" : {
                  "lat" : 13.496666,
                  "lng" : 80.3464511
               },
               "southwest" : {
                  "lat" : 8.0690069,
                  "lng" : 76.23055409999999
               }
            }
         },
         "place_id" : "ChIJM5YYsYLFADsR8GEzRsx1lFU",
         "types" : [ "administrative_area_level_1", "political" ]
      },
      {
         "address_components" : [
            {
               "long_name" : "India",
               "short_name" : "IN",
               "types" : [ "country", "political" ]
            }
         ],
         "formatted_address" : "India",
         "geometry" : {
            "bounds" : {
               "northeast" : {
                  "lat" : 35.513327,
                  "lng" : 97.39535869999999
               },
               "southwest" : {
                  "lat" : 6.4626999,
                  "lng" : 68.1097
               }
            },
            "location" : {
               "lat" : 20.593684,
               "lng" : 78.96288
            },
            "location_type" : "APPROXIMATE",
            "viewport" : {
               "northeast" : {
                  "lat" : 35.513327,
                  "lng" : 97.39535869999999
               },
               "southwest" : {
                  "lat" : 6.4626999,
                  "lng" : 68.1097
               }
            }
         },
         "place_id" : "ChIJkbeSa_BfYzARphNChaFPjNc",
         "types" : [ "country", "political" ]
      }
   ],
   "status" : "OK"
}
