{
   "plus_code" : {
      "compound_code" : "R87R+5F O'Fallon, MO, USA",
      "global_code" : "86CFR87R+5F"
   },
   "results" : [
      {
         "address_components" : [
            {
               "long_name" : "501",
               "short_name" : "501",
               "types" : [ "street_number" ]
            },
            {
               "long_name" : "Pearl Drive",
               "short_name" : "Pearl Dr",
               "types" : [ "route" ]
            },
            {
               "long_name" : "St. Peters",
               "short_name" : "St Peters",
               "types" : [ "locality", "political" ]
            },
            {
               "long_name" : "O'Fallon Township",
               "short_name" : "O'Fallon Township",
               "types" : [ "administrative_area_level_3", "political" ]
            },
            {
               "long_name" : "St. Charles County",
               "short_name" : "St Charles County",
               "types" : [ "administrative_area_level_2", "political" ]
            },
            {
               "long_name" : "Missouri",
               "short_name" : "MO",
               "types" : [ "administrative_area_level_1", "political" ]
            },
            {
               "long_name" : "United States",
               "short_name" : "US",
               "types" : [ "country", "political" ]
            },
            {
               "long_name" : "63376",
               "short_name" : "63376",
               "types" : [ "postal_code" ]
            }
         ],
         "formatted_address" : "501 Pearl Dr, St Peters, MO 63376, USA",
         "geometry" : {
            "location" : {
               "lat" : 38.8128945,
               "lng" : -90.6588012
            },
            "location_type" : "ROOFTOP",
            "viewport" : {
               "northeast" : {
                  "lat" : 38.81424348029149,
                  "lng" : -90.65745221970849
               },
               "southwest" : {
                  "lat" : 38.8115455197085,
                  "lng" : -90.6601501802915
               }
            }
         },
         "place_id" : "ChIJWY7kbWHX3ocRmhb08C9jfXg",
         "plus_code" : {
            "compound_code" : "R87R+5F O'Fallon, Missouri, United States",
            "global_code" : "86CFR87R+5F"
         },
         "types" : [ "street_address" ]
      },
      {
         "address_components" : [
            {
               "long_name" : "501",
               "short_name" : "501",
               "types" : [ "street_number" ]
            },
            {
               "long_name" : "Pearl Drive",
               "short_name" : "Pearl Dr",
               "types" : [ "route" ]
            },
            {
               "long_name" : "St. Peters",
               "short_name" : "St Peters",
               "types" : [ "locality", "political" ]
            },
            {
               "long_name" : "O'Fallon Township",
               "short_name" : "O'Fallon Township",
               "types" : [ "administrative_area_level_3", "political" ]
            },
            {
               "long_name" : "St. Charles County",
               "short_name" : "St Charles County",
               "types" : [ "administrative_area_level_2", "political" ]
            },
            {
               "long_name" : "Missouri",
               "short_name" : "MO",
               "types" : [ "administrative_area_level_1", "political" ]
            },
            {
               "long_name" : "United States",
               "short_name" : "US",
               "types" : [ "country", "political" ]
            },
            {
               "long_name" : "63376",
               "short_name" : "63376",
               "types" : [ "postal_code" ]
            }
         ],
         "formatted_address" : "501 Pearl Dr, St Peters, MO 63376, USA",
         "geometry" : {
            "location" : {
               "lat" : 38.8128945,
               "lng" : -90.65880109999999
            },
            "location_type" : "ROOFTOP",
            "viewport" : {
               "northeast" : {
                  "lat" : 38.81424348029149,
                  "lng" : -90.65745211970848
               },
               "southwest" : {
                  "lat" : 38.8115455197085,
                  "lng" : -90.66015008029149
               }
            }
         },
         "place_id" : "ChIJqTXz-l3X3ocRf9iHBF4ioMI",
         "plus_code" : {
            "compound_code" : "R87R+5F O'Fallon, Missouri, United States",
            "global_code" : "86CFR87R+5F"
         },
         "types" : [ "establishment", "point_of_interest" ]
      },
      {
         "address_components" : [
            {
               "long_name" : "Unnamed Road",
               "short_name" : "Unnamed Road",
               "types" : [ "route" ]
            },
            {
               "long_name" : "O'Fallon",
               "short_name" : "O'Fallon",
               "types" : [ "locality", "political" ]
            },
            {
               "long_name" : "O'Fallon Township",
               "short_name" : "O'Fallon Township",
               "types" : [ "administrative_area_level_3", "political" ]
            },
            {
               "long_name" : "St. Charles County",
               "short_name" : "St Charles County",
               "types" : [ "administrative_area_level_2", "political" ]
            },
            {
               "long_name" : "Missouri",
               "short_name" : "MO",
               "types" : [ "administrative_area_level_1", "political" ]
            },
            {
               "long_name" : "United States",
               "short_name" : "US",
               "types" : [ "country", "political" ]
            },
            {
               "long_name" : "63366",
               "short_name" : "63366",
               "types" : [ "postal_code" ]
            }
         ],
         "formatted_address" : "Unnamed Road, O'Fallon, MO 63366, USA",
         "geometry" : {
            "bounds" : {
               "northeast" : {
                  "lat" : 38.81297300000001,
                  "lng" : -90.65735339999999
               },
               "southwest" : {
                  "lat" : 38.8123546,
                  "lng" : -90.65893009999999
               }
            },
            "location" : {
               "lat" : 38.8126638,
               "lng" : -90.6581418
            },
            "location_type" : "GEOMETRIC_CENTER",
            "viewport" : {
               "northeast" : {
                  "lat" : 38.81401278029151,
                  "lng" : -90.65679276970849
               },
               "southwest" : {
                  "lat" : 38.81131481970851,
                  "lng" : -90.65949073029149
               }
            }
         },
         "place_id" : "ChIJHUymWWfX3ocRKgqhMZF8FDA",
         "types" : [ "route" ]
      },
      {
         "address_components" : [
            {
               "long_name" : "O'Fallon Township",
               "short_name" : "O'Fallon Township",
               "types" : [ "administrative_area_level_3", "political" ]
            },
            {
               "long_name" : "St. Charles County",
               "short_name" : "St Charles County",
               "types" : [ "administrative_area_level_2", "political" ]
            },
            {
               "long_name" : "Missouri",
               "short_name" : "MO",
               "types" : [ "administrative_area_level_1", "political" ]
            },
            {
               "long_name" : "United States",
               "short_name" : "US",
               "types" : [ "country", "political" ]
            }
         ],
         "formatted_address" : "O'Fallon Township, MO, USA",
         "geometry" : {
            "bounds" : {
               "northeast" : {
                  "lat" : 38.8428508,
                  "lng" : -90.597145
               },
               "southwest" : {
                  "lat" : 38.7641489,
                  "lng" : -90.70002500000001
               }
            },
            "location" : {
               "lat" : 38.7873666,
               "lng" : -90.64885049999999
            },
            "location_type" : "APPROXIMATE",
            "viewport" : {
               "northeast" : {
                  "lat" : 38.8428508,
                  "lng" : -90.597145
               },
               "southwest" : {
                  "lat" : 38.7641489,
                  "lng" : -90.70002500000001
               }
            }
         },
         "place_id" : "ChIJgygI9XHX3ocRoP9isdNZQe0",
         "types" : [ "administrative_area_level_3", "political" ]
      },
      {
         "address_components" : [
            {
               "long_name" : "O'Fallon",
               "short_name" : "O'Fallon",
               "types" : [ "locality", "political" ]
            },
            {
               "long_name" : "St. Charles County",
               "short_name" : "St Charles County",
               "types" : [ "administrative_area_level_2", "political" ]
            },
            {
               "long_name" : "Missouri",
               "short_name" : "MO",
               "types" : [ "administrative_area_level_1", "political" ]
            },
            {
               "long_name" : "United States",
               "short_name" : "US",
               "types" : [ "country", "political" ]
            }
         ],
         "formatted_address" : "O'Fallon, MO, USA",
         "geometry" : {
            "bounds" : {
               "northeast" : {
                  "lat" : 38.8731991,
                  "lng" : -90.64889289999999
               },
               "southwest" : {
                  "lat" : 38.71263,
                  "lng" : -90.82075479999999
               }
            },
            "location" : {
               "lat" : 38.8106075,
               "lng" : -90.69984769999999
            },
            "location_type" : "APPROXIMATE",
            "viewport" : {
               "northeast" : {
                  "lat" : 38.8731991,
                  "lng" : -90.64889289999999
               },
               "southwest" : {
                  "lat" : 38.71263,
                  "lng" : -90.82075479999999
               }
            }
         },
         "place_id" : "ChIJs6aOAfvQ3ocRidnJA-TANLE",
         "types" : [ "locality", "political" ]
      },
      {
         "address_components" : [
            {
               "long_name" : "63366",
               "short_name" : "63366",
               "types" : [ "postal_code" ]
            },
            {
               "long_name" : "O'Fallon",
               "short_name" : "O'Fallon",
               "types" : [ "locality", "political" ]
            },
            {
               "long_name" : "St. Charles County",
               "short_name" : "St Charles County",
               "types" : [ "administrative_area_level_2", "political" ]
            },
            {
               "long_name" : "Missouri",
               "short_name" : "MO",
               "types" : [ "administrative_area_level_1", "political" ]
            },
            {
               "long_name" : "United States",
               "short_name" : "US",
               "types" : [ "country", "political" ]
            }
         ],
         "formatted_address" : "O'Fallon, MO 63366, USA",
         "geometry" : {
            "bounds" : {
               "northeast" : {
                  "lat" : 38.937044,
                  "lng" : -90.6182099
               },
               "southwest" : {
                  "lat" : 38.760908,
                  "lng" : -90.81429290000001
               }
            },
            "location" : {
               "lat" : 38.8809704,
               "lng" : -90.73427339999999
            },
            "location_type" : "APPROXIMATE",
            "viewport" : {
               "northeast" : {
                  "lat" : 38.937044,
                  "lng" : -90.6182099
               },
               "southwest" : {
                  "lat" : 38.760908,
                  "lng" : -90.81429290000001
               }
            }
         },
         "place_id" : "ChIJPy6SlBXP3ocRrjiLiYIvTBQ",
         "postcode_localities" : [
            "Cottleville",
            "Dardenne Prairie",
            "O'Fallon",
            "St. Paul",
            "St. Peters"
         ],
         "types" : [ "postal_code" ]
      },
      {
         "address_components" : [
            {
               "long_name" : "St. Charles County",
               "short_name" : "St Charles County",
               "types" : [ "administrative_area_level_2", "political" ]
            },
            {
               "long_name" : "Missouri",
               "short_name" : "MO",
               "types" : [ "administrative_area_level_1", "political" ]
            },
            {
               "long_name" : "United States",
               "short_name" : "US",
               "types" : [ "country", "political" ]
            }
         ],
         "formatted_address" : "St Charles County, MO, USA",
         "geometry" : {
            "bounds" : {
               "northeast" : {
                  "lat" : 38.96776880000001,
                  "lng" : -90.1091069
               },
               "southwest" : {
                  "lat" : 38.5341339,
                  "lng" : -90.964461
               }
            },
            "location" : {
               "lat" : 38.7338885,
               "lng" : -90.82940019999999
            },
            "location_type" : "APPROXIMATE",
            "viewport" : {
               "northeast" : {
                  "lat" : 38.96776880000001,
                  "lng" : -90.1091069
               },
               "southwest" : {
                  "lat" : 38.5341339,
                  "lng" : -90.964461
               }
            }
         },
         "place_id" : "ChIJ8_ejCwAp34cR6jFA8VaN-pA",
         "types" : [ "administrative_area_level_2", "political" ]
      },
      {
         "address_components" : [
            {
               "long_name" : "Missouri",
               "short_name" : "Missouri",
               "types" : [ "administrative_area_level_1", "political" ]
            },
            {
               "long_name" : "United States",
               "short_name" : "US",
               "types" : [ "country", "political" ]
            }
         ],
         "formatted_address" : "Missouri, USA",
         "geometry" : {
            "bounds" : {
               "northeast" : {
                  "lat" : 40.61364,
                  "lng" : -89.09949399999999
               },
               "southwest" : {
                  "lat" : 35.9956829,
                  "lng" : -95.774704
               }
            },
            "location" : {
               "lat" : 37.9642529,
               "lng" : -91.83183339999999
            },
            "location_type" : "APPROXIMATE",
            "viewport" : {
               "northeast" : {
                  "lat" : 40.61364,
                  "lng" : -89.09949399999999
               },
               "southwest" : {
                  "lat" : 35.9956829,
                  "lng" : -95.774704
               }
            }
         },
         "place_id" : "ChIJfeMiSNXmwIcRcr1mBFnEW7U",
         "types" : [ "administrative_area_level_1", "political" ]
      },
      {
         "address_components" : [
            {
               "long_name" : "United States",
               "short_name" : "US",
               "types" : [ "country", "political" ]
            }
         ],
         "formatted_address" : "United States",
         "geometry" : {
            "bounds" : {
               "northeast" : {
                  "lat" : 71.5388001,
                  "lng" : -66.885417
               },
               "southwest" : {
                  "lat" : 18.7763,
                  "lng" : 170.5957
               }
            },
            "location" : {
               "lat" : 37.09024,
               "lng" : -95.712891
            },
            "location_type" : "APPROXIMATE",
            "viewport" : {
               "northeast" : {
                  "lat" : 71.5388001,
                  "lng" : -66.885417
               },
               "southwest" : {
                  "lat" : 18.7763,
                  "lng" : 170.5957
               }
            }
         },
         "place_id" : "ChIJCzYy5IS16lQRQrfeQ5K5Oxw",
         "types" : [ "country", "political" ]
      }
   ],
   "status" : "OK"
}
