{
   "plus_code" : {
      "compound_code" : "RJFH+6V Phường 15, Tân Bình, Hồ Chí Minh, Vietnam",
      "global_code" : "7P28RJFH+6V"
   },
   "results" : [
      {
         "address_components" : [
            {
               "long_name" : "Phường 15",
               "short_name" : "Phường 15",
               "types" : [ "political", "sublocality", "sublocality_level_1" ]
            },
            {
               "long_name" : "Tân Bình",
               "short_name" : "Tân Bình",
               "types" : [ "administrative_area_level_2", "political" ]
            },
            {
               "long_name" : "Hồ Chí Minh",
               "short_name" : "Hồ Chí Minh",
               "types" : [ "administrative_area_level_1", "political" ]
            },
            {
               "long_name" : "Vietnam",
               "short_name" : "VN",
               "types" : [ "country", "political" ]
            }
         ],
         "formatted_address" : "Phường 15, Tân Bình, Hồ Chí Minh, Vietnam",
         "geometry" : {
            "bounds" : {
               "northeast" : {
                  "lat" : 10.8374447,
                  "lng" : 106.6485464
               },
               "southwest" : {
                  "lat" : 10.8037921,
                  "lng" : 106.6278881
               }
            },
            "location" : {
               "lat" : 10.8225398,
               "lng" : 106.6379724
            },
            "location_type" : "APPROXIMATE",
            "viewport" : {
               "northeast" : {
                  "lat" : 10.8374447,
                  "lng" : 106.6485464
               },
               "southwest" : {
                  "lat" : 10.8037921,
                  "lng" : 106.6278881
               }
            }
         },
         "place_id" : "ChIJ6RTZNhMpdTERgudXp9g60aQ",
         "types" : [ "political", "sublocality", "sublocality_level_1" ]
      },
      {
         "address_components" : [
            {
               "long_name" : "Phường 15",
               "short_name" : "Phường 15",
               "types" : [ "administrative_area_level_3", "political" ]
            },
            {
               "long_name" : "Tân Bình",
               "short_name" : "Tân Bình",
               "types" : [ "administrative_area_level_2", "political" ]
            },
            {
               "long_name" : "Hồ Chí Minh",
               "short_name" : "Hồ Chí Minh",
               "types" : [ "administrative_area_level_1", "political" ]
            },
            {
               "long_name" : "Vietnam",
               "short_name" : "VN",
               "types" : [ "country", "political" ]
            }
         ],
         "formatted_address" : "Phường 15, Tân Bình, Hồ Chí Minh, Vietnam",
         "geometry" : {
            "bounds" : {
               "northeast" : {
                  "lat" : 10.838184,
                  "lng" : 106.678676
               },
               "southwest" : {
                  "lat" : 10.803918,
                  "lng" : 106.62787
               }
            },
            "location" : {
               "lat" : 10.8193278,
               "lng" : 106.6468148
            },
            "location_type" : "APPROXIMATE",
            "viewport" : {
               "northeast" : {
                  "lat" : 10.838184,
                  "lng" : 106.678676
               },
               "southwest" : {
                  "lat" : 10.803918,
                  "lng" : 106.62787
               }
            }
         },
         "place_id" : "ChIJH_TSLxMpdTERZ7WG7TeTY14",
         "types" : [ "administrative_area_level_3", "political" ]
      },
      {
         "address_components" : [
            {
               "long_name" : "Tan Binh",
               "short_name" : "Tan Binh",
               "types" : [ "administrative_area_level_2", "political" ]
            },
            {
               "long_name" : "Ho Chi Minh City",
               "short_name" : "Ho Chi Minh City",
               "types" : [ "administrative_area_level_1", "political" ]
            },
            {
               "long_name" : "Vietnam",
               "short_name" : "VN",
               "types" : [ "country", "political" ]
            }
         ],
         "formatted_address" : "Tan Binh, Ho Chi Minh City, Vietnam",
         "geometry" : {
            "bounds" : {
               "northeast" : {
                  "lat" : 10.838184,
                  "lng" : 106.678676
               },
               "southwest" : {
                  "lat" : 10.768911,
                  "lng" : 106.62787
               }
            },
            "location" : {
               "lat" : 10.8014659,
               "lng" : 106.6525974
            },
            "location_type" : "APPROXIMATE",
            "viewport" : {
               "northeast" : {
                  "lat" : 10.838184,
                  "lng" : 106.678676
               },
               "southwest" : {
                  "lat" : 10.768911,
                  "lng" : 106.62787
               }
            }
         },
         "place_id" : "ChIJczqvGDgpdTERi8wKGNEWjc0",
         "types" : [ "administrative_area_level_2", "political" ]
      },
      {
         "address_components" : [
            {
               "long_name" : "Ho Chi Minh City",
               "short_name" : "Ho Chi Minh City",
               "types" : [ "locality", "political" ]
            },
            {
               "long_name" : "Ho Chi Minh City",
               "short_name" : "Ho Chi Minh City",
               "types" : [ "administrative_area_level_1", "political" ]
            },
            {
               "long_name" : "Vietnam",
               "short_name" : "VN",
               "types" : [ "country", "political" ]
            }
         ],
         "formatted_address" : "Ho Chi Minh City, Vietnam",
         "geometry" : {
            "bounds" : {
               "northeast" : {
                  "lat" : 11.1602136,
                  "lng" : 107.0265769
               },
               "southwest" : {
                  "lat" : 10.3493704,
                  "lng" : 106.3638784
               }
            },
            "location" : {
               "lat" : 10.8230989,
               "lng" : 106.6296638
            },
            "location_type" : "APPROXIMATE",
            "viewport" : {
               "northeast" : {
                  "lat" : 11.1602136,
                  "lng" : 107.0265769
               },
               "southwest" : {
                  "lat" : 10.3493704,
                  "lng" : 106.3638784
               }
            }
         },
         "place_id" : "ChIJ0T2NLikpdTERKxE8d61aX_E",
         "types" : [ "locality", "political" ]
      },
      {
         "address_components" : [
            {
               "long_name" : "Ho Chi Minh City",
               "short_name" : "Ho Chi Minh City",
               "types" : [ "administrative_area_level_1", "political" ]
            },
            {
               "long_name" : "Vietnam",
               "short_name" : "VN",
               "types" : [ "country", "political" ]
            }
         ],
         "formatted_address" : "Ho Chi Minh City, Vietnam",
         "geometry" : {
            "bounds" : {
               "northeast" : {
                  "lat" : 11.160486,
                  "lng" : 107.0115271
               },
               "southwest" : {
                  "lat" : 10.3702489,
                  "lng" : 106.355765
               }
            },
            "location" : {
               "lat" : 10.746903,
               "lng" : 106.676292
            },
            "location_type" : "APPROXIMATE",
            "viewport" : {
               "northeast" : {
                  "lat" : 11.160486,
                  "lng" : 107.0115271
               },
               "southwest" : {
                  "lat" : 10.3702489,
                  "lng" : 106.355765
               }
            }
         },
         "place_id" : "ChIJI9kl2-8udTERFHIryt1Uz0s",
         "types" : [ "administrative_area_level_1", "political" ]
      },
      {
         "address_components" : [
            {
               "long_name" : "Vietnam",
               "short_name" : "VN",
               "types" : [ "country", "political" ]
            }
         ],
         "formatted_address" : "Vietnam",
         "geometry" : {
            "bounds" : {
               "northeast" : {
                  "lat" : 23.3926504,
                  "lng" : 109.6765
               },
               "southwest" : {
                  "lat" : 8.195200099999999,
                  "lng" : 102.1439156
               }
            },
            "location" : {
               "lat" : 14.058324,
               "lng" : 108.277199
            },
            "location_type" : "APPROXIMATE",
            "viewport" : {
               "northeast" : {
                  "lat" : 23.3926504,
                  "lng" : 109.6765
               },
               "southwest" : {
                  "lat" : 8.195200099999999,
                  "lng" : 102.1439156
               }
            }
         },
         "place_id" : "ChIJXx5qc016FTERvmL-4smwO7A",
         "types" : [ "country", "political" ]
      }
   ],
   "status" : "OK"
}
