{
   "results" : [
      {
         "address_components" : [
            {
               "long_name" : "El Colegio - El Charquito",
               "short_name" : "El Colegio - El Charquito",
               "types" : [ "route" ]
            },
            {
               "long_name" : "Soacha",
               "short_name" : "Soacha",
               "types" : [ "administrative_area_level_2", "political" ]
            },
            {
               "long_name" : "Cundinamarca",
               "short_name" : "Cundinamarca",
               "types" : [ "administrative_area_level_1", "political" ]
            },
            {
               "long_name" : "Colombia",
               "short_name" : "CO",
               "types" : [ "country", "political" ]
            },
            {
               "long_name" : "250057",
               "short_name" : "250057",
               "types" : [ "postal_code" ]
            }
         ],
         "formatted_address" : "El Colegio - El Charquito, Soacha, Cundinamarca, Colombia",
         "geometry" : {
            "bounds" : {
               "northeast" : {
                  "lat" : 4.5816903,
                  "lng" : -74.295384
               },
               "southwest" : {
                  "lat" : 4.5744896,
                  "lng" : -74.29886599999999
               }
            },
            "location" : {
               "lat" : 4.5779239,
               "lng" : -74.29781919999999
            },
            "location_type" : "GEOMETRIC_CENTER",
            "viewport" : {
               "northeast" : {
                  "lat" : 4.5816903,
                  "lng" : -74.295384
               },
               "southwest" : {
                  "lat" : 4.5744896,
                  "lng" : -74.29886599999999
               }
            }
         },
         "place_id" : "ChIJIXJ7IJF0P44RGhCJMnKznOg",
         "types" : [ "route" ]
      },
      {
         "address_components" : [
            {
               "long_name" : "250057",
               "short_name" : "250057",
               "types" : [ "postal_code" ]
            },
            {
               "long_name" : "Soacha",
               "short_name" : "Soacha",
               "types" : [ "administrative_area_level_2", "political" ]
            },
            {
               "long_name" : "Cundinamarca",
               "short_name" : "Cundinamarca",
               "types" : [ "administrative_area_level_1", "political" ]
            },
            {
               "long_name" : "Colombia",
               "short_name" : "CO",
               "types" : [ "country", "political" ]
            }
         ],
         "formatted_address" : "Soacha, Cundinamarca, Colombia",
         "geometry" : {
            "bounds" : {
               "northeast" : {
                  "lat" : 4.633474,
                  "lng" : -74.220933
               },
               "southwest" : {
                  "lat" : 4.530429,
                  "lng" : -74.306589
               }
            },
            "location" : {
               "lat" : 4.581508299999999,
               "lng" : -74.27661859999999
            },
            "location_type" : "APPROXIMATE",
            "viewport" : {
               "northeast" : {
                  "lat" : 4.633474,
                  "lng" : -74.220933
               },
               "southwest" : {
                  "lat" : 4.530429,
                  "lng" : -74.306589
               }
            }
         },
         "place_id" : "ChIJ-dOIuQJ1P44RgGcVkWDUKMA",
         "types" : [ "postal_code" ]
      },
      {
         "address_components" : [
            {
               "long_name" : "Soacha",
               "short_name" : "Soacha",
               "types" : [ "administrative_area_level_2", "political" ]
            },
            {
               "long_name" : "Cundinamarca",
               "short_name" : "Cundinamarca",
               "types" : [ "administrative_area_level_1", "political" ]
            },
            {
               "long_name" : "Colombia",
               "short_name" : "CO",
               "types" : [ "country", "political" ]
            }
         ],
         "formatted_address" : "Soacha, Cundinamarca, Colombia",
         "geometry" : {
            "bounds" : {
               "northeast" : {
                  "lat" : 4.633528,
                  "lng" : -74.1732741
               },
               "southwest" : {
                  "lat" : 4.382156999999999,
                  "lng" : -74.30657309999999
               }
            },
            "location" : {
               "lat" : 4.581656,
               "lng" : -74.21938290000001
            },
            "location_type" : "APPROXIMATE",
            "viewport" : {
               "northeast" : {
                  "lat" : 4.633528,
                  "lng" : -74.1732741
               },
               "southwest" : {
                  "lat" : 4.382156999999999,
                  "lng" : -74.30657309999999
               }
            }
         },
         "place_id" : "ChIJr3k57n51P44RBCnQHcRTbco",
         "types" : [ "administrative_area_level_2", "political" ]
      },
      {
         "address_components" : [
            {
               "long_name" : "Bogota Metropolitan Area",
               "short_name" : "Bogota Metropolitan Area",
               "types" : [ "political" ]
            },
            {
               "long_name" : "Colombia",
               "short_name" : "CO",
               "types" : [ "country", "political" ]
            }
         ],
         "formatted_address" : "Bogota Metropolitan Area, Colombia",
         "geometry" : {
            "bounds" : {
               "northeast" : {
                  "lat" : 5.15845,
                  "lng" : -73.791026
               },
               "southwest" : {
                  "lat" : 3.726945,
                  "lng" : -74.45332089999999
               }
            },
            "location" : {
               "lat" : 4.6279127,
               "lng" : -74.12399599999999
            },
            "location_type" : "APPROXIMATE",
            "viewport" : {
               "northeast" : {
                  "lat" : 5.15845,
                  "lng" : -73.791026
               },
               "southwest" : {
                  "lat" : 3.726945,
                  "lng" : -74.45332089999999
               }
            }
         },
         "place_id" : "ChIJi7h3Jfp4P44RcrwqNBE3Psg",
         "types" : [ "political" ]
      },
      {
         "address_components" : [
            {
               "long_name" : "Cundinamarca",
               "short_name" : "Cundinamarca",
               "types" : [ "administrative_area_level_1", "political" ]
            },
            {
               "long_name" : "Colombia",
               "short_name" : "CO",
               "types" : [ "country", "political" ]
            }
         ],
         "formatted_address" : "Cundinamarca, Colombia",
         "geometry" : {
            "bounds" : {
               "northeast" : {
                  "lat" : 5.8372401,
                  "lng" : -73.05116
               },
               "southwest" : {
                  "lat" : 3.727751,
                  "lng" : -74.89025199999999
               }
            },
            "location" : {
               "lat" : 5.026002999999999,
               "lng" : -74.0300122
            },
            "location_type" : "APPROXIMATE",
            "viewport" : {
               "northeast" : {
                  "lat" : 5.8372401,
                  "lng" : -73.05116
               },
               "southwest" : {
                  "lat" : 3.727751,
                  "lng" : -74.89025199999999
               }
            }
         },
         "place_id" : "ChIJK68WFusoP44R7QjR-rW8PJM",
         "types" : [ "administrative_area_level_1", "political" ]
      },
      {
         "address_components" : [
            {
               "long_name" : "Colombia",
               "short_name" : "CO",
               "types" : [ "country", "political" ]
            }
         ],
         "formatted_address" : "Colombia",
         "geometry" : {
            "bounds" : {
               "northeast" : {
                  "lat" : 13.5177999,
                  "lng" : -66.8463122
               },
               "southwest" : {
                  "lat" : -4.227109899999999,
                  "lng" : -81.8317
               }
            },
            "location" : {
               "lat" : 4.570868,
               "lng" : -74.29733299999999
            },
            "location_type" : "APPROXIMATE",
            "viewport" : {
               "northeast" : {
                  "lat" : 13.5177999,
                  "lng" : -66.8463122
               },
               "southwest" : {
                  "lat" : -4.227109899999999,
                  "lng" : -81.8317
               }
            }
         },
         "place_id" : "ChIJo5QVrjqkFY4RQKPy7wSaDZo",
         "types" : [ "country", "political" ]
      }
   ],
   "status" : "OK"
}
