{
   "plus_code" : {
      "compound_code" : "9HH7+6J Granton, UK",
      "global_code" : "9C7R9HH7+6J"
   },
   "results" : [
      {
         "address_components" : [
            {
               "long_name" : "United Kingdom",
               "short_name" : "GB",
               "types" : [ "country", "political" ]
            }
         ],
         "formatted_address" : "Mere Beck, United Kingdom",
         "geometry" : {
            "location" : {
               "lat" : 55.378051,
               "lng" : -3.435973
            },
            "location_type" : "GEOMETRIC_CENTER",
            "viewport" : {
               "northeast" : {
                  "lat" : 55.3793999802915,
                  "lng" : -3.434624019708498
               },
               "southwest" : {
                  "lat" : 55.3767020197085,
                  "lng" : -3.437321980291502
               }
            }
         },
         "place_id" : "ChIJNd9UyJdWfUgREg8Os4Kgcgk",
         "plus_code" : {
            "compound_code" : "9HH7+6J Granton, United Kingdom",
            "global_code" : "9C7R9HH7+6J"
         },
         "types" : [ "establishment", "lodging", "point_of_interest" ]
      },
      {
         "address_components" : [
            {
               "long_name" : "DG10 9LT",
               "short_name" : "DG10 9LT",
               "types" : [ "postal_code" ]
            },
            {
               "long_name" : "Moffat",
               "short_name" : "Moffat",
               "types" : [ "postal_town" ]
            },
            {
               "long_name" : "Dumfries and Galloway",
               "short_name" : "Dumfries and Galloway",
               "types" : [ "administrative_area_level_2", "political" ]
            },
            {
               "long_name" : "Scotland",
               "short_name" : "Scotland",
               "types" : [ "administrative_area_level_1", "political" ]
            },
            {
               "long_name" : "United Kingdom",
               "short_name" : "GB",
               "types" : [ "country", "political" ]
            }
         ],
         "formatted_address" : "Moffat DG10 9LT, UK",
         "geometry" : {
            "bounds" : {
               "northeast" : {
                  "lat" : 55.4158941,
                  "lng" : -3.3982235
               },
               "southwest" : {
                  "lat" : 55.3692596,
                  "lng" : -3.4970627
               }
            },
            "location" : {
               "lat" : 55.3839167,
               "lng" : -3.4664691
            },
            "location_type" : "APPROXIMATE",
            "viewport" : {
               "northeast" : {
                  "lat" : 55.4158941,
                  "lng" : -3.3982235
               },
               "southwest" : {
                  "lat" : 55.3692596,
                  "lng" : -3.4970627
               }
            }
         },
         "place_id" : "ChIJp21M5yRUfUgRSaUOzTMtBb8",
         "types" : [ "postal_code" ]
      },
      {
         "address_components" : [
            {
               "long_name" : "DG10",
               "short_name" : "DG10",
               "types" : [ "postal_code", "postal_code_prefix" ]
            },
            {
               "long_name" : "Moffat",
               "short_name" : "Moffat",
               "types" : [ "postal_town" ]
            },
            {
               "long_name" : "Dumfries and Galloway",
               "short_name" : "Dumfries and Galloway",
               "types" : [ "administrative_area_level_2", "political" ]
            },
            {
               "long_name" : "Scotland",
               "short_name" : "Scotland",
               "types" : [ "administrative_area_level_1", "political" ]
            },
            {
               "long_name" : "United Kingdom",
               "short_name" : "GB",
               "types" : [ "country", "political" ]
            }
         ],
         "formatted_address" : "Moffat DG10, UK",
         "geometry" : {
            "bounds" : {
               "northeast" : {
                  "lat" : 55.4449905,
                  "lng" : -3.243902
               },
               "southwest" : {
                  "lat" : 55.2232849,
                  "lng" : -3.6220292
               }
            },
            "location" : {
               "lat" : 55.3329994,
               "lng" : -3.4187768
            },
            "location_type" : "APPROXIMATE",
            "viewport" : {
               "northeast" : {
                  "lat" : 55.4449905,
                  "lng" : -3.243902
               },
               "southwest" : {
                  "lat" : 55.2232849,
                  "lng" : -3.6220292
               }
            }
         },
         "place_id" : "ChIJ15kX_dpNfUgRfALzfG5oQiY",
         "types" : [ "postal_code", "postal_code_prefix" ]
      },
      {
         "address_components" : [
            {
               "long_name" : "Moffat",
               "short_name" : "Moffat",
               "types" : [ "postal_town" ]
            },
            {
               "long_name" : "Dumfries and Galloway",
               "short_name" : "Dumfries and Galloway",
               "types" : [ "administrative_area_level_2", "political" ]
            },
            {
               "long_name" : "Scotland",
               "short_name" : "Scotland",
               "types" : [ "administrative_area_level_1", "political" ]
            },
            {
               "long_name" : "United Kingdom",
               "short_name" : "GB",
               "types" : [ "country", "political" ]
            },
            {
               "long_name" : "DG10",
               "short_name" : "DG10",
               "types" : [ "postal_code", "postal_code_prefix" ]
            }
         ],
         "formatted_address" : "Moffat DG10, UK",
         "geometry" : {
            "bounds" : {
               "northeast" : {
                  "lat" : 55.4449905,
                  "lng" : -3.243902
               },
               "southwest" : {
                  "lat" : 55.2232849,
                  "lng" : -3.6220292
               }
            },
            "location" : {
               "lat" : 55.3329994,
               "lng" : -3.4187768
            },
            "location_type" : "APPROXIMATE",
            "viewport" : {
               "northeast" : {
                  "lat" : 55.4449905,
                  "lng" : -3.243902
               },
               "southwest" : {
                  "lat" : 55.2232849,
                  "lng" : -3.6220292
               }
            }
         },
         "place_id" : "ChIJY_9RykJRfUgRfFHQQrHiD44",
         "types" : [ "postal_town" ]
      },
      {
         "address_components" : [
            {
               "long_name" : "Dumfries and Galloway",
               "short_name" : "Dumfries and Galloway",
               "types" : [ "administrative_area_level_2", "political" ]
            },
            {
               "long_name" : "Scotland",
               "short_name" : "Scotland",
               "types" : [ "administrative_area_level_1", "political" ]
            },
            {
               "long_name" : "United Kingdom",
               "short_name" : "GB",
               "types" : [ "country", "political" ]
            }
         ],
         "formatted_address" : "Dumfries and Galloway, UK",
         "geometry" : {
            "bounds" : {
               "northeast" : {
                  "lat" : 55.46405009999999,
                  "lng" : -2.8573637
               },
               "southwest" : {
                  "lat" : 54.6332381,
                  "lng" : -5.187653699999999
               }
            },
            "location" : {
               "lat" : 55.0706286,
               "lng" : -3.604998
            },
            "location_type" : "APPROXIMATE",
            "viewport" : {
               "northeast" : {
                  "lat" : 55.46405009999999,
                  "lng" : -2.8573637
               },
               "southwest" : {
                  "lat" : 54.6332381,
                  "lng" : -5.187653699999999
               }
            }
         },
         "place_id" : "ChIJNb41SxLKYkgRqoCDQGd-en0",
         "types" : [ "administrative_area_level_2", "political" ]
      },
      {
         "address_components" : [
            {
               "long_name" : "Scotland",
               "short_name" : "Scotland",
               "types" : [ "administrative_area_level_1", "political" ]
            },
            {
               "long_name" : "United Kingdom",
               "short_name" : "GB",
               "types" : [ "country", "political" ]
            }
         ],
         "formatted_address" : "Scotland, UK",
         "geometry" : {
            "bounds" : {
               "northeast" : {
                  "lat" : 60.8607515,
                  "lng" : -0.7246751
               },
               "southwest" : {
                  "lat" : 54.6332381,
                  "lng" : -8.650007199999999
               }
            },
            "location" : {
               "lat" : 56.49067119999999,
               "lng" : -4.2026458
            },
            "location_type" : "APPROXIMATE",
            "viewport" : {
               "northeast" : {
                  "lat" : 60.8607515,
                  "lng" : -0.7246751
               },
               "southwest" : {
                  "lat" : 54.6332381,
                  "lng" : -8.650007199999999
               }
            }
         },
         "place_id" : "ChIJn6HyA8TiYUgRFAfDCdj6wec",
         "types" : [ "administrative_area_level_1", "political" ]
      },
      {
         "address_components" : [
            {
               "long_name" : "United Kingdom",
               "short_name" : "GB",
               "types" : [ "country", "political" ]
            }
         ],
         "formatted_address" : "United Kingdom",
         "geometry" : {
            "bounds" : {
               "northeast" : {
                  "lat" : 60.91569999999999,
                  "lng" : 33.9165549
               },
               "southwest" : {
                  "lat" : 34.5614,
                  "lng" : -8.8988999
               }
            },
            "location" : {
               "lat" : 55.378051,
               "lng" : -3.435973
            },
            "location_type" : "APPROXIMATE",
            "viewport" : {
               "northeast" : {
                  "lat" : 60.91569999999999,
                  "lng" : 33.9165549
               },
               "southwest" : {
                  "lat" : 34.5614,
                  "lng" : -8.8988999
               }
            }
         },
         "place_id" : "ChIJqZHHQhE7WgIReiWIMkOg-MQ",
         "types" : [ "country", "political" ]
      }
   ],
   "status" : "OK"
}
