{
   "plus_code" : {
      "compound_code" : "MXX6+46 Taiwan, 南投縣信義鄉巒安堂",
      "global_code" : "7QM2MXX6+46"
   },
   "results" : [
      {
         "address_components" : [
            {
               "long_name" : "Taiwan",
               "short_name" : "TW",
               "types" : [ "country", "political" ]
            }
         ],
         "formatted_address" : "Taiwan, 台灣",
         "geometry" : {
            "location" : {
               "lat" : 23.69781,
               "lng" : 120.960515
            },
            "location_type" : "GEOMETRIC_CENTER",
            "viewport" : {
               "northeast" : {
                  "lat" : 23.6991589802915,
                  "lng" : 120.9618639802915
               },
               "southwest" : {
                  "lat" : 23.6964610197085,
                  "lng" : 120.9591660197085
               }
            }
         },
         "place_id" : "ChIJXW4IH78rbzQRpvUOVn2DWgI",
         "plus_code" : {
            "compound_code" : "MXX6+46 Taiwan, 南投縣信義鄉巒安堂",
            "global_code" : "7QM2MXX6+46"
         },
         "types" : [ "establishment", "point_of_interest" ]
      },
      {
         "address_components" : [
            {
               "long_name" : "人和村",
               "short_name" : "人和村",
               "types" : [ "administrative_area_level_4", "political" ]
            },
            {
               "long_name" : "信義鄉",
               "short_name" : "信義鄉",
               "types" : [ "administrative_area_level_3", "political" ]
            },
            {
               "long_name" : "南投縣",
               "short_name" : "南投縣",
               "types" : [ "administrative_area_level_2", "political" ]
            },
            {
               "long_name" : "Taiwan",
               "short_name" : "TW",
               "types" : [ "country", "political" ]
            },
            {
               "long_name" : "556",
               "short_name" : "556",
               "types" : [ "postal_code" ]
            }
         ],
         "formatted_address" : "556, Taiwan, 南投縣信義鄉人和村",
         "geometry" : {
            "bounds" : {
               "northeast" : {
                  "lat" : 23.7930542,
                  "lng" : 121.0227641
               },
               "southwest" : {
                  "lat" : 23.6504428,
                  "lng" : 120.8696522
               }
            },
            "location" : {
               "lat" : 23.7126695,
               "lng" : 120.9302603
            },
            "location_type" : "APPROXIMATE",
            "viewport" : {
               "northeast" : {
                  "lat" : 23.7930542,
                  "lng" : 121.0227641
               },
               "southwest" : {
                  "lat" : 23.6504428,
                  "lng" : 120.8696522
               }
            }
         },
         "place_id" : "ChIJ1Wwx9_oqbzQROL8z430aQfU",
         "types" : [ "administrative_area_level_4", "political" ]
      },
      {
         "address_components" : [
            {
               "long_name" : "Xinyi Township",
               "short_name" : "Xinyi Township",
               "types" : [ "administrative_area_level_3", "political" ]
            },
            {
               "long_name" : "Nantou County",
               "short_name" : "Nantou County",
               "types" : [ "administrative_area_level_2", "political" ]
            },
            {
               "long_name" : "Taiwan",
               "short_name" : "TW",
               "types" : [ "country", "political" ]
            },
            {
               "long_name" : "556",
               "short_name" : "556",
               "types" : [ "postal_code" ]
            }
         ],
         "formatted_address" : "Xinyi Township, Nantou County, Taiwan 556",
         "geometry" : {
            "bounds" : {
               "northeast" : {
                  "lat" : 23.8647835,
                  "lng" : 121.2412328
               },
               "southwest" : {
                  "lat" : 23.435385,
                  "lng" : 120.8039398
               }
            },
            "location" : {
               "lat" : 23.6679756,
               "lng" : 120.9876321
            },
            "location_type" : "APPROXIMATE",
            "viewport" : {
               "northeast" : {
                  "lat" : 23.8647835,
                  "lng" : 121.2412328
               },
               "southwest" : {
                  "lat" : 23.435385,
                  "lng" : 120.8039398
               }
            }
         },
         "place_id" : "ChIJGWlVUIUubzQRNFe16IdHtno",
         "types" : [ "administrative_area_level_3", "political" ]
      },
      {
         "address_components" : [
            {
               "long_name" : "556",
               "short_name" : "556",
               "types" : [ "postal_code" ]
            },
            {
               "long_name" : "Xinyi Township",
               "short_name" : "Xinyi Township",
               "types" : [ "administrative_area_level_3", "political" ]
            },
            {
               "long_name" : "Nantou County",
               "short_name" : "Nantou County",
               "types" : [ "administrative_area_level_2", "political" ]
            },
            {
               "long_name" : "Taiwan",
               "short_name" : "TW",
               "types" : [ "country", "political" ]
            }
         ],
         "formatted_address" : "Xinyi Township, Nantou County, Taiwan 556",
         "geometry" : {
            "bounds" : {
               "northeast" : {
                  "lat" : 23.8647835,
                  "lng" : 121.2412328
               },
               "southwest" : {
                  "lat" : 23.435385,
                  "lng" : 120.8039398
               }
            },
            "location" : {
               "lat" : 23.6679756,
               "lng" : 120.9876321
            },
            "location_type" : "APPROXIMATE",
            "viewport" : {
               "northeast" : {
                  "lat" : 23.8647835,
                  "lng" : 121.2412328
               },
               "southwest" : {
                  "lat" : 23.435385,
                  "lng" : 120.8039398
               }
            }
         },
         "place_id" : "ChIJk0bgUIUubzQR5DWKBGsAWJQ",
         "types" : [ "postal_code" ]
      },
      {
         "address_components" : [
            {
               "long_name" : "Nantou County",
               "short_name" : "Nantou County",
               "types" : [ "administrative_area_level_2", "political" ]
            },
            {
               "long_name" : "Taiwan",
               "short_name" : "TW",
               "types" : [ "country", "political" ]
            }
         ],
         "formatted_address" : "Nantou County, Taiwan",
         "geometry" : {
            "bounds" : {
               "northeast" : {
                  "lat" : 24.2463089,
                  "lng" : 121.3494752
               },
               "southwest" : {
                  "lat" : 23.435385,
                  "lng" : 120.6155614
               }
            },
            "location" : {
               "lat" : 23.9609981,
               "lng" : 120.9718638
            },
            "location_type" : "APPROXIMATE",
            "viewport" : {
               "northeast" : {
                  "lat" : 24.2463089,
                  "lng" : 121.3494752
               },
               "southwest" : {
                  "lat" : 23.435385,
                  "lng" : 120.6155614
               }
            }
         },
         "place_id" : "ChIJrUldGqrWaDQR2vYXX6n7SBM",
         "types" : [ "administrative_area_level_2", "political" ]
      },
      {
         "address_components" : [
            {
               "long_name" : "Taiwan Province",
               "short_name" : "Taiwan Province",
               "types" : [ "administrative_area_level_1", "political" ]
            },
            {
               "long_name" : "Taiwan",
               "short_name" : "TW",
               "types" : [ "country", "political" ]
            }
         ],
         "formatted_address" : "Taiwan Province, Taiwan",
         "geometry" : {
            "bounds" : {
               "northeast" : {
                  "lat" : 25.1956281,
                  "lng" : 121.9660124
               },
               "southwest" : {
                  "lat" : 21.8966958,
                  "lng" : 119.3144141
               }
            },
            "location" : {
               "lat" : 22.6158015,
               "lng" : 120.7120023
            },
            "location_type" : "APPROXIMATE",
            "viewport" : {
               "northeast" : {
                  "lat" : 25.1956281,
                  "lng" : 121.9660124
               },
               "southwest" : {
                  "lat" : 21.8966958,
                  "lng" : 119.3144141
               }
            }
         },
         "place_id" : "ChIJoSFawR-waDQR-6m5DFTfH-8",
         "types" : [ "administrative_area_level_1", "political" ]
      },
      {
         "address_components" : [
            {
               "long_name" : "Taiwan",
               "short_name" : "TW",
               "types" : [ "country", "political" ]
            }
         ],
         "formatted_address" : "Taiwan",
         "geometry" : {
            "bounds" : {
               "northeast" : {
                  "lat" : 26.4545,
                  "lng" : 123.5021012
               },
               "southwest" : {
                  "lat" : 20.5170001,
                  "lng" : 116.6665
               }
            },
            "location" : {
               "lat" : 23.69781,
               "lng" : 120.960515
            },
            "location_type" : "APPROXIMATE",
            "viewport" : {
               "northeast" : {
                  "lat" : 26.4545,
                  "lng" : 123.5021012
               },
               "southwest" : {
                  "lat" : 20.5170001,
                  "lng" : 116.6665
               }
            }
         },
         "place_id" : "ChIJL1cHXAbzbjQRaVScvwTwEec",
         "types" : [ "country", "political" ]
      }
   ],
   "status" : "OK"
}
