{
   "plus_code" : {
      "compound_code" : "G93R+PJ Cleveland, OH, USA",
      "global_code" : "86HWG93R+PJ"
   },
   "results" : [
      {
         "address_components" : [
            {
               "long_name" : "10900",
               "short_name" : "10900",
               "types" : [ "street_number" ]
            },
            {
               "long_name" : "Euclid Avenue",
               "short_name" : "Euclid Ave",
               "types" : [ "route" ]
            },
            {
               "long_name" : "University Circle",
               "short_name" : "University Circle",
               "types" : [ "neighborhood", "political" ]
            },
            {
               "long_name" : "Cleveland",
               "short_name" : "Cleveland",
               "types" : [ "locality", "political" ]
            },
            {
               "long_name" : "Cuyahoga County",
               "short_name" : "Cuyahoga County",
               "types" : [ "administrative_area_level_2", "political" ]
            },
            {
               "long_name" : "Ohio",
               "short_name" : "OH",
               "types" : [ "administrative_area_level_1", "political" ]
            },
            {
               "long_name" : "United States",
               "short_name" : "US",
               "types" : [ "country", "political" ]
            },
            {
               "long_name" : "44106",
               "short_name" : "44106",
               "types" : [ "postal_code" ]
            }
         ],
         "formatted_address" : "10900 Euclid Ave, Cleveland, OH 44106, USA",
         "geometry" : {
            "location" : {
               "lat" : 41.5043413,
               "lng" : -81.6083838
            },
            "location_type" : "ROOFTOP",
            "viewport" : {
               "northeast" : {
                  "lat" : 41.5056902802915,
                  "lng" : -81.6070348197085
               },
               "southwest" : {
                  "lat" : 41.5029923197085,
                  "lng" : -81.60973278029151
               }
            }
         },
         "place_id" : "ChIJLRJYNon7MIgRkQuwe-BpkHE",
         "plus_code" : {
            "compound_code" : "G93R+PJ Cleveland, Ohio, United States",
            "global_code" : "86HWG93R+PJ"
         },
         "types" : [ "establishment", "point_of_interest", "university" ]
      },
      {
         "address_components" : [
            {
               "long_name" : "Adelbert Hall",
               "short_name" : "Adelbert Hall",
               "types" : [ "premise" ]
            },
            {
               "long_name" : "2040",
               "short_name" : "2040",
               "types" : [ "street_number" ]
            },
            {
               "long_name" : "Adelbert Road",
               "short_name" : "Adelbert Rd",
               "types" : [ "route" ]
            },
            {
               "long_name" : "University Circle",
               "short_name" : "University Circle",
               "types" : [ "neighborhood", "political" ]
            },
            {
               "long_name" : "Cleveland",
               "short_name" : "Cleveland",
               "types" : [ "locality", "political" ]
            },
            {
               "long_name" : "Cuyahoga County",
               "short_name" : "Cuyahoga County",
               "types" : [ "administrative_area_level_2", "political" ]
            },
            {
               "long_name" : "Ohio",
               "short_name" : "OH",
               "types" : [ "administrative_area_level_1", "political" ]
            },
            {
               "long_name" : "United States",
               "short_name" : "US",
               "types" : [ "country", "political" ]
            },
            {
               "long_name" : "44106",
               "short_name" : "44106",
               "types" : [ "postal_code" ]
            }
         ],
         "formatted_address" : "Adelbert Hall, 2040 Adelbert Rd, Cleveland, OH 44106, USA",
         "geometry" : {
            "bounds" : {
               "northeast" : {
                  "lat" : 41.5050138,
                  "lng" : -81.60799229999999
               },
               "southwest" : {
                  "lat" : 41.5045756,
                  "lng" : -81.60858349999999
               }
            },
            "location" : {
               "lat" : 41.5048184,
               "lng" : -81.60825579999999
            },
            "location_type" : "ROOFTOP",
            "viewport" : {
               "northeast" : {
                  "lat" : 41.50614368029149,
                  "lng" : -81.60693891970848
               },
               "southwest" : {
                  "lat" : 41.5034457197085,
                  "lng" : -81.60963688029149
               }
            }
         },
         "place_id" : "ChIJoY2fuoj7MIgRWR7j_GrGdPg",
         "types" : [ "premise" ]
      },
      {
         "address_components" : [
            {
               "long_name" : "Unnamed Road",
               "short_name" : "Unnamed Road",
               "types" : [ "route" ]
            },
            {
               "long_name" : "University Circle",
               "short_name" : "University Circle",
               "types" : [ "neighborhood", "political" ]
            },
            {
               "long_name" : "Cleveland",
               "short_name" : "Cleveland",
               "types" : [ "locality", "political" ]
            },
            {
               "long_name" : "Cuyahoga County",
               "short_name" : "Cuyahoga County",
               "types" : [ "administrative_area_level_2", "political" ]
            },
            {
               "long_name" : "Ohio",
               "short_name" : "OH",
               "types" : [ "administrative_area_level_1", "political" ]
            },
            {
               "long_name" : "United States",
               "short_name" : "US",
               "types" : [ "country", "political" ]
            },
            {
               "long_name" : "44106",
               "short_name" : "44106",
               "types" : [ "postal_code" ]
            }
         ],
         "formatted_address" : "Unnamed Road, Cleveland, OH 44106, USA",
         "geometry" : {
            "bounds" : {
               "northeast" : {
                  "lat" : 41.5044853,
                  "lng" : -81.6082454
               },
               "southwest" : {
                  "lat" : 41.50407149999999,
                  "lng" : -81.60826589999999
               }
            },
            "location" : {
               "lat" : 41.5042784,
               "lng" : -81.60825559999999
            },
            "location_type" : "GEOMETRIC_CENTER",
            "viewport" : {
               "northeast" : {
                  "lat" : 41.5056273802915,
                  "lng" : -81.60690666970849
               },
               "southwest" : {
                  "lat" : 41.5029294197085,
                  "lng" : -81.6096046302915
               }
            }
         },
         "place_id" : "ChIJPREypoj7MIgRsJEcLYYS2Yc",
         "types" : [ "route" ]
      },
      {
         "address_components" : [
            {
               "long_name" : "University Circle",
               "short_name" : "University Circle",
               "types" : [ "neighborhood", "political" ]
            },
            {
               "long_name" : "Cleveland",
               "short_name" : "Cleveland",
               "types" : [ "locality", "political" ]
            },
            {
               "long_name" : "Cuyahoga County",
               "short_name" : "Cuyahoga County",
               "types" : [ "administrative_area_level_2", "political" ]
            },
            {
               "long_name" : "Ohio",
               "short_name" : "OH",
               "types" : [ "administrative_area_level_1", "political" ]
            },
            {
               "long_name" : "United States",
               "short_name" : "US",
               "types" : [ "country", "political" ]
            }
         ],
         "formatted_address" : "University Circle, Cleveland, OH, USA",
         "geometry" : {
            "bounds" : {
               "northeast" : {
                  "lat" : 41.5177389,
                  "lng" : -81.59442009999999
               },
               "southwest" : {
                  "lat" : 41.4891758,
                  "lng" : -81.61543469999999
               }
            },
            "location" : {
               "lat" : 41.5091257,
               "lng" : -81.6089873
            },
            "location_type" : "APPROXIMATE",
            "viewport" : {
               "northeast" : {
                  "lat" : 41.5177389,
                  "lng" : -81.59442009999999
               },
               "southwest" : {
                  "lat" : 41.4891758,
                  "lng" : -81.61543469999999
               }
            }
         },
         "place_id" : "ChIJdYQRjIj7MIgRBvRhCnx1z4s",
         "types" : [ "neighborhood", "political" ]
      },
      {
         "address_components" : [
            {
               "long_name" : "44106",
               "short_name" : "44106",
               "types" : [ "postal_code" ]
            },
            {
               "long_name" : "Cleveland",
               "short_name" : "Cleveland",
               "types" : [ "locality", "political" ]
            },
            {
               "long_name" : "Cuyahoga County",
               "short_name" : "Cuyahoga County",
               "types" : [ "administrative_area_level_2", "political" ]
            },
            {
               "long_name" : "Ohio",
               "short_name" : "OH",
               "types" : [ "administrative_area_level_1", "political" ]
            },
            {
               "long_name" : "United States",
               "short_name" : "US",
               "types" : [ "country", "political" ]
            }
         ],
         "formatted_address" : "Cleveland, OH 44106, USA",
         "geometry" : {
            "bounds" : {
               "northeast" : {
                  "lat" : 41.523641,
                  "lng" : -81.5799469
               },
               "southwest" : {
                  "lat" : 41.49023400000001,
                  "lng" : -81.62962379999999
               }
            },
            "location" : {
               "lat" : 41.5091257,
               "lng" : -81.6089873
            },
            "location_type" : "APPROXIMATE",
            "viewport" : {
               "northeast" : {
                  "lat" : 41.523641,
                  "lng" : -81.5799469
               },
               "southwest" : {
                  "lat" : 41.49023400000001,
                  "lng" : -81.62962379999999
               }
            }
         },
         "place_id" : "ChIJvTAXVYj7MIgRHD1EO49EXrg",
         "postcode_localities" : [ "Cleveland", "Cleveland Heights" ],
         "types" : [ "postal_code" ]
      },
      {
         "address_components" : [
            {
               "long_name" : "Cleveland",
               "short_name" : "Cleveland",
               "types" : [ "locality", "political" ]
            },
            {
               "long_name" : "Cuyahoga County",
               "short_name" : "Cuyahoga County",
               "types" : [ "administrative_area_level_2", "political" ]
            },
            {
               "long_name" : "Ohio",
               "short_name" : "OH",
               "types" : [ "administrative_area_level_1", "political" ]
            },
            {
               "long_name" : "United States",
               "short_name" : "US",
               "types" : [ "country", "political" ]
            }
         ],
         "formatted_address" : "Cleveland, OH, USA",
         "geometry" : {
            "bounds" : {
               "northeast" : {
                  "lat" : 41.604436,
                  "lng" : -81.5327439
               },
               "southwest" : {
                  "lat" : 41.390628,
                  "lng" : -81.87897599999999
               }
            },
            "location" : {
               "lat" : 41.49932,
               "lng" : -81.6943605
            },
            "location_type" : "APPROXIMATE",
            "viewport" : {
               "northeast" : {
                  "lat" : 41.604436,
                  "lng" : -81.5327439
               },
               "southwest" : {
                  "lat" : 41.390628,
                  "lng" : -81.87897599999999
               }
            }
         },
         "place_id" : "ChIJLWto4y7vMIgRQhhi91XLBO0",
         "types" : [ "locality", "political" ]
      },
      {
         "address_components" : [
            {
               "long_name" : "Cuyahoga County",
               "short_name" : "Cuyahoga County",
               "types" : [ "administrative_area_level_2", "political" ]
            },
            {
               "long_name" : "Ohio",
               "short_name" : "OH",
               "types" : [ "administrative_area_level_1", "political" ]
            },
            {
               "long_name" : "United States",
               "short_name" : "US",
               "types" : [ "country", "political" ]
            }
         ],
         "formatted_address" : "Cuyahoga County, OH, USA",
         "geometry" : {
            "bounds" : {
               "northeast" : {
                  "lat" : 42.0964021,
                  "lng" : -81.37477179999999
               },
               "southwest" : {
                  "lat" : 41.27504400000001,
                  "lng" : -81.971262
               }
            },
            "location" : {
               "lat" : 41.433923,
               "lng" : -81.67582
            },
            "location_type" : "APPROXIMATE",
            "viewport" : {
               "northeast" : {
                  "lat" : 42.0964021,
                  "lng" : -81.37477179999999
               },
               "southwest" : {
                  "lat" : 41.27504400000001,
                  "lng" : -81.971262
               }
            }
         },
         "place_id" : "ChIJi7Vw1sX5MIgRatMgBe159Z8",
         "types" : [ "administrative_area_level_2", "political" ]
      },
      {
         "address_components" : [
            {
               "long_name" : "Ohio",
               "short_name" : "Ohio",
               "types" : [ "administrative_area_level_1", "political" ]
            },
            {
               "long_name" : "United States",
               "short_name" : "US",
               "types" : [ "country", "political" ]
            }
         ],
         "formatted_address" : "Ohio, USA",
         "geometry" : {
            "bounds" : {
               "northeast" : {
                  "lat" : 42.327132,
                  "lng" : -80.51819999999999
               },
               "southwest" : {
                  "lat" : 38.4034229,
                  "lng" : -84.8203049
               }
            },
            "location" : {
               "lat" : 40.4172871,
               "lng" : -82.90712300000001
            },
            "location_type" : "APPROXIMATE",
            "viewport" : {
               "northeast" : {
                  "lat" : 42.327132,
                  "lng" : -80.51819999999999
               },
               "southwest" : {
                  "lat" : 38.4034229,
                  "lng" : -84.8203049
               }
            }
         },
         "place_id" : "ChIJwY5NtXrpNogRFtmfnDlkzeU",
         "types" : [ "administrative_area_level_1", "political" ]
      },
      {
         "address_components" : [
            {
               "long_name" : "United States",
               "short_name" : "US",
               "types" : [ "country", "political" ]
            }
         ],
         "formatted_address" : "United States",
         "geometry" : {
            "bounds" : {
               "northeast" : {
                  "lat" : 71.5388001,
                  "lng" : -66.885417
               },
               "southwest" : {
                  "lat" : 18.7763,
                  "lng" : 170.5957
               }
            },
            "location" : {
               "lat" : 37.09024,
               "lng" : -95.712891
            },
            "location_type" : "APPROXIMATE",
            "viewport" : {
               "northeast" : {
                  "lat" : 71.5388001,
                  "lng" : -66.885417
               },
               "southwest" : {
                  "lat" : 18.7763,
                  "lng" : 170.5957
               }
            }
         },
         "place_id" : "ChIJCzYy5IS16lQRQrfeQ5K5Oxw",
         "types" : [ "country", "political" ]
      }
   ],
   "status" : "OK"
}
