{
   "plus_code" : {
      "compound_code" : "CMCJ+3R Tallahassee, FL, USA",
      "global_code" : "862QCMCJ+3R"
   },
   "results" : [
      {
         "address_components" : [
            {
               "long_name" : "2525",
               "short_name" : "2525",
               "types" : [ "street_number" ]
            },
            {
               "long_name" : "Pottsdamer Street",
               "short_name" : "Pottsdamer St",
               "types" : [ "route" ]
            },
            {
               "long_name" : "Tallahassee",
               "short_name" : "Tallahassee",
               "types" : [ "locality", "political" ]
            },
            {
               "long_name" : "Leon County",
               "short_name" : "Leon County",
               "types" : [ "administrative_area_level_2", "political" ]
            },
            {
               "long_name" : "Florida",
               "short_name" : "FL",
               "types" : [ "administrative_area_level_1", "political" ]
            },
            {
               "long_name" : "United States",
               "short_name" : "US",
               "types" : [ "country", "political" ]
            },
            {
               "long_name" : "32310",
               "short_name" : "32310",
               "types" : [ "postal_code" ]
            },
            {
               "long_name" : "6046",
               "short_name" : "6046",
               "types" : [ "postal_code_suffix" ]
            }
         ],
         "formatted_address" : "2525 Pottsdamer St, Tallahassee, FL 32310, USA",
         "geometry" : {
            "location" : {
               "lat" : 30.42022709999999,
               "lng" : -84.3179414
            },
            "location_type" : "ROOFTOP",
            "viewport" : {
               "northeast" : {
                  "lat" : 30.42157608029149,
                  "lng" : -84.3165924197085
               },
               "southwest" : {
                  "lat" : 30.41887811970849,
                  "lng" : -84.31929038029151
               }
            }
         },
         "place_id" : "ChIJdWZdxNv07IgRrbgqTLyPCQY",
         "plus_code" : {
            "compound_code" : "CMCJ+3R Tallahassee, Florida, United States",
            "global_code" : "862QCMCJ+3R"
         },
         "types" : [ "street_address" ]
      },
      {
         "address_components" : [
            {
               "long_name" : "2525",
               "short_name" : "2525",
               "types" : [ "street_number" ]
            },
            {
               "long_name" : "Pottsdamer Street",
               "short_name" : "Pottsdamer St",
               "types" : [ "route" ]
            },
            {
               "long_name" : "Tallahassee",
               "short_name" : "Tallahassee",
               "types" : [ "locality", "political" ]
            },
            {
               "long_name" : "Leon County",
               "short_name" : "Leon County",
               "types" : [ "administrative_area_level_2", "political" ]
            },
            {
               "long_name" : "Florida",
               "short_name" : "FL",
               "types" : [ "administrative_area_level_1", "political" ]
            },
            {
               "long_name" : "United States",
               "short_name" : "US",
               "types" : [ "country", "political" ]
            },
            {
               "long_name" : "32310",
               "short_name" : "32310",
               "types" : [ "postal_code" ]
            },
            {
               "long_name" : "6046",
               "short_name" : "6046",
               "types" : [ "postal_code_suffix" ]
            }
         ],
         "formatted_address" : "2525 Pottsdamer St, Tallahassee, FL 32310, USA",
         "geometry" : {
            "location" : {
               "lat" : 30.42022709999999,
               "lng" : -84.3179414
            },
            "location_type" : "ROOFTOP",
            "viewport" : {
               "northeast" : {
                  "lat" : 30.42157608029149,
                  "lng" : -84.3165924197085
               },
               "southwest" : {
                  "lat" : 30.41887811970849,
                  "lng" : -84.31929038029151
               }
            }
         },
         "place_id" : "ChIJAVVjxtv07IgRW_ZUW9MjKkw",
         "plus_code" : {
            "compound_code" : "CMCJ+3R Tallahassee, Florida, United States",
            "global_code" : "862QCMCJ+3R"
         },
         "types" : [ "establishment", "point_of_interest", "university" ]
      },
      {
         "address_components" : [
            {
               "long_name" : "2128",
               "short_name" : "2128",
               "types" : [ "street_number" ]
            },
            {
               "long_name" : "Pottsdamer Street",
               "short_name" : "Pottsdamer St",
               "types" : [ "route" ]
            },
            {
               "long_name" : "Tallahassee",
               "short_name" : "Tallahassee",
               "types" : [ "locality", "political" ]
            },
            {
               "long_name" : "Florida",
               "short_name" : "FL",
               "types" : [ "administrative_area_level_1", "political" ]
            },
            {
               "long_name" : "United States",
               "short_name" : "US",
               "types" : [ "country", "political" ]
            },
            {
               "long_name" : "32310",
               "short_name" : "32310",
               "types" : [ "postal_code" ]
            }
         ],
         "formatted_address" : "2128 Pottsdamer St, Tallahassee, FL 32310, USA",
         "geometry" : {
            "location" : {
               "lat" : 30.4196789,
               "lng" : -84.3182329
            },
            "location_type" : "RANGE_INTERPOLATED",
            "viewport" : {
               "northeast" : {
                  "lat" : 30.42102788029149,
                  "lng" : -84.31688391970849
               },
               "southwest" : {
                  "lat" : 30.4183299197085,
                  "lng" : -84.31958188029151
               }
            }
         },
         "place_id" : "Ei4yMTI4IFBvdHRzZGFtZXIgU3QsIFRhbGxhaGFzc2VlLCBGTCAzMjMxMCwgVVNBIhsSGQoUChIJl8zgxdv07IgRwQWRgrSHevcQ0BA",
         "types" : [ "street_address" ]
      },
      {
         "address_components" : [
            {
               "long_name" : "Tallahassee",
               "short_name" : "Tallahassee",
               "types" : [ "locality", "political" ]
            },
            {
               "long_name" : "Leon County",
               "short_name" : "Leon County",
               "types" : [ "administrative_area_level_2", "political" ]
            },
            {
               "long_name" : "Florida",
               "short_name" : "FL",
               "types" : [ "administrative_area_level_1", "political" ]
            },
            {
               "long_name" : "United States",
               "short_name" : "US",
               "types" : [ "country", "political" ]
            }
         ],
         "formatted_address" : "Tallahassee, FL, USA",
         "geometry" : {
            "bounds" : {
               "northeast" : {
                  "lat" : 30.587337,
                  "lng" : -84.12982599999999
               },
               "southwest" : {
                  "lat" : 30.34694199999999,
                  "lng" : -84.3838858
               }
            },
            "location" : {
               "lat" : 30.4382559,
               "lng" : -84.28073289999999
            },
            "location_type" : "APPROXIMATE",
            "viewport" : {
               "northeast" : {
                  "lat" : 30.587337,
                  "lng" : -84.12982599999999
               },
               "southwest" : {
                  "lat" : 30.34694199999999,
                  "lng" : -84.3838858
               }
            }
         },
         "place_id" : "ChIJU0sSh1GK7IgR-LH91HoH7us",
         "types" : [ "locality", "political" ]
      },
      {
         "address_components" : [
            {
               "long_name" : "32310",
               "short_name" : "32310",
               "types" : [ "postal_code" ]
            },
            {
               "long_name" : "Tallahassee",
               "short_name" : "Tallahassee",
               "types" : [ "locality", "political" ]
            },
            {
               "long_name" : "Florida",
               "short_name" : "FL",
               "types" : [ "administrative_area_level_1", "political" ]
            },
            {
               "long_name" : "United States",
               "short_name" : "US",
               "types" : [ "country", "political" ]
            }
         ],
         "formatted_address" : "Tallahassee, FL 32310, USA",
         "geometry" : {
            "bounds" : {
               "northeast" : {
                  "lat" : 30.488344,
                  "lng" : -84.28247999999999
               },
               "southwest" : {
                  "lat" : 30.2672879,
                  "lng" : -84.7366739
               }
            },
            "location" : {
               "lat" : 30.419161,
               "lng" : -84.35049130000002
            },
            "location_type" : "APPROXIMATE",
            "viewport" : {
               "northeast" : {
                  "lat" : 30.488344,
                  "lng" : -84.28247999999999
               },
               "southwest" : {
                  "lat" : 30.2672879,
                  "lng" : -84.7366739
               }
            }
         },
         "place_id" : "ChIJPYNCj2WN7IgRZ15p80m_nwI",
         "types" : [ "postal_code" ]
      },
      {
         "address_components" : [
            {
               "long_name" : "Leon County",
               "short_name" : "Leon County",
               "types" : [ "administrative_area_level_2", "political" ]
            },
            {
               "long_name" : "Florida",
               "short_name" : "FL",
               "types" : [ "administrative_area_level_1", "political" ]
            },
            {
               "long_name" : "United States",
               "short_name" : "US",
               "types" : [ "country", "political" ]
            }
         ],
         "formatted_address" : "Leon County, FL, USA",
         "geometry" : {
            "bounds" : {
               "northeast" : {
                  "lat" : 30.685334,
                  "lng" : -83.97716509999999
               },
               "southwest" : {
                  "lat" : 30.2734381,
                  "lng" : -84.715356
               }
            },
            "location" : {
               "lat" : 30.4906177,
               "lng" : -84.1857115
            },
            "location_type" : "APPROXIMATE",
            "viewport" : {
               "northeast" : {
                  "lat" : 30.685334,
                  "lng" : -83.97716509999999
               },
               "southwest" : {
                  "lat" : 30.2734381,
                  "lng" : -84.715356
               }
            }
         },
         "place_id" : "ChIJU0sSh1GK7IgRd8C1aGi7b8g",
         "types" : [ "administrative_area_level_2", "political" ]
      },
      {
         "address_components" : [
            {
               "long_name" : "Florida",
               "short_name" : "Florida",
               "types" : [ "administrative_area_level_1", "political" ]
            },
            {
               "long_name" : "United States",
               "short_name" : "US",
               "types" : [ "country", "political" ]
            }
         ],
         "formatted_address" : "Florida, USA",
         "geometry" : {
            "bounds" : {
               "northeast" : {
                  "lat" : 31.000968,
                  "lng" : -79.974306
               },
               "southwest" : {
                  "lat" : 24.396308,
                  "lng" : -87.634896
               }
            },
            "location" : {
               "lat" : 27.6648274,
               "lng" : -81.5157535
            },
            "location_type" : "APPROXIMATE",
            "viewport" : {
               "northeast" : {
                  "lat" : 31.000968,
                  "lng" : -79.974306
               },
               "southwest" : {
                  "lat" : 24.396308,
                  "lng" : -87.634896
               }
            }
         },
         "place_id" : "ChIJvypWkWV2wYgR0E7HW9MTLvc",
         "types" : [ "administrative_area_level_1", "political" ]
      },
      {
         "address_components" : [
            {
               "long_name" : "United States",
               "short_name" : "US",
               "types" : [ "country", "political" ]
            }
         ],
         "formatted_address" : "United States",
         "geometry" : {
            "bounds" : {
               "northeast" : {
                  "lat" : 71.5388001,
                  "lng" : -66.885417
               },
               "southwest" : {
                  "lat" : 18.7763,
                  "lng" : 170.5957
               }
            },
            "location" : {
               "lat" : 37.09024,
               "lng" : -95.712891
            },
            "location_type" : "APPROXIMATE",
            "viewport" : {
               "northeast" : {
                  "lat" : 71.5388001,
                  "lng" : -66.885417
               },
               "southwest" : {
                  "lat" : 18.7763,
                  "lng" : 170.5957
               }
            }
         },
         "place_id" : "ChIJCzYy5IS16lQRQrfeQ5K5Oxw",
         "types" : [ "country", "political" ]
      }
   ],
   "status" : "OK"
}
