{
   "results" : [
      {
         "address_components" : [
            {
               "long_name" : "1292",
               "short_name" : "1292",
               "types" : [ "street_number" ]
            },
            {
               "long_name" : "Rua do Lago",
               "short_name" : "R. do Lago",
               "types" : [ "route" ]
            },
            {
               "long_name" : "Butantã",
               "short_name" : "Butantã",
               "types" : [ "political", "sublocality", "sublocality_level_1" ]
            },
            {
               "long_name" : "São Paulo",
               "short_name" : "São Paulo",
               "types" : [ "locality", "political" ]
            },
            {
               "long_name" : "São Paulo",
               "short_name" : "São Paulo",
               "types" : [ "administrative_area_level_2", "political" ]
            },
            {
               "long_name" : "São Paulo",
               "short_name" : "SP",
               "types" : [ "administrative_area_level_1", "political" ]
            },
            {
               "long_name" : "Brazil",
               "short_name" : "BR",
               "types" : [ "country", "political" ]
            },
            {
               "long_name" : "03178-200",
               "short_name" : "03178-200",
               "types" : [ "postal_code" ]
            }
         ],
         "formatted_address" : "R. do Lago, 1292 - Butantã, São Paulo - SP, 03178-200, Brazil",
         "geometry" : {
            "location" : {
               "lat" : -23.5613915,
               "lng" : -46.7289527
            },
            "location_type" : "RANGE_INTERPOLATED",
            "viewport" : {
               "northeast" : {
                  "lat" : -23.5600425197085,
                  "lng" : -46.7276037197085
               },
               "southwest" : {
                  "lat" : -23.5627404802915,
                  "lng" : -46.7303016802915
               }
            }
         },
         "place_id" : "Ej9SLiBkbyBMYWdvLCAxMjkyIC0gQnV0YW50w6MsIFPDo28gUGF1bG8gLSBTUCwgMDMxNzgtMjAwLCBCcmFzaWwiGxIZChQKEgmT2tJFFVbOlBEs0VJ7GkSdXBCMCg",
         "types" : [ "street_address" ]
      },
      {
         "address_components" : [
            {
               "long_name" : "Avenida Professor Luciano Gualberto, 774",
               "short_name" : "Avenida Professor Luciano Gualberto, 774",
               "types" : [
                  "bus_station",
                  "establishment",
                  "point_of_interest",
                  "transit_station"
               ]
            },
            {
               "long_name" : "Butantã",
               "short_name" : "Butantã",
               "types" : [ "political", "sublocality", "sublocality_level_1" ]
            },
            {
               "long_name" : "São Paulo",
               "short_name" : "São Paulo",
               "types" : [ "locality", "political" ]
            },
            {
               "long_name" : "São Paulo",
               "short_name" : "São Paulo",
               "types" : [ "administrative_area_level_2", "political" ]
            },
            {
               "long_name" : "São Paulo",
               "short_name" : "SP",
               "types" : [ "administrative_area_level_1", "political" ]
            },
            {
               "long_name" : "Brazil",
               "short_name" : "BR",
               "types" : [ "country", "political" ]
            },
            {
               "long_name" : "03178-200",
               "short_name" : "03178-200",
               "types" : [ "postal_code" ]
            }
         ],
         "formatted_address" : "Avenida Professor Luciano Gualberto, 774 - Butantã, São Paulo - SP, 03178-200, Brazil",
         "geometry" : {
            "location" : {
               "lat" : -23.5600459,
               "lng" : -46.72853569999999
            },
            "location_type" : "GEOMETRIC_CENTER",
            "viewport" : {
               "northeast" : {
                  "lat" : -23.5586969197085,
                  "lng" : -46.72718671970849
               },
               "southwest" : {
                  "lat" : -23.5613948802915,
                  "lng" : -46.72988468029149
               }
            }
         },
         "place_id" : "ChIJ92if2D9WzpQR-LonPxW9Zgg",
         "types" : [
            "bus_station",
            "establishment",
            "point_of_interest",
            "transit_station"
         ]
      },
      {
         "address_components" : [
            {
               "long_name" : "Butantã",
               "short_name" : "Butantã",
               "types" : [ "political", "sublocality", "sublocality_level_1" ]
            },
            {
               "long_name" : "São Paulo",
               "short_name" : "São Paulo",
               "types" : [ "locality", "political" ]
            },
            {
               "long_name" : "São Paulo",
               "short_name" : "São Paulo",
               "types" : [ "administrative_area_level_2", "political" ]
            },
            {
               "long_name" : "São Paulo",
               "short_name" : "SP",
               "types" : [ "administrative_area_level_1", "political" ]
            },
            {
               "long_name" : "Brazil",
               "short_name" : "BR",
               "types" : [ "country", "political" ]
            },
            {
               "long_name" : "03178-200",
               "short_name" : "03178-200",
               "types" : [ "postal_code" ]
            }
         ],
         "formatted_address" : "Butantã, São Paulo - SP, 03178-200, Brazil",
         "geometry" : {
            "bounds" : {
               "northeast" : {
                  "lat" : -23.5481799,
                  "lng" : -46.7017353
               },
               "southwest" : {
                  "lat" : -23.5797474,
                  "lng" : -46.7493077
               }
            },
            "location" : {
               "lat" : -23.5634872,
               "lng" : -46.7210095
            },
            "location_type" : "APPROXIMATE",
            "viewport" : {
               "northeast" : {
                  "lat" : -23.5481799,
                  "lng" : -46.7017353
               },
               "southwest" : {
                  "lat" : -23.5797474,
                  "lng" : -46.7493077
               }
            }
         },
         "place_id" : "ChIJsRtgEkFWzpQRYZxCnWVzxQA",
         "types" : [ "political", "sublocality", "sublocality_level_1" ]
      },
      {
         "address_components" : [
            {
               "long_name" : "São Paulo",
               "short_name" : "São Paulo",
               "types" : [ "locality", "political" ]
            },
            {
               "long_name" : "São Paulo",
               "short_name" : "São Paulo",
               "types" : [ "administrative_area_level_2", "political" ]
            },
            {
               "long_name" : "State of São Paulo",
               "short_name" : "SP",
               "types" : [ "administrative_area_level_1", "political" ]
            },
            {
               "long_name" : "Brazil",
               "short_name" : "BR",
               "types" : [ "country", "political" ]
            }
         ],
         "formatted_address" : "São Paulo, State of São Paulo, Brazil",
         "geometry" : {
            "bounds" : {
               "northeast" : {
                  "lat" : -23.3566039,
                  "lng" : -46.3650844
               },
               "southwest" : {
                  "lat" : -24.0082209,
                  "lng" : -46.825514
               }
            },
            "location" : {
               "lat" : -23.5505199,
               "lng" : -46.63330939999999
            },
            "location_type" : "APPROXIMATE",
            "viewport" : {
               "northeast" : {
                  "lat" : -23.3566039,
                  "lng" : -46.3650844
               },
               "southwest" : {
                  "lat" : -24.0082209,
                  "lng" : -46.825514
               }
            }
         },
         "place_id" : "ChIJ0WGkg4FEzpQRrlsz_whLqZs",
         "types" : [ "locality", "political" ]
      },
      {
         "address_components" : [
            {
               "long_name" : "05586",
               "short_name" : "05586",
               "types" : [ "postal_code", "postal_code_prefix" ]
            },
            {
               "long_name" : "São Paulo",
               "short_name" : "São Paulo",
               "types" : [ "locality", "political" ]
            },
            {
               "long_name" : "São Paulo",
               "short_name" : "São Paulo",
               "types" : [ "administrative_area_level_2", "political" ]
            },
            {
               "long_name" : "State of São Paulo",
               "short_name" : "SP",
               "types" : [ "administrative_area_level_1", "political" ]
            },
            {
               "long_name" : "Brazil",
               "short_name" : "BR",
               "types" : [ "country", "political" ]
            },
            {
               "long_name" : "03178-200",
               "short_name" : "03178-200",
               "types" : [ "postal_code" ]
            }
         ],
         "formatted_address" : "São Paulo - State of São Paulo, Brazil",
         "geometry" : {
            "bounds" : {
               "northeast" : {
                  "lat" : -23.5604029,
                  "lng" : -46.7267591
               },
               "southwest" : {
                  "lat" : -23.5739137,
                  "lng" : -46.7321051
               }
            },
            "location" : {
               "lat" : -23.5679838,
               "lng" : -46.7297178
            },
            "location_type" : "APPROXIMATE",
            "viewport" : {
               "northeast" : {
                  "lat" : -23.5604029,
                  "lng" : -46.7267591
               },
               "southwest" : {
                  "lat" : -23.5739137,
                  "lng" : -46.7321051
               }
            }
         },
         "place_id" : "ChIJseIr8mlWzpQRcg21j9BoVGo",
         "types" : [ "postal_code", "postal_code_prefix" ]
      },
      {
         "address_components" : [
            {
               "long_name" : "05508-010",
               "short_name" : "05508-010",
               "types" : [ "postal_code" ]
            },
            {
               "long_name" : "Butantã",
               "short_name" : "Butantã",
               "types" : [ "political", "sublocality", "sublocality_level_1" ]
            },
            {
               "long_name" : "São Paulo",
               "short_name" : "São Paulo",
               "types" : [ "locality", "political" ]
            },
            {
               "long_name" : "São Paulo",
               "short_name" : "São Paulo",
               "types" : [ "administrative_area_level_2", "political" ]
            },
            {
               "long_name" : "São Paulo",
               "short_name" : "SP",
               "types" : [ "administrative_area_level_1", "political" ]
            },
            {
               "long_name" : "Brazil",
               "short_name" : "BR",
               "types" : [ "country", "political" ]
            }
         ],
         "formatted_address" : "Butantã, São Paulo - SP, 05508-010, Brazil",
         "geometry" : {
            "bounds" : {
               "northeast" : {
                  "lat" : -23.5517036,
                  "lng" : -46.7212588
               },
               "southwest" : {
                  "lat" : -23.5642896,
                  "lng" : -46.73455209999999
               }
            },
            "location" : {
               "lat" : -23.5604379,
               "lng" : -46.72753549999999
            },
            "location_type" : "APPROXIMATE",
            "viewport" : {
               "northeast" : {
                  "lat" : -23.5517036,
                  "lng" : -46.7212588
               },
               "southwest" : {
                  "lat" : -23.5642896,
                  "lng" : -46.73455209999999
               }
            }
         },
         "place_id" : "ChIJ3bnk0EBWzpQRDruzMXI14NU",
         "types" : [ "postal_code" ]
      },
      {
         "address_components" : [
            {
               "long_name" : "05508-000",
               "short_name" : "05508-000",
               "types" : [ "postal_code" ]
            },
            {
               "long_name" : "Avenida Professor Lineu Prestes",
               "short_name" : "Av. Prof. Lineu Prestes",
               "types" : [ "route" ]
            },
            {
               "long_name" : "Butantã",
               "short_name" : "Butantã",
               "types" : [ "political", "sublocality", "sublocality_level_1" ]
            },
            {
               "long_name" : "São Paulo",
               "short_name" : "São Paulo",
               "types" : [ "locality", "political" ]
            },
            {
               "long_name" : "São Paulo",
               "short_name" : "São Paulo",
               "types" : [ "administrative_area_level_2", "political" ]
            },
            {
               "long_name" : "São Paulo",
               "short_name" : "SP",
               "types" : [ "administrative_area_level_1", "political" ]
            },
            {
               "long_name" : "Brazil",
               "short_name" : "BR",
               "types" : [ "country", "political" ]
            }
         ],
         "formatted_address" : "Av. Prof. Lineu Prestes - Butantã, São Paulo - SP, 05508-000, Brazil",
         "geometry" : {
            "bounds" : {
               "northeast" : {
                  "lat" : -23.5582689,
                  "lng" : -46.7188421
               },
               "southwest" : {
                  "lat" : -23.5744805,
                  "lng" : -46.7430136
               }
            },
            "location" : {
               "lat" : -23.5677919,
               "lng" : -46.7295179
            },
            "location_type" : "APPROXIMATE",
            "viewport" : {
               "northeast" : {
                  "lat" : -23.5582689,
                  "lng" : -46.7188421
               },
               "southwest" : {
                  "lat" : -23.5744805,
                  "lng" : -46.7430136
               }
            }
         },
         "place_id" : "ChIJTfpO6mlWzpQRpTFIWQk6ZYo",
         "types" : [ "postal_code" ]
      },
      {
         "address_components" : [
            {
               "long_name" : "05338-110",
               "short_name" : "05338-110",
               "types" : [ "postal_code" ]
            },
            {
               "long_name" : "Jaguare",
               "short_name" : "Jaguare",
               "types" : [ "political", "sublocality", "sublocality_level_1" ]
            },
            {
               "long_name" : "São Paulo",
               "short_name" : "São Paulo",
               "types" : [ "locality", "political" ]
            },
            {
               "long_name" : "São Paulo",
               "short_name" : "São Paulo",
               "types" : [ "administrative_area_level_2", "political" ]
            },
            {
               "long_name" : "State of São Paulo",
               "short_name" : "SP",
               "types" : [ "administrative_area_level_1", "political" ]
            },
            {
               "long_name" : "Brazil",
               "short_name" : "BR",
               "types" : [ "country", "political" ]
            }
         ],
         "formatted_address" : "Jaguare, São Paulo - State of São Paulo, 05338-110, Brazil",
         "geometry" : {
            "bounds" : {
               "northeast" : {
                  "lat" : -23.5425221,
                  "lng" : -46.6970977
               },
               "southwest" : {
                  "lat" : -23.5869479,
                  "lng" : -46.74905829999999
               }
            },
            "location" : {
               "lat" : -23.5548167,
               "lng" : -46.74613249999999
            },
            "location_type" : "APPROXIMATE",
            "viewport" : {
               "northeast" : {
                  "lat" : -23.5425221,
                  "lng" : -46.6970977
               },
               "southwest" : {
                  "lat" : -23.5869479,
                  "lng" : -46.74905829999999
               }
            }
         },
         "place_id" : "ChIJ39kPPwdWzpQRJkVteaJaPWM",
         "types" : [ "postal_code" ]
      },
      {
         "address_components" : [
            {
               "long_name" : "05508-070",
               "short_name" : "05508-070",
               "types" : [ "postal_code" ]
            },
            {
               "long_name" : "Butantã",
               "short_name" : "Butantã",
               "types" : [ "political", "sublocality", "sublocality_level_1" ]
            },
            {
               "long_name" : "São Paulo",
               "short_name" : "São Paulo",
               "types" : [ "locality", "political" ]
            },
            {
               "long_name" : "São Paulo",
               "short_name" : "São Paulo",
               "types" : [ "administrative_area_level_2", "political" ]
            },
            {
               "long_name" : "São Paulo",
               "short_name" : "SP",
               "types" : [ "administrative_area_level_1", "political" ]
            },
            {
               "long_name" : "Brazil",
               "short_name" : "BR",
               "types" : [ "country", "political" ]
            }
         ],
         "formatted_address" : "Butantã, São Paulo - SP, 05508-070, Brazil",
         "geometry" : {
            "bounds" : {
               "northeast" : {
                  "lat" : -23.5496776,
                  "lng" : -46.7091766
               },
               "southwest" : {
                  "lat" : -23.5744805,
                  "lng" : -46.7478493
               }
            },
            "location" : {
               "lat" : -23.555434,
               "lng" : -46.7333935
            },
            "location_type" : "APPROXIMATE",
            "viewport" : {
               "northeast" : {
                  "lat" : -23.5496776,
                  "lng" : -46.7091766
               },
               "southwest" : {
                  "lat" : -23.5744805,
                  "lng" : -46.7478493
               }
            }
         },
         "place_id" : "ChIJ7Uba9A5WzpQRbwHFXXfjshg",
         "types" : [ "postal_code" ]
      },
      {
         "address_components" : [
            {
               "long_name" : "03178-200",
               "short_name" : "03178-200",
               "types" : [ "postal_code" ]
            },
            {
               "long_name" : "Quarta Parada",
               "short_name" : "Quarta Parada",
               "types" : [ "political", "sublocality", "sublocality_level_1" ]
            },
            {
               "long_name" : "São Paulo",
               "short_name" : "São Paulo",
               "types" : [ "administrative_area_level_2", "political" ]
            },
            {
               "long_name" : "State of São Paulo",
               "short_name" : "SP",
               "types" : [ "administrative_area_level_1", "political" ]
            },
            {
               "long_name" : "Brazil",
               "short_name" : "BR",
               "types" : [ "country", "political" ]
            }
         ],
         "formatted_address" : "Quarta Parada, São Paulo - State of São Paulo, 03178-200, Brazil",
         "geometry" : {
            "bounds" : {
               "northeast" : {
                  "lat" : -23.4757145,
                  "lng" : -46.4008721
               },
               "southwest" : {
                  "lat" : -23.7266334,
                  "lng" : -46.7623591
               }
            },
            "location" : {
               "lat" : -23.5489993,
               "lng" : -46.5844159
            },
            "location_type" : "APPROXIMATE",
            "viewport" : {
               "northeast" : {
                  "lat" : -23.4757145,
                  "lng" : -46.4008721
               },
               "southwest" : {
                  "lat" : -23.7266334,
                  "lng" : -46.7623591
               }
            }
         },
         "place_id" : "ChIJL7i7_8dezpQRGiyhuawfrvQ",
         "types" : [ "postal_code" ]
      },
      {
         "address_components" : [
            {
               "long_name" : "São Paulo",
               "short_name" : "São Paulo",
               "types" : [ "administrative_area_level_2", "political" ]
            },
            {
               "long_name" : "State of São Paulo",
               "short_name" : "SP",
               "types" : [ "administrative_area_level_1", "political" ]
            },
            {
               "long_name" : "Brazil",
               "short_name" : "BR",
               "types" : [ "country", "political" ]
            }
         ],
         "formatted_address" : "São Paulo - State of São Paulo, Brazil",
         "geometry" : {
            "bounds" : {
               "northeast" : {
                  "lat" : -23.356293,
                  "lng" : -46.3650838
               },
               "southwest" : {
                  "lat" : -24.0084309,
                  "lng" : -46.826199
               }
            },
            "location" : {
               "lat" : -23.6503225,
               "lng" : -46.70917670000001
            },
            "location_type" : "APPROXIMATE",
            "viewport" : {
               "northeast" : {
                  "lat" : -23.356293,
                  "lng" : -46.3650838
               },
               "southwest" : {
                  "lat" : -24.0084309,
                  "lng" : -46.826199
               }
            }
         },
         "place_id" : "ChIJ9cXwmIFEzpQR7-ebZCySXMo",
         "types" : [ "administrative_area_level_2", "political" ]
      },
      {
         "address_components" : [
            {
               "long_name" : "State of São Paulo",
               "short_name" : "SP",
               "types" : [ "administrative_area_level_1", "political" ]
            },
            {
               "long_name" : "Brazil",
               "short_name" : "BR",
               "types" : [ "country", "political" ]
            }
         ],
         "formatted_address" : "State of São Paulo, Brazil",
         "geometry" : {
            "bounds" : {
               "northeast" : {
                  "lat" : -19.7796583,
                  "lng" : -44.1613651
               },
               "southwest" : {
                  "lat" : -25.3126231,
                  "lng" : -53.1101046
               }
            },
            "location" : {
               "lat" : -23.5431786,
               "lng" : -46.6291845
            },
            "location_type" : "APPROXIMATE",
            "viewport" : {
               "northeast" : {
                  "lat" : -19.7796583,
                  "lng" : -44.1613651
               },
               "southwest" : {
                  "lat" : -25.3126231,
                  "lng" : -53.1101046
               }
            }
         },
         "place_id" : "ChIJrVgvRn1ZzpQRF3x74eJBUh4",
         "types" : [ "administrative_area_level_1", "political" ]
      },
      {
         "address_components" : [
            {
               "long_name" : "Brazil",
               "short_name" : "BR",
               "types" : [ "country", "political" ]
            }
         ],
         "formatted_address" : "Brazil",
         "geometry" : {
            "bounds" : {
               "northeast" : {
                  "lat" : 5.2717863,
                  "lng" : -28.650543
               },
               "southwest" : {
                  "lat" : -34.0891,
                  "lng" : -73.9828169
               }
            },
            "location" : {
               "lat" : -14.235004,
               "lng" : -51.92528
            },
            "location_type" : "APPROXIMATE",
            "viewport" : {
               "northeast" : {
                  "lat" : 5.2717863,
                  "lng" : -28.650543
               },
               "southwest" : {
                  "lat" : -34.0891,
                  "lng" : -73.9828169
               }
            }
         },
         "place_id" : "ChIJzyjM68dZnAARYz4p8gYVWik",
         "types" : [ "country", "political" ]
      }
   ],
   "status" : "OK"
}
