{
   "plus_code" : {
      "compound_code" : "9XPR+MM Ihiagwa, Nigeria",
      "global_code" : "6FQ89XPR+MM"
   },
   "results" : [
      {
         "address_components" : [
            {
               "long_name" : "460114",
               "short_name" : "460114",
               "types" : [ "postal_code" ]
            },
            {
               "long_name" : "Nigeria",
               "short_name" : "NG",
               "types" : [ "country", "political" ]
            }
         ],
         "formatted_address" : "FUTO, Imo State Owerri West, 460114, Nigeria",
         "geometry" : {
            "location" : {
               "lat" : 5.386632,
               "lng" : 6.991631399999999
            },
            "location_type" : "GEOMETRIC_CENTER",
            "viewport" : {
               "northeast" : {
                  "lat" : 5.387980980291502,
                  "lng" : 6.992980380291502
               },
               "southwest" : {
                  "lat" : 5.385283019708497,
                  "lng" : 6.990282419708497
               }
            }
         },
         "place_id" : "ChIJ63UqSd1dQhAR2oh0R72IF98",
         "plus_code" : {
            "compound_code" : "9XPR+MM Ihiagwa, Nigeria",
            "global_code" : "6FQ89XPR+MM"
         },
         "types" : [ "establishment", "finance", "point_of_interest", "university" ]
      },
      {
         "address_components" : [
            {
               "long_name" : "Otamiri Road",
               "short_name" : "Otamiri Rd",
               "types" : [ "route" ]
            },
            {
               "long_name" : "Ihiagwa",
               "short_name" : "Ihiagwa",
               "types" : [ "locality", "political" ]
            },
            {
               "long_name" : "Owerri West",
               "short_name" : "Owerri West",
               "types" : [ "administrative_area_level_2", "political" ]
            },
            {
               "long_name" : "Imo",
               "short_name" : "IM",
               "types" : [ "administrative_area_level_1", "political" ]
            },
            {
               "long_name" : "Nigeria",
               "short_name" : "NG",
               "types" : [ "country", "political" ]
            }
         ],
         "formatted_address" : "Otamiri Rd, Ihiagwa, Nigeria",
         "geometry" : {
            "bounds" : {
               "northeast" : {
                  "lat" : 5.389082999999999,
                  "lng" : 6.9895915
               },
               "southwest" : {
                  "lat" : 5.3871741,
                  "lng" : 6.988806599999999
               }
            },
            "location" : {
               "lat" : 5.3881286,
               "lng" : 6.989198999999999
            },
            "location_type" : "GEOMETRIC_CENTER",
            "viewport" : {
               "northeast" : {
                  "lat" : 5.389477530291503,
                  "lng" : 6.990548030291502
               },
               "southwest" : {
                  "lat" : 5.386779569708498,
                  "lng" : 6.987850069708498
               }
            }
         },
         "place_id" : "ChIJjznSG8ldQhAR0HTcQIRIYW0",
         "types" : [ "route" ]
      },
      {
         "address_components" : [
            {
               "long_name" : "Ihiagwa",
               "short_name" : "Ihiagwa",
               "types" : [ "locality", "political" ]
            },
            {
               "long_name" : "Owerri West",
               "short_name" : "Owerri West",
               "types" : [ "administrative_area_level_2", "political" ]
            },
            {
               "long_name" : "Imo",
               "short_name" : "IM",
               "types" : [ "administrative_area_level_1", "political" ]
            },
            {
               "long_name" : "Nigeria",
               "short_name" : "NG",
               "types" : [ "country", "political" ]
            }
         ],
         "formatted_address" : "Ihiagwa, Nigeria",
         "geometry" : {
            "bounds" : {
               "northeast" : {
                  "lat" : 5.4325206,
                  "lng" : 7.028675199999999
               },
               "southwest" : {
                  "lat" : 5.3762949,
                  "lng" : 6.9822408
               }
            },
            "location" : {
               "lat" : 5.400635299999999,
               "lng" : 7.012213399999999
            },
            "location_type" : "APPROXIMATE",
            "viewport" : {
               "northeast" : {
                  "lat" : 5.4325206,
                  "lng" : 7.028675199999999
               },
               "southwest" : {
                  "lat" : 5.3762949,
                  "lng" : 6.9822408
               }
            }
         },
         "place_id" : "ChIJf7maQChcQhAR32U4Mxzl-sY",
         "types" : [ "locality", "political" ]
      },
      {
         "address_components" : [
            {
               "long_name" : "Ihiagwa",
               "short_name" : "Ihiagwa",
               "types" : [ "administrative_area_level_3", "political" ]
            },
            {
               "long_name" : "Owerri West",
               "short_name" : "Owerri West",
               "types" : [ "administrative_area_level_2", "political" ]
            },
            {
               "long_name" : "Imo",
               "short_name" : "IM",
               "types" : [ "administrative_area_level_1", "political" ]
            },
            {
               "long_name" : "Nigeria",
               "short_name" : "NG",
               "types" : [ "country", "political" ]
            }
         ],
         "formatted_address" : "Ihiagwa, Nigeria",
         "geometry" : {
            "bounds" : {
               "northeast" : {
                  "lat" : 5.4235628,
                  "lng" : 7.0379725
               },
               "southwest" : {
                  "lat" : 5.381238,
                  "lng" : 6.979031
               }
            },
            "location" : {
               "lat" : 5.4007591,
               "lng" : 7.0014657
            },
            "location_type" : "APPROXIMATE",
            "viewport" : {
               "northeast" : {
                  "lat" : 5.4235628,
                  "lng" : 7.0379725
               },
               "southwest" : {
                  "lat" : 5.381238,
                  "lng" : 6.979031
               }
            }
         },
         "place_id" : "ChIJY-uLQ4JeQhAR_YmElWoEAGg",
         "types" : [ "administrative_area_level_3", "political" ]
      },
      {
         "address_components" : [
            {
               "long_name" : "Owerri West",
               "short_name" : "Owerri West",
               "types" : [ "administrative_area_level_2", "political" ]
            },
            {
               "long_name" : "Imo",
               "short_name" : "IM",
               "types" : [ "administrative_area_level_1", "political" ]
            },
            {
               "long_name" : "Nigeria",
               "short_name" : "NG",
               "types" : [ "country", "political" ]
            }
         ],
         "formatted_address" : "Owerri West, Nigeria",
         "geometry" : {
            "bounds" : {
               "northeast" : {
                  "lat" : 5.5516912,
                  "lng" : 7.061473599999999
               },
               "southwest" : {
                  "lat" : 5.2660836,
                  "lng" : 6.8774003
               }
            },
            "location" : {
               "lat" : 5.4165507,
               "lng" : 6.985347399999999
            },
            "location_type" : "APPROXIMATE",
            "viewport" : {
               "northeast" : {
                  "lat" : 5.5516912,
                  "lng" : 7.061473599999999
               },
               "southwest" : {
                  "lat" : 5.2660836,
                  "lng" : 6.8774003
               }
            }
         },
         "place_id" : "ChIJGWclK1pcQhARvvJegZM2_PQ",
         "types" : [ "administrative_area_level_2", "political" ]
      },
      {
         "address_components" : [
            {
               "long_name" : "Imo",
               "short_name" : "Imo",
               "types" : [ "administrative_area_level_1", "political" ]
            },
            {
               "long_name" : "Nigeria",
               "short_name" : "NG",
               "types" : [ "country", "political" ]
            }
         ],
         "formatted_address" : "Imo, Nigeria",
         "geometry" : {
            "bounds" : {
               "northeast" : {
                  "lat" : 5.939476099999999,
                  "lng" : 7.431560699999999
               },
               "southwest" : {
                  "lat" : 5.1951668,
                  "lng" : 6.6383424
               }
            },
            "location" : {
               "lat" : 5.6038994,
               "lng" : 7.0068393
            },
            "location_type" : "APPROXIMATE",
            "viewport" : {
               "northeast" : {
                  "lat" : 5.939476099999999,
                  "lng" : 7.431560699999999
               },
               "southwest" : {
                  "lat" : 5.1951668,
                  "lng" : 6.6383424
               }
            }
         },
         "place_id" : "ChIJ_ylxZRmOQhAR2VN1FpalMZQ",
         "types" : [ "administrative_area_level_1", "political" ]
      },
      {
         "address_components" : [
            {
               "long_name" : "Nigeria",
               "short_name" : "NG",
               "types" : [ "country", "political" ]
            }
         ],
         "formatted_address" : "Nigeria",
         "geometry" : {
            "bounds" : {
               "northeast" : {
                  "lat" : 13.8856449,
                  "lng" : 14.677982
               },
               "southwest" : {
                  "lat" : 4.1821001,
                  "lng" : 2.676932
               }
            },
            "location" : {
               "lat" : 9.081999,
               "lng" : 8.675276999999999
            },
            "location_type" : "APPROXIMATE",
            "viewport" : {
               "northeast" : {
                  "lat" : 13.8856449,
                  "lng" : 14.677982
               },
               "southwest" : {
                  "lat" : 4.1821001,
                  "lng" : 2.676932
               }
            }
         },
         "place_id" : "ChIJDY2kfa8LThARyAvFaEH-qJk",
         "types" : [ "country", "political" ]
      }
   ],
   "status" : "OK"
}
