{
   "plus_code" : {
      "compound_code" : "H693+89 Reno, NV, USA",
      "global_code" : "85F2H693+89"
   },
   "results" : [
      {
         "address_components" : [
            {
               "long_name" : "2350",
               "short_name" : "2350",
               "types" : [ "street_number" ]
            },
            {
               "long_name" : "Raggio Parkway",
               "short_name" : "Raggio Pkwy",
               "types" : [ "route" ]
            },
            {
               "long_name" : "Northeast Reno",
               "short_name" : "Northeast Reno",
               "types" : [ "neighborhood", "political" ]
            },
            {
               "long_name" : "Reno",
               "short_name" : "Reno",
               "types" : [ "locality", "political" ]
            },
            {
               "long_name" : "Washoe County",
               "short_name" : "Washoe County",
               "types" : [ "administrative_area_level_2", "political" ]
            },
            {
               "long_name" : "Nevada",
               "short_name" : "NV",
               "types" : [ "administrative_area_level_1", "political" ]
            },
            {
               "long_name" : "United States",
               "short_name" : "US",
               "types" : [ "country", "political" ]
            },
            {
               "long_name" : "89512",
               "short_name" : "89512",
               "types" : [ "postal_code" ]
            }
         ],
         "formatted_address" : "2350 Raggio Pkwy, Reno, NV 89512, USA",
         "geometry" : {
            "bounds" : {
               "northeast" : {
                  "lat" : 39.5683833,
                  "lng" : -119.7964557
               },
               "southwest" : {
                  "lat" : 39.5681963,
                  "lng" : -119.796803
               }
            },
            "location" : {
               "lat" : 39.5682739,
               "lng" : -119.7965917
            },
            "location_type" : "ROOFTOP",
            "viewport" : {
               "northeast" : {
                  "lat" : 39.5696387802915,
                  "lng" : -119.7952803697085
               },
               "southwest" : {
                  "lat" : 39.5669408197085,
                  "lng" : -119.7979783302915
               }
            }
         },
         "place_id" : "ChIJ0XtqkXhHmYAROCNlzw_LMEk",
         "types" : [ "premise" ]
      },
      {
         "address_components" : [
            {
               "long_name" : "2350",
               "short_name" : "2350",
               "types" : [ "street_number" ]
            },
            {
               "long_name" : "Raggio Parkway",
               "short_name" : "Raggio Pkwy",
               "types" : [ "route" ]
            },
            {
               "long_name" : "Northeast Reno",
               "short_name" : "Northeast Reno",
               "types" : [ "neighborhood", "political" ]
            },
            {
               "long_name" : "Reno",
               "short_name" : "Reno",
               "types" : [ "locality", "political" ]
            },
            {
               "long_name" : "Washoe County",
               "short_name" : "Washoe County",
               "types" : [ "administrative_area_level_2", "political" ]
            },
            {
               "long_name" : "Nevada",
               "short_name" : "NV",
               "types" : [ "administrative_area_level_1", "political" ]
            },
            {
               "long_name" : "United States",
               "short_name" : "US",
               "types" : [ "country", "political" ]
            },
            {
               "long_name" : "89512",
               "short_name" : "89512",
               "types" : [ "postal_code" ]
            }
         ],
         "formatted_address" : "2350 Raggio Pkwy, Reno, NV 89512, USA",
         "geometry" : {
            "location" : {
               "lat" : 39.5682739,
               "lng" : -119.7965917
            },
            "location_type" : "ROOFTOP",
            "viewport" : {
               "northeast" : {
                  "lat" : 39.5696228802915,
                  "lng" : -119.7952427197085
               },
               "southwest" : {
                  "lat" : 39.56692491970851,
                  "lng" : -119.7979406802915
               }
            }
         },
         "place_id" : "ChIJXUkMmnhHmYARqQNymdhyv2A",
         "plus_code" : {
            "compound_code" : "H693+89 Reno, Nevada, United States",
            "global_code" : "85F2H693+89"
         },
         "types" : [ "establishment", "point_of_interest" ]
      },
      {
         "address_components" : [
            {
               "long_name" : "2350",
               "short_name" : "2350",
               "types" : [ "street_number" ]
            },
            {
               "long_name" : "Raggio Parkway",
               "short_name" : "Raggio Pkwy",
               "types" : [ "route" ]
            },
            {
               "long_name" : "Reno",
               "short_name" : "Reno",
               "types" : [ "locality", "political" ]
            },
            {
               "long_name" : "Nevada",
               "short_name" : "NV",
               "types" : [ "administrative_area_level_1", "political" ]
            },
            {
               "long_name" : "United States",
               "short_name" : "US",
               "types" : [ "country", "political" ]
            },
            {
               "long_name" : "89512",
               "short_name" : "89512",
               "types" : [ "postal_code" ]
            }
         ],
         "formatted_address" : "2350 Raggio Pkwy, Reno, NV 89512, USA",
         "geometry" : {
            "location" : {
               "lat" : 39.5693364,
               "lng" : -119.7967296
            },
            "location_type" : "RANGE_INTERPOLATED",
            "viewport" : {
               "northeast" : {
                  "lat" : 39.5706853802915,
                  "lng" : -119.7953806197085
               },
               "southwest" : {
                  "lat" : 39.5679874197085,
                  "lng" : -119.7980785802915
               }
            }
         },
         "place_id" : "EiUyMzUwIFJhZ2dpbyBQa3d5LCBSZW5vLCBOViA4OTUxMiwgVVNBIhsSGQoUChIJe_UcdIJHmYARWTlMuoWEnjEQrhI",
         "types" : [ "street_address" ]
      },
      {
         "address_components" : [
            {
               "long_name" : "89512",
               "short_name" : "89512",
               "types" : [ "postal_code" ]
            },
            {
               "long_name" : "Reno",
               "short_name" : "Reno",
               "types" : [ "locality", "political" ]
            },
            {
               "long_name" : "Washoe County",
               "short_name" : "Washoe County",
               "types" : [ "administrative_area_level_2", "political" ]
            },
            {
               "long_name" : "Nevada",
               "short_name" : "NV",
               "types" : [ "administrative_area_level_1", "political" ]
            },
            {
               "long_name" : "United States",
               "short_name" : "US",
               "types" : [ "country", "political" ]
            }
         ],
         "formatted_address" : "Reno, NV 89512, USA",
         "geometry" : {
            "bounds" : {
               "northeast" : {
                  "lat" : 39.5818389,
                  "lng" : -119.7760631
               },
               "southwest" : {
                  "lat" : 39.5295949,
                  "lng" : -119.8266459
               }
            },
            "location" : {
               "lat" : 39.558586,
               "lng" : -119.8005027
            },
            "location_type" : "APPROXIMATE",
            "viewport" : {
               "northeast" : {
                  "lat" : 39.5818389,
                  "lng" : -119.7760631
               },
               "southwest" : {
                  "lat" : 39.5295949,
                  "lng" : -119.8266459
               }
            }
         },
         "place_id" : "ChIJq_Fnm2hHmYAR4CSHK7j_WQY",
         "types" : [ "postal_code" ]
      },
      {
         "address_components" : [
            {
               "long_name" : "Northeast Reno",
               "short_name" : "Northeast Reno",
               "types" : [ "neighborhood", "political" ]
            },
            {
               "long_name" : "Reno",
               "short_name" : "Reno",
               "types" : [ "locality", "political" ]
            },
            {
               "long_name" : "Washoe County",
               "short_name" : "Washoe County",
               "types" : [ "administrative_area_level_2", "political" ]
            },
            {
               "long_name" : "Nevada",
               "short_name" : "NV",
               "types" : [ "administrative_area_level_1", "political" ]
            },
            {
               "long_name" : "United States",
               "short_name" : "US",
               "types" : [ "country", "political" ]
            }
         ],
         "formatted_address" : "Northeast Reno, Reno, NV, USA",
         "geometry" : {
            "bounds" : {
               "northeast" : {
                  "lat" : 39.578337,
                  "lng" : -119.7779091
               },
               "southwest" : {
                  "lat" : 39.5258101,
                  "lng" : -119.8390658
               }
            },
            "location" : {
               "lat" : 39.56168030000001,
               "lng" : -119.8062912
            },
            "location_type" : "APPROXIMATE",
            "viewport" : {
               "northeast" : {
                  "lat" : 39.578337,
                  "lng" : -119.7779091
               },
               "southwest" : {
                  "lat" : 39.5258101,
                  "lng" : -119.8390658
               }
            }
         },
         "place_id" : "ChIJL8aGemxHmYARUoFcsqVdMzI",
         "types" : [ "neighborhood", "political" ]
      },
      {
         "address_components" : [
            {
               "long_name" : "Reno",
               "short_name" : "Reno",
               "types" : [ "locality", "political" ]
            },
            {
               "long_name" : "Washoe County",
               "short_name" : "Washoe County",
               "types" : [ "administrative_area_level_2", "political" ]
            },
            {
               "long_name" : "Nevada",
               "short_name" : "NV",
               "types" : [ "administrative_area_level_1", "political" ]
            },
            {
               "long_name" : "United States",
               "short_name" : "US",
               "types" : [ "country", "political" ]
            }
         ],
         "formatted_address" : "Reno, NV, USA",
         "geometry" : {
            "bounds" : {
               "northeast" : {
                  "lat" : 39.723436,
                  "lng" : -119.6993449
               },
               "southwest" : {
                  "lat" : 39.3924261,
                  "lng" : -120.0023379
               }
            },
            "location" : {
               "lat" : 39.5296329,
               "lng" : -119.8138027
            },
            "location_type" : "APPROXIMATE",
            "viewport" : {
               "northeast" : {
                  "lat" : 39.723436,
                  "lng" : -119.6993449
               },
               "southwest" : {
                  "lat" : 39.3924261,
                  "lng" : -120.0023379
               }
            }
         },
         "place_id" : "ChIJnaCSkq5AmYARh_c4dM7FxUA",
         "types" : [ "locality", "political" ]
      },
      {
         "address_components" : [
            {
               "long_name" : "Washoe County",
               "short_name" : "Washoe County",
               "types" : [ "administrative_area_level_2", "political" ]
            },
            {
               "long_name" : "Nevada",
               "short_name" : "NV",
               "types" : [ "administrative_area_level_1", "political" ]
            },
            {
               "long_name" : "United States",
               "short_name" : "US",
               "types" : [ "country", "political" ]
            }
         ],
         "formatted_address" : "Washoe County, NV, USA",
         "geometry" : {
            "bounds" : {
               "northeast" : {
                  "lat" : 41.9975418,
                  "lng" : -119.1705441
               },
               "southwest" : {
                  "lat" : 39.165509,
                  "lng" : -120.0064729
               }
            },
            "location" : {
               "lat" : 40.5608387,
               "lng" : -119.6035495
            },
            "location_type" : "APPROXIMATE",
            "viewport" : {
               "northeast" : {
                  "lat" : 41.9975418,
                  "lng" : -119.1705441
               },
               "southwest" : {
                  "lat" : 39.165509,
                  "lng" : -120.0064729
               }
            }
         },
         "place_id" : "ChIJ4fdsvIAuo4ARgBhifeuEby4",
         "types" : [ "administrative_area_level_2", "political" ]
      },
      {
         "address_components" : [
            {
               "long_name" : "Nevada",
               "short_name" : "Nevada",
               "types" : [ "administrative_area_level_1", "political" ]
            },
            {
               "long_name" : "United States",
               "short_name" : "US",
               "types" : [ "country", "political" ]
            }
         ],
         "formatted_address" : "Nevada, USA",
         "geometry" : {
            "bounds" : {
               "northeast" : {
                  "lat" : 42.002207,
                  "lng" : -114.0396479
               },
               "southwest" : {
                  "lat" : 35.001857,
                  "lng" : -120.0064729
               }
            },
            "location" : {
               "lat" : 38.8026097,
               "lng" : -116.419389
            },
            "location_type" : "APPROXIMATE",
            "viewport" : {
               "northeast" : {
                  "lat" : 42.002207,
                  "lng" : -114.0396479
               },
               "southwest" : {
                  "lat" : 35.001857,
                  "lng" : -120.0064729
               }
            }
         },
         "place_id" : "ChIJcbTe-KEKmYARs5X8qooDR88",
         "types" : [ "administrative_area_level_1", "political" ]
      },
      {
         "address_components" : [
            {
               "long_name" : "United States",
               "short_name" : "US",
               "types" : [ "country", "political" ]
            }
         ],
         "formatted_address" : "United States",
         "geometry" : {
            "bounds" : {
               "northeast" : {
                  "lat" : 71.5388001,
                  "lng" : -66.885417
               },
               "southwest" : {
                  "lat" : 18.7763,
                  "lng" : 170.5957
               }
            },
            "location" : {
               "lat" : 37.09024,
               "lng" : -95.712891
            },
            "location_type" : "APPROXIMATE",
            "viewport" : {
               "northeast" : {
                  "lat" : 71.5388001,
                  "lng" : -66.885417
               },
               "southwest" : {
                  "lat" : 18.7763,
                  "lng" : 170.5957
               }
            }
         },
         "place_id" : "ChIJCzYy5IS16lQRQrfeQ5K5Oxw",
         "types" : [ "country", "political" ]
      }
   ],
   "status" : "OK"
}
