{
   "plus_code" : {
      "compound_code" : "89CW+F2 Leipzig, Germany",
      "global_code" : "9F3J89CW+F2"
   },
   "results" : [
      {
         "address_components" : [
            {
               "long_name" : "6",
               "short_name" : "6",
               "types" : [ "street_number" ]
            },
            {
               "long_name" : "Deutscher Platz",
               "short_name" : "Deutscher Pl.",
               "types" : [ "route" ]
            },
            {
               "long_name" : "Mitte",
               "short_name" : "Mitte",
               "types" : [ "political", "sublocality", "sublocality_level_1" ]
            },
            {
               "long_name" : "Leipzig",
               "short_name" : "Leipzig",
               "types" : [ "locality", "political" ]
            },
            {
               "long_name" : "Leipzig",
               "short_name" : "Leipzig",
               "types" : [ "administrative_area_level_2", "political" ]
            },
            {
               "long_name" : "Sachsen",
               "short_name" : "SN",
               "types" : [ "administrative_area_level_1", "political" ]
            },
            {
               "long_name" : "Germany",
               "short_name" : "DE",
               "types" : [ "country", "political" ]
            },
            {
               "long_name" : "04103",
               "short_name" : "04103",
               "types" : [ "postal_code" ]
            }
         ],
         "formatted_address" : "Deutscher Pl. 6, 04103 Leipzig, Germany",
         "geometry" : {
            "bounds" : {
               "northeast" : {
                  "lat" : 51.3214845,
                  "lng" : 12.3957452
               },
               "southwest" : {
                  "lat" : 51.3205858,
                  "lng" : 12.3940371
               }
            },
            "location" : {
               "lat" : 51.32110540000001,
               "lng" : 12.3948039
            },
            "location_type" : "ROOFTOP",
            "viewport" : {
               "northeast" : {
                  "lat" : 51.3223841302915,
                  "lng" : 12.3962401302915
               },
               "southwest" : {
                  "lat" : 51.3196861697085,
                  "lng" : 12.3935421697085
               }
            }
         },
         "place_id" : "ChIJm-R9sLT5pkcR0-lLxLSVFTM",
         "types" : [ "premise" ]
      },
      {
         "address_components" : [
            {
               "long_name" : "6",
               "short_name" : "6",
               "types" : [ "street_number" ]
            },
            {
               "long_name" : "Deutscher Platz",
               "short_name" : "Deutscher Pl.",
               "types" : [ "route" ]
            },
            {
               "long_name" : "Mitte",
               "short_name" : "Mitte",
               "types" : [ "political", "sublocality", "sublocality_level_1" ]
            },
            {
               "long_name" : "Leipzig",
               "short_name" : "Leipzig",
               "types" : [ "locality", "political" ]
            },
            {
               "long_name" : "Leipzig",
               "short_name" : "Leipzig",
               "types" : [ "administrative_area_level_2", "political" ]
            },
            {
               "long_name" : "Sachsen",
               "short_name" : "SN",
               "types" : [ "administrative_area_level_1", "political" ]
            },
            {
               "long_name" : "Germany",
               "short_name" : "DE",
               "types" : [ "country", "political" ]
            },
            {
               "long_name" : "04103",
               "short_name" : "04103",
               "types" : [ "postal_code" ]
            }
         ],
         "formatted_address" : "Deutscher Pl. 6, 04103 Leipzig, Germany",
         "geometry" : {
            "location" : {
               "lat" : 51.3211759,
               "lng" : 12.3950214
            },
            "location_type" : "ROOFTOP",
            "viewport" : {
               "northeast" : {
                  "lat" : 51.3225248802915,
                  "lng" : 12.3963703802915
               },
               "southwest" : {
                  "lat" : 51.3198269197085,
                  "lng" : 12.3936724197085
               }
            }
         },
         "place_id" : "ChIJ_-LatLT5pkcRFX9CQhGicks",
         "types" : [ "establishment", "point_of_interest" ]
      },
      {
         "address_components" : [
            {
               "long_name" : "5D",
               "short_name" : "5D",
               "types" : [ "street_number" ]
            },
            {
               "long_name" : "Deutscher Platz",
               "short_name" : "Deutscher Pl.",
               "types" : [ "route" ]
            },
            {
               "long_name" : "Mitte",
               "short_name" : "Mitte",
               "types" : [ "political", "sublocality", "sublocality_level_1" ]
            },
            {
               "long_name" : "Leipzig",
               "short_name" : "Leipzig",
               "types" : [ "locality", "political" ]
            },
            {
               "long_name" : "Leipzig",
               "short_name" : "Leipzig",
               "types" : [ "administrative_area_level_2", "political" ]
            },
            {
               "long_name" : "Sachsen",
               "short_name" : "SN",
               "types" : [ "administrative_area_level_1", "political" ]
            },
            {
               "long_name" : "Germany",
               "short_name" : "DE",
               "types" : [ "country", "political" ]
            },
            {
               "long_name" : "04103",
               "short_name" : "04103",
               "types" : [ "postal_code" ]
            }
         ],
         "formatted_address" : "Deutscher Pl. 5D, 04103 Leipzig, Germany",
         "geometry" : {
            "location" : {
               "lat" : 51.32080999999999,
               "lng" : 12.3959
            },
            "location_type" : "ROOFTOP",
            "viewport" : {
               "northeast" : {
                  "lat" : 51.3221589802915,
                  "lng" : 12.3972489802915
               },
               "southwest" : {
                  "lat" : 51.3194610197085,
                  "lng" : 12.3945510197085
               }
            }
         },
         "place_id" : "ChIJXWOMp7T5pkcRwY6uH3jQPlE",
         "types" : [ "street_address" ]
      },
      {
         "address_components" : [
            {
               "long_name" : "6",
               "short_name" : "6",
               "types" : [ "street_number" ]
            },
            {
               "long_name" : "Deutscher Platz",
               "short_name" : "Deutscher Pl.",
               "types" : [ "route" ]
            },
            {
               "long_name" : "Mitte",
               "short_name" : "Mitte",
               "types" : [ "political", "sublocality", "sublocality_level_1" ]
            },
            {
               "long_name" : "Leipzig",
               "short_name" : "Leipzig",
               "types" : [ "locality", "political" ]
            },
            {
               "long_name" : "Leipzig",
               "short_name" : "Leipzig",
               "types" : [ "administrative_area_level_2", "political" ]
            },
            {
               "long_name" : "Sachsen",
               "short_name" : "SN",
               "types" : [ "administrative_area_level_1", "political" ]
            },
            {
               "long_name" : "Germany",
               "short_name" : "DE",
               "types" : [ "country", "political" ]
            },
            {
               "long_name" : "04103",
               "short_name" : "04103",
               "types" : [ "postal_code" ]
            }
         ],
         "formatted_address" : "Deutscher Pl. 6, 04103 Leipzig, Germany",
         "geometry" : {
            "bounds" : {
               "northeast" : {
                  "lat" : 51.32162539999999,
                  "lng" : 12.3958495
               },
               "southwest" : {
                  "lat" : 51.3209804,
                  "lng" : 12.3947121
               }
            },
            "location" : {
               "lat" : 51.32130290000001,
               "lng" : 12.3952808
            },
            "location_type" : "GEOMETRIC_CENTER",
            "viewport" : {
               "northeast" : {
                  "lat" : 51.3226518802915,
                  "lng" : 12.3966297802915
               },
               "southwest" : {
                  "lat" : 51.3199539197085,
                  "lng" : 12.3939318197085
               }
            }
         },
         "place_id" : "ChIJr4PjrbT5pkcRasjSB7NP1dQ",
         "types" : [ "route" ]
      },
      {
         "address_components" : [
            {
               "long_name" : "Zentrum-Südost",
               "short_name" : "Zentrum-Südost",
               "types" : [ "political", "sublocality", "sublocality_level_2" ]
            },
            {
               "long_name" : "Mitte",
               "short_name" : "Mitte",
               "types" : [ "political", "sublocality", "sublocality_level_1" ]
            },
            {
               "long_name" : "Leipzig",
               "short_name" : "Leipzig",
               "types" : [ "locality", "political" ]
            },
            {
               "long_name" : "Leipzig",
               "short_name" : "Leipzig",
               "types" : [ "administrative_area_level_2", "political" ]
            },
            {
               "long_name" : "Sachsen",
               "short_name" : "SN",
               "types" : [ "administrative_area_level_1", "political" ]
            },
            {
               "long_name" : "Germany",
               "short_name" : "DE",
               "types" : [ "country", "political" ]
            }
         ],
         "formatted_address" : "Zentrum-Südost, Leipzig, Germany",
         "geometry" : {
            "bounds" : {
               "northeast" : {
                  "lat" : 51.33907199999999,
                  "lng" : 12.4070479
               },
               "southwest" : {
                  "lat" : 51.3118691,
                  "lng" : 12.3772149
               }
            },
            "location" : {
               "lat" : 51.3244454,
               "lng" : 12.3938994
            },
            "location_type" : "APPROXIMATE",
            "viewport" : {
               "northeast" : {
                  "lat" : 51.33907199999999,
                  "lng" : 12.4070479
               },
               "southwest" : {
                  "lat" : 51.3118691,
                  "lng" : 12.3772149
               }
            }
         },
         "place_id" : "ChIJ08R_aUr4pkcRkN6JQsuxIQU",
         "types" : [ "political", "sublocality", "sublocality_level_2" ]
      },
      {
         "address_components" : [
            {
               "long_name" : "04103",
               "short_name" : "04103",
               "types" : [ "postal_code" ]
            },
            {
               "long_name" : "Leipzig",
               "short_name" : "Leipzig",
               "types" : [ "locality", "political" ]
            },
            {
               "long_name" : "Leipzig",
               "short_name" : "Leipzig",
               "types" : [ "administrative_area_level_2", "political" ]
            },
            {
               "long_name" : "Saxony",
               "short_name" : "SN",
               "types" : [ "administrative_area_level_1", "political" ]
            },
            {
               "long_name" : "Germany",
               "short_name" : "DE",
               "types" : [ "country", "political" ]
            }
         ],
         "formatted_address" : "04103 Leipzig, Germany",
         "geometry" : {
            "bounds" : {
               "northeast" : {
                  "lat" : 51.352628,
                  "lng" : 12.407167
               },
               "southwest" : {
                  "lat" : 51.3114119,
                  "lng" : 12.375666
               }
            },
            "location" : {
               "lat" : 51.3302732,
               "lng" : 12.3891818
            },
            "location_type" : "APPROXIMATE",
            "viewport" : {
               "northeast" : {
                  "lat" : 51.352628,
                  "lng" : 12.407167
               },
               "southwest" : {
                  "lat" : 51.3114119,
                  "lng" : 12.375666
               }
            }
         },
         "place_id" : "ChIJu5736Tf4pkcREJg0lc6xIRw",
         "types" : [ "postal_code" ]
      },
      {
         "address_components" : [
            {
               "long_name" : "Mitte",
               "short_name" : "Mitte",
               "types" : [ "political", "sublocality", "sublocality_level_1" ]
            },
            {
               "long_name" : "Leipzig",
               "short_name" : "Leipzig",
               "types" : [ "locality", "political" ]
            },
            {
               "long_name" : "Leipzig",
               "short_name" : "Leipzig",
               "types" : [ "administrative_area_level_2", "political" ]
            },
            {
               "long_name" : "Saxony",
               "short_name" : "SN",
               "types" : [ "administrative_area_level_1", "political" ]
            },
            {
               "long_name" : "Germany",
               "short_name" : "DE",
               "types" : [ "country", "political" ]
            }
         ],
         "formatted_address" : "Mitte, Leipzig, Germany",
         "geometry" : {
            "bounds" : {
               "northeast" : {
                  "lat" : 51.36141989999999,
                  "lng" : 12.4070479
               },
               "southwest" : {
                  "lat" : 51.3118691,
                  "lng" : 12.3276899
               }
            },
            "location" : {
               "lat" : 51.3397656,
               "lng" : 12.3750967
            },
            "location_type" : "APPROXIMATE",
            "viewport" : {
               "northeast" : {
                  "lat" : 51.36141989999999,
                  "lng" : 12.4070479
               },
               "southwest" : {
                  "lat" : 51.3118691,
                  "lng" : 12.3276899
               }
            }
         },
         "place_id" : "ChIJmdK5kif4pkcRHhkSYlnlo5U",
         "types" : [ "political", "sublocality", "sublocality_level_1" ]
      },
      {
         "address_components" : [
            {
               "long_name" : "Leipzig",
               "short_name" : "Leipzig",
               "types" : [ "locality", "political" ]
            },
            {
               "long_name" : "Leipzig",
               "short_name" : "Leipzig",
               "types" : [ "administrative_area_level_2", "political" ]
            },
            {
               "long_name" : "Saxony",
               "short_name" : "SN",
               "types" : [ "administrative_area_level_1", "political" ]
            },
            {
               "long_name" : "Germany",
               "short_name" : "DE",
               "types" : [ "country", "political" ]
            }
         ],
         "formatted_address" : "Leipzig, Germany",
         "geometry" : {
            "bounds" : {
               "northeast" : {
                  "lat" : 51.448026,
                  "lng" : 12.5506377
               },
               "southwest" : {
                  "lat" : 51.235539,
                  "lng" : 12.2366321
               }
            },
            "location" : {
               "lat" : 51.3396955,
               "lng" : 12.3730747
            },
            "location_type" : "APPROXIMATE",
            "viewport" : {
               "northeast" : {
                  "lat" : 51.448026,
                  "lng" : 12.5506377
               },
               "southwest" : {
                  "lat" : 51.235539,
                  "lng" : 12.2366321
               }
            }
         },
         "place_id" : "ChIJcywPIBj4pkcRUvW0udKA35M",
         "types" : [ "locality", "political" ]
      },
      {
         "address_components" : [
            {
               "long_name" : "Leipzig",
               "short_name" : "Leipzig",
               "types" : [ "administrative_area_level_2", "political" ]
            },
            {
               "long_name" : "Saxony",
               "short_name" : "SN",
               "types" : [ "administrative_area_level_1", "political" ]
            },
            {
               "long_name" : "Germany",
               "short_name" : "DE",
               "types" : [ "country", "political" ]
            }
         ],
         "formatted_address" : "Leipzig, Germany",
         "geometry" : {
            "bounds" : {
               "northeast" : {
                  "lat" : 51.684871,
                  "lng" : 13.2170649
               },
               "southwest" : {
                  "lat" : 50.978852,
                  "lng" : 12.1475362
               }
            },
            "location" : {
               "lat" : 51.4104758,
               "lng" : 12.7540257
            },
            "location_type" : "APPROXIMATE",
            "viewport" : {
               "northeast" : {
                  "lat" : 51.684871,
                  "lng" : 13.2170649
               },
               "southwest" : {
                  "lat" : 50.978852,
                  "lng" : 12.1475362
               }
            }
         },
         "place_id" : "ChIJv9KeZYH9pkcRAAAydMGOIAM",
         "types" : [ "administrative_area_level_2", "political" ]
      },
      {
         "address_components" : [
            {
               "long_name" : "Saxony",
               "short_name" : "Saxony",
               "types" : [ "administrative_area_level_1", "political" ]
            },
            {
               "long_name" : "Germany",
               "short_name" : "DE",
               "types" : [ "country", "political" ]
            }
         ],
         "formatted_address" : "Saxony, Germany",
         "geometry" : {
            "bounds" : {
               "northeast" : {
                  "lat" : 51.684871,
                  "lng" : 15.0418962
               },
               "southwest" : {
                  "lat" : 50.1713633,
                  "lng" : 11.8714358
               }
            },
            "location" : {
               "lat" : 51.1045407,
               "lng" : 13.2017384
            },
            "location_type" : "APPROXIMATE",
            "viewport" : {
               "northeast" : {
                  "lat" : 51.684871,
                  "lng" : 15.0418962
               },
               "southwest" : {
                  "lat" : 50.1713633,
                  "lng" : 11.8714358
               }
            }
         },
         "place_id" : "ChIJR0Kum3LeCUcRsHmIQsuxIQE",
         "types" : [ "administrative_area_level_1", "political" ]
      },
      {
         "address_components" : [
            {
               "long_name" : "Germany",
               "short_name" : "DE",
               "types" : [ "country", "political" ]
            }
         ],
         "formatted_address" : "Germany",
         "geometry" : {
            "bounds" : {
               "northeast" : {
                  "lat" : 55.0815,
                  "lng" : 15.0418962
               },
               "southwest" : {
                  "lat" : 47.2701115,
                  "lng" : 5.8663425
               }
            },
            "location" : {
               "lat" : 51.165691,
               "lng" : 10.451526
            },
            "location_type" : "APPROXIMATE",
            "viewport" : {
               "northeast" : {
                  "lat" : 55.0815,
                  "lng" : 15.0418962
               },
               "southwest" : {
                  "lat" : 47.2701115,
                  "lng" : 5.8663425
               }
            }
         },
         "place_id" : "ChIJa76xwh5ymkcRW-WRjmtd6HU",
         "types" : [ "country", "political" ]
      }
   ],
   "status" : "OK"
}
