{
   "plus_code" : {
      "compound_code" : "JJX5+37 Palmerston North, Manawatu-Wanganui, New Zealand",
      "global_code" : "4VFQJJX5+37"
   },
   "results" : [
      {
         "address_components" : [
            {
               "long_name" : "Palmerston North",
               "short_name" : "Palmerston North",
               "types" : [ "political", "sublocality", "sublocality_level_1" ]
            },
            {
               "long_name" : "Palmerston North",
               "short_name" : "Palmerston North",
               "types" : [ "locality", "political" ]
            },
            {
               "long_name" : "Manawatu-Wanganui",
               "short_name" : "Manawatu-Wanganui",
               "types" : [ "administrative_area_level_1", "political" ]
            },
            {
               "long_name" : "New Zealand",
               "short_name" : "NZ",
               "types" : [ "country", "political" ]
            }
         ],
         "formatted_address" : "Palmerston North, New Zealand",
         "geometry" : {
            "bounds" : {
               "northeast" : {
                  "lat" : -40.3332207,
                  "lng" : 175.6288149
               },
               "southwest" : {
                  "lat" : -40.363482,
                  "lng" : 175.596375
               }
            },
            "location" : {
               "lat" : -40.3523065,
               "lng" : 175.6082145
            },
            "location_type" : "APPROXIMATE",
            "viewport" : {
               "northeast" : {
                  "lat" : -40.3332207,
                  "lng" : 175.6288149
               },
               "southwest" : {
                  "lat" : -40.363482,
                  "lng" : 175.596375
               }
            }
         },
         "place_id" : "ChIJ6zKT_9eyQW0RIPSiQ2HvAAU",
         "types" : [ "political", "sublocality", "sublocality_level_1" ]
      },
      {
         "address_components" : [
            {
               "long_name" : "4410",
               "short_name" : "4410",
               "types" : [ "postal_code" ]
            },
            {
               "long_name" : "Manawatu-Wanganui",
               "short_name" : "Manawatu-Wanganui",
               "types" : [ "administrative_area_level_1", "political" ]
            },
            {
               "long_name" : "New Zealand",
               "short_name" : "NZ",
               "types" : [ "country", "political" ]
            }
         ],
         "formatted_address" : "Manawatu-Wanganui 4410, New Zealand",
         "geometry" : {
            "bounds" : {
               "northeast" : {
                  "lat" : -40.3379188,
                  "lng" : 175.66432
               },
               "southwest" : {
                  "lat" : -40.4001704,
                  "lng" : 175.5933902
               }
            },
            "location" : {
               "lat" : -40.3625276,
               "lng" : 175.6334536
            },
            "location_type" : "APPROXIMATE",
            "viewport" : {
               "northeast" : {
                  "lat" : -40.3379188,
                  "lng" : 175.66432
               },
               "southwest" : {
                  "lat" : -40.4001704,
                  "lng" : 175.5933902
               }
            }
         },
         "place_id" : "ChIJLSYUTJGyQW0RFFU7TQE-GCA",
         "types" : [ "postal_code" ]
      },
      {
         "address_components" : [
            {
               "long_name" : "Palmerston North",
               "short_name" : "Palmerston North",
               "types" : [ "locality", "political" ]
            },
            {
               "long_name" : "Manawatu-Wanganui",
               "short_name" : "Manawatu-Wanganui",
               "types" : [ "administrative_area_level_1", "political" ]
            },
            {
               "long_name" : "New Zealand",
               "short_name" : "NZ",
               "types" : [ "country", "political" ]
            }
         ],
         "formatted_address" : "Palmerston North, New Zealand",
         "geometry" : {
            "bounds" : {
               "northeast" : {
                  "lat" : -40.288726,
                  "lng" : 175.7071963
               },
               "southwest" : {
                  "lat" : -40.417773,
                  "lng" : 175.552863
               }
            },
            "location" : {
               "lat" : -40.3523065,
               "lng" : 175.6082145
            },
            "location_type" : "APPROXIMATE",
            "viewport" : {
               "northeast" : {
                  "lat" : -40.288726,
                  "lng" : 175.7071963
               },
               "southwest" : {
                  "lat" : -40.417773,
                  "lng" : 175.552863
               }
            }
         },
         "place_id" : "ChIJg0SjvZ-tQW0RFZmiQ2HvAAU",
         "types" : [ "locality", "political" ]
      },
      {
         "address_components" : [
            {
               "long_name" : "Palmerston North City",
               "short_name" : "Palmerston North City",
               "types" : [ "administrative_area_level_2", "political" ]
            },
            {
               "long_name" : "Manawatu-Wanganui",
               "short_name" : "Manawatu-Wanganui",
               "types" : [ "administrative_area_level_1", "political" ]
            },
            {
               "long_name" : "New Zealand",
               "short_name" : "NZ",
               "types" : [ "country", "political" ]
            }
         ],
         "formatted_address" : "Palmerston North City, Manawatu-Wanganui, New Zealand",
         "geometry" : {
            "bounds" : {
               "northeast" : {
                  "lat" : -40.288726,
                  "lng" : 175.7906657
               },
               "southwest" : {
                  "lat" : -40.5296903,
                  "lng" : 175.4966319
               }
            },
            "location" : {
               "lat" : -40.4097363,
               "lng" : 175.6229296
            },
            "location_type" : "APPROXIMATE",
            "viewport" : {
               "northeast" : {
                  "lat" : -40.288726,
                  "lng" : 175.7906657
               },
               "southwest" : {
                  "lat" : -40.5296903,
                  "lng" : 175.4966319
               }
            }
         },
         "place_id" : "ChIJg0SjvZ-tQW0RwKyiQ2HvAAQ",
         "types" : [ "administrative_area_level_2", "political" ]
      },
      {
         "address_components" : [
            {
               "long_name" : "Palmerston North",
               "short_name" : "Palmerston North",
               "types" : [ "postal_town" ]
            },
            {
               "long_name" : "Manawatu-Wanganui",
               "short_name" : "Manawatu-Wanganui",
               "types" : [ "administrative_area_level_1", "political" ]
            },
            {
               "long_name" : "New Zealand",
               "short_name" : "NZ",
               "types" : [ "country", "political" ]
            }
         ],
         "formatted_address" : "Palmerston North, Manawatu-Wanganui, New Zealand",
         "geometry" : {
            "bounds" : {
               "northeast" : {
                  "lat" : -40.1709103,
                  "lng" : 175.7906442
               },
               "southwest" : {
                  "lat" : -40.6327604,
                  "lng" : 175.2163869
               }
            },
            "location" : {
               "lat" : -40.3463147,
               "lng" : 175.56121
            },
            "location_type" : "APPROXIMATE",
            "viewport" : {
               "northeast" : {
                  "lat" : -40.1709103,
                  "lng" : 175.7906442
               },
               "southwest" : {
                  "lat" : -40.6327604,
                  "lng" : 175.2163869
               }
            }
         },
         "place_id" : "ChIJIwEfl-tRQG0RKogF4vBEhAk",
         "types" : [ "postal_town" ]
      },
      {
         "address_components" : [
            {
               "long_name" : "Manawatu-Wanganui",
               "short_name" : "Manawatu-Wanganui",
               "types" : [ "administrative_area_level_1", "political" ]
            },
            {
               "long_name" : "New Zealand",
               "short_name" : "NZ",
               "types" : [ "country", "political" ]
            }
         ],
         "formatted_address" : "Manawatu-Wanganui, New Zealand",
         "geometry" : {
            "bounds" : {
               "northeast" : {
                  "lat" : -38.4711149,
                  "lng" : 176.6308589
               },
               "southwest" : {
                  "lat" : -40.77409,
                  "lng" : 174.697216
               }
            },
            "location" : {
               "lat" : -39.7273356,
               "lng" : 175.4375574
            },
            "location_type" : "APPROXIMATE",
            "viewport" : {
               "northeast" : {
                  "lat" : -38.4711149,
                  "lng" : 176.6308589
               },
               "southwest" : {
                  "lat" : -40.77409,
                  "lng" : 174.697216
               }
            }
         },
         "place_id" : "ChIJA9E1Od9eam0RVWqrT8HZJ1c",
         "types" : [ "administrative_area_level_1", "political" ]
      },
      {
         "address_components" : [
            {
               "long_name" : "New Zealand",
               "short_name" : "NZ",
               "types" : [ "country", "political" ]
            }
         ],
         "formatted_address" : "New Zealand",
         "geometry" : {
            "bounds" : {
               "northeast" : {
                  "lat" : -28.8773225,
                  "lng" : -175.1235077
               },
               "southwest" : {
                  "lat" : -52.7224663,
                  "lng" : 165.7437641
               }
            },
            "location" : {
               "lat" : -40.900557,
               "lng" : 174.885971
            },
            "location_type" : "APPROXIMATE",
            "viewport" : {
               "northeast" : {
                  "lat" : -28.8773225,
                  "lng" : -175.1235077
               },
               "southwest" : {
                  "lat" : -52.7224663,
                  "lng" : 165.7437641
               }
            }
         },
         "place_id" : "ChIJh5Z3Fw4gLG0RM0dqdeIY1rE",
         "types" : [ "country", "political" ]
      }
   ],
   "status" : "OK"
}
