{
   "plus_code" : {
      "compound_code" : "2G8Q+WW Taipei, Taiwan",
      "global_code" : "7QQ32G8Q+WW"
   },
   "results" : [
      {
         "address_components" : [
            {
               "long_name" : "1",
               "short_name" : "1",
               "types" : [ "street_number" ]
            },
            {
               "long_name" : "Section 4, Roosevelt Road",
               "short_name" : "Section 4, Roosevelt Rd",
               "types" : [ "route" ]
            },
            {
               "long_name" : "Da’an District",
               "short_name" : "Da’an District",
               "types" : [ "administrative_area_level_3", "political" ]
            },
            {
               "long_name" : "Taipei City",
               "short_name" : "Taipei City",
               "types" : [ "administrative_area_level_1", "political" ]
            },
            {
               "long_name" : "Taiwan",
               "short_name" : "TW",
               "types" : [ "country", "political" ]
            },
            {
               "long_name" : "10617",
               "short_name" : "10617",
               "types" : [ "postal_code" ]
            }
         ],
         "formatted_address" : "No. 1, Section 4, Roosevelt Rd, Da’an District, Taipei City, Taiwan 10617",
         "geometry" : {
            "location" : {
               "lat" : 25.0173405,
               "lng" : 121.5397518
            },
            "location_type" : "ROOFTOP",
            "viewport" : {
               "northeast" : {
                  "lat" : 25.01868948029151,
                  "lng" : 121.5411007802915
               },
               "southwest" : {
                  "lat" : 25.0159915197085,
                  "lng" : 121.5384028197085
               }
            }
         },
         "place_id" : "ChIJqS4y_ompQjQRZn8d7gQEdSE",
         "plus_code" : {
            "compound_code" : "2G8Q+WW Taipei, Taiwan",
            "global_code" : "7QQ32G8Q+WW"
         },
         "types" : [ "establishment", "point_of_interest", "university" ]
      },
      {
         "address_components" : [
            {
               "long_name" : "Unnamed Road",
               "short_name" : "Unnamed Road",
               "types" : [ "route" ]
            },
            {
               "long_name" : "Da’an District",
               "short_name" : "Da’an District",
               "types" : [ "administrative_area_level_3", "political" ]
            },
            {
               "long_name" : "Taipei City",
               "short_name" : "Taipei City",
               "types" : [ "administrative_area_level_1", "political" ]
            },
            {
               "long_name" : "Taiwan",
               "short_name" : "TW",
               "types" : [ "country", "political" ]
            },
            {
               "long_name" : "106",
               "short_name" : "106",
               "types" : [ "postal_code" ]
            }
         ],
         "formatted_address" : "Unnamed Road, Da’an District, Taipei City, Taiwan 106",
         "geometry" : {
            "bounds" : {
               "northeast" : {
                  "lat" : 25.0174726,
                  "lng" : 121.540157
               },
               "southwest" : {
                  "lat" : 25.0174694,
                  "lng" : 121.5393673
               }
            },
            "location" : {
               "lat" : 25.017471,
               "lng" : 121.5397621
            },
            "location_type" : "GEOMETRIC_CENTER",
            "viewport" : {
               "northeast" : {
                  "lat" : 25.0188199802915,
                  "lng" : 121.5411111302915
               },
               "southwest" : {
                  "lat" : 25.0161220197085,
                  "lng" : 121.5384131697085
               }
            }
         },
         "place_id" : "ChIJncNBICeqQjQRxq4Iywyh96o",
         "types" : [ "route" ]
      },
      {
         "address_components" : [
            {
               "long_name" : "學府里",
               "short_name" : "學府里",
               "types" : [ "administrative_area_level_4", "political" ]
            },
            {
               "long_name" : "大安區",
               "short_name" : "大安區",
               "types" : [ "administrative_area_level_3", "political" ]
            },
            {
               "long_name" : "台北市",
               "short_name" : "台北市",
               "types" : [ "administrative_area_level_1", "political" ]
            },
            {
               "long_name" : "Taiwan",
               "short_name" : "TW",
               "types" : [ "country", "political" ]
            },
            {
               "long_name" : "106",
               "short_name" : "106",
               "types" : [ "postal_code" ]
            }
         ],
         "formatted_address" : "106, Taiwan, 台北市大安區學府里",
         "geometry" : {
            "bounds" : {
               "northeast" : {
                  "lat" : 25.0224512,
                  "lng" : 121.5558798
               },
               "southwest" : {
                  "lat" : 25.0078074,
                  "lng" : 121.5326627
               }
            },
            "location" : {
               "lat" : 25.0135679,
               "lng" : 121.5398548
            },
            "location_type" : "APPROXIMATE",
            "viewport" : {
               "northeast" : {
                  "lat" : 25.0224512,
                  "lng" : 121.5558798
               },
               "southwest" : {
                  "lat" : 25.0078074,
                  "lng" : 121.5326627
               }
            }
         },
         "place_id" : "ChIJYdKuiiOqQjQRVudUbsC7IzE",
         "types" : [ "administrative_area_level_4", "political" ]
      },
      {
         "address_components" : [
            {
               "long_name" : "106",
               "short_name" : "106",
               "types" : [ "postal_code" ]
            },
            {
               "long_name" : "Da’an District",
               "short_name" : "Da’an District",
               "types" : [ "administrative_area_level_3", "political" ]
            },
            {
               "long_name" : "Taipei City",
               "short_name" : "Taipei City",
               "types" : [ "administrative_area_level_1", "political" ]
            },
            {
               "long_name" : "Taiwan",
               "short_name" : "TW",
               "types" : [ "country", "political" ]
            }
         ],
         "formatted_address" : "Da’an District, Taipei City, Taiwan 106",
         "geometry" : {
            "bounds" : {
               "northeast" : {
                  "lat" : 25.0454177,
                  "lng" : 121.5659696
               },
               "southwest" : {
                  "lat" : 25.0071972,
                  "lng" : 121.5217223
               }
            },
            "location" : {
               "lat" : 25.0261583,
               "lng" : 121.5427093
            },
            "location_type" : "APPROXIMATE",
            "viewport" : {
               "northeast" : {
                  "lat" : 25.0454177,
                  "lng" : 121.5659696
               },
               "southwest" : {
                  "lat" : 25.0071972,
                  "lng" : 121.5217223
               }
            }
         },
         "place_id" : "ChIJzWZLGSyqQjQR-5joTmLlxj8",
         "types" : [ "postal_code" ]
      },
      {
         "address_components" : [
            {
               "long_name" : "Da’an District",
               "short_name" : "Da’an District",
               "types" : [ "administrative_area_level_3", "political" ]
            },
            {
               "long_name" : "Taipei City",
               "short_name" : "Taipei City",
               "types" : [ "administrative_area_level_1", "political" ]
            },
            {
               "long_name" : "Taiwan",
               "short_name" : "TW",
               "types" : [ "country", "political" ]
            }
         ],
         "formatted_address" : "Da’an District, Taipei City, Taiwan",
         "geometry" : {
            "bounds" : {
               "northeast" : {
                  "lat" : 25.0454177,
                  "lng" : 121.5659696
               },
               "southwest" : {
                  "lat" : 25.0071972,
                  "lng" : 121.5217223
               }
            },
            "location" : {
               "lat" : 25.0261583,
               "lng" : 121.5427093
            },
            "location_type" : "APPROXIMATE",
            "viewport" : {
               "northeast" : {
                  "lat" : 25.0454177,
                  "lng" : 121.5659696
               },
               "southwest" : {
                  "lat" : 25.0071972,
                  "lng" : 121.5217223
               }
            }
         },
         "place_id" : "ChIJTfhpGSyqQjQRXZXZ8su1oG4",
         "types" : [ "administrative_area_level_3", "political" ]
      },
      {
         "address_components" : [
            {
               "long_name" : "Taipei City",
               "short_name" : "Taipei City",
               "types" : [ "administrative_area_level_1", "political" ]
            },
            {
               "long_name" : "Taiwan",
               "short_name" : "TW",
               "types" : [ "country", "political" ]
            }
         ],
         "formatted_address" : "Taipei City, Taiwan",
         "geometry" : {
            "bounds" : {
               "northeast" : {
                  "lat" : 25.2103038,
                  "lng" : 121.6659421
               },
               "southwest" : {
                  "lat" : 24.9605084,
                  "lng" : 121.4570603
               }
            },
            "location" : {
               "lat" : 25.0329636,
               "lng" : 121.5654268
            },
            "location_type" : "APPROXIMATE",
            "viewport" : {
               "northeast" : {
                  "lat" : 25.2103038,
                  "lng" : 121.6659421
               },
               "southwest" : {
                  "lat" : 24.9605084,
                  "lng" : 121.4570603
               }
            }
         },
         "place_id" : "ChIJi73bYWusQjQRgqQGXK260bw",
         "types" : [ "administrative_area_level_1", "political" ]
      },
      {
         "address_components" : [
            {
               "long_name" : "Taipei",
               "short_name" : "Taipei",
               "types" : [ "colloquial_area", "locality", "political" ]
            },
            {
               "long_name" : "Taiwan",
               "short_name" : "TW",
               "types" : [ "country", "political" ]
            }
         ],
         "formatted_address" : "Taipei, Taiwan",
         "geometry" : {
            "bounds" : {
               "northeast" : {
                  "lat" : 25.2443731,
                  "lng" : 121.7300824
               },
               "southwest" : {
                  "lat" : 24.7900797,
                  "lng" : 121.2826735
               }
            },
            "location" : {
               "lat" : 25.0329694,
               "lng" : 121.5654177
            },
            "location_type" : "APPROXIMATE",
            "viewport" : {
               "northeast" : {
                  "lat" : 25.2443731,
                  "lng" : 121.7300824
               },
               "southwest" : {
                  "lat" : 24.7900797,
                  "lng" : 121.2826735
               }
            }
         },
         "place_id" : "ChIJmQrivHKsQjQR4MIK3c41aj8",
         "types" : [ "colloquial_area", "locality", "political" ]
      },
      {
         "address_components" : [
            {
               "long_name" : "Taiwan",
               "short_name" : "TW",
               "types" : [ "country", "political" ]
            }
         ],
         "formatted_address" : "Taiwan",
         "geometry" : {
            "bounds" : {
               "northeast" : {
                  "lat" : 26.4545,
                  "lng" : 123.5021012
               },
               "southwest" : {
                  "lat" : 20.5170001,
                  "lng" : 116.6665
               }
            },
            "location" : {
               "lat" : 23.69781,
               "lng" : 120.960515
            },
            "location_type" : "APPROXIMATE",
            "viewport" : {
               "northeast" : {
                  "lat" : 26.4545,
                  "lng" : 123.5021012
               },
               "southwest" : {
                  "lat" : 20.5170001,
                  "lng" : 116.6665
               }
            }
         },
         "place_id" : "ChIJL1cHXAbzbjQRaVScvwTwEec",
         "types" : [ "country", "political" ]
      }
   ],
   "status" : "OK"
}
