{
   "plus_code" : {
      "compound_code" : "XWVJ+RC Castellón de la Plana, Spain",
      "global_code" : "8CFXXWVJ+RC"
   },
   "results" : [
      {
         "address_components" : [
            {
               "long_name" : "s/n",
               "short_name" : "s/n",
               "types" : [ "street_number" ]
            },
            {
               "long_name" : "Avenida de Vicent Sos Baynat",
               "short_name" : "Avenida de Vicent Sos Baynat",
               "types" : [ "route" ]
            },
            {
               "long_name" : "Castelló de la Plana",
               "short_name" : "Castelló de la Plana",
               "types" : [ "locality", "political" ]
            },
            {
               "long_name" : "Castelló",
               "short_name" : "Castelló",
               "types" : [ "administrative_area_level_2", "political" ]
            },
            {
               "long_name" : "Comunidad Valenciana",
               "short_name" : "Comunidad Valenciana",
               "types" : [ "administrative_area_level_1", "political" ]
            },
            {
               "long_name" : "Spain",
               "short_name" : "ES",
               "types" : [ "country", "political" ]
            },
            {
               "long_name" : "12071",
               "short_name" : "12071",
               "types" : [ "postal_code" ]
            }
         ],
         "formatted_address" : "Avenida de Vicent Sos Baynat, s/n, 12071 Castelló de la Plana, Castelló, Spain",
         "geometry" : {
            "location" : {
               "lat" : 39.9945711,
               "lng" : -0.0689003
            },
            "location_type" : "ROOFTOP",
            "viewport" : {
               "northeast" : {
                  "lat" : 39.9959200802915,
                  "lng" : -0.06755131970849797
               },
               "southwest" : {
                  "lat" : 39.9932221197085,
                  "lng" : -0.07024928029150203
               }
            }
         },
         "place_id" : "ChIJR1Gbyg_-Xw0RP_uns1O_aBM",
         "plus_code" : {
            "compound_code" : "XWVJ+RC Castellón de la Plana, Spain",
            "global_code" : "8CFXXWVJ+RC"
         },
         "types" : [ "establishment", "point_of_interest", "university" ]
      },
      {
         "address_components" : [
            {
               "long_name" : "Unnamed Road",
               "short_name" : "Unnamed Road",
               "types" : [ "route" ]
            },
            {
               "long_name" : "Castelló de la Plana",
               "short_name" : "Castelló de la Plana",
               "types" : [ "locality", "political" ]
            },
            {
               "long_name" : "Castelló",
               "short_name" : "Castelló",
               "types" : [ "administrative_area_level_2", "political" ]
            },
            {
               "long_name" : "Comunidad Valenciana",
               "short_name" : "Comunidad Valenciana",
               "types" : [ "administrative_area_level_1", "political" ]
            },
            {
               "long_name" : "Spain",
               "short_name" : "ES",
               "types" : [ "country", "political" ]
            },
            {
               "long_name" : "12006",
               "short_name" : "12006",
               "types" : [ "postal_code" ]
            }
         ],
         "formatted_address" : "Unnamed Road, 12006 Castelló de la Plana, Castelló, Spain",
         "geometry" : {
            "bounds" : {
               "northeast" : {
                  "lat" : 39.9951275,
                  "lng" : -0.0683501
               },
               "southwest" : {
                  "lat" : 39.9946154,
                  "lng" : -0.0685167
               }
            },
            "location" : {
               "lat" : 39.9948714,
               "lng" : -0.06843339999999999
            },
            "location_type" : "GEOMETRIC_CENTER",
            "viewport" : {
               "northeast" : {
                  "lat" : 39.99622043029149,
                  "lng" : -0.06708441970849797
               },
               "southwest" : {
                  "lat" : 39.99352246970849,
                  "lng" : -0.06978238029150204
               }
            }
         },
         "place_id" : "ChIJl0X77g7-Xw0RuIhFL0n6CTM",
         "types" : [ "route" ]
      },
      {
         "address_components" : [
            {
               "long_name" : "Castellón de la Plana",
               "short_name" : "Castellón de la Plana",
               "types" : [ "locality", "political" ]
            },
            {
               "long_name" : "Castellón",
               "short_name" : "Castellón",
               "types" : [ "administrative_area_level_2", "political" ]
            },
            {
               "long_name" : "Valencian Community",
               "short_name" : "Valencian Community",
               "types" : [ "administrative_area_level_1", "political" ]
            },
            {
               "long_name" : "Spain",
               "short_name" : "ES",
               "types" : [ "country", "political" ]
            }
         ],
         "formatted_address" : "Castellón de la Plana, Castellón, Spain",
         "geometry" : {
            "bounds" : {
               "northeast" : {
                  "lat" : 40.0041729,
                  "lng" : -0.0163697
               },
               "southwest" : {
                  "lat" : 39.970746,
                  "lng" : -0.0797563
               }
            },
            "location" : {
               "lat" : 39.9863563,
               "lng" : -0.0513246
            },
            "location_type" : "APPROXIMATE",
            "viewport" : {
               "northeast" : {
                  "lat" : 40.0041729,
                  "lng" : -0.0163697
               },
               "southwest" : {
                  "lat" : 39.970746,
                  "lng" : -0.0797563
               }
            }
         },
         "place_id" : "ChIJl8EruCv-Xw0RSU_G4Usgib8",
         "types" : [ "locality", "political" ]
      },
      {
         "address_components" : [
            {
               "long_name" : "12006",
               "short_name" : "12006",
               "types" : [ "postal_code" ]
            },
            {
               "long_name" : "Castellón de la Plana",
               "short_name" : "Castellón de la Plana",
               "types" : [ "locality", "political" ]
            },
            {
               "long_name" : "Castellón",
               "short_name" : "Castellón",
               "types" : [ "administrative_area_level_2", "political" ]
            },
            {
               "long_name" : "Valencian Community",
               "short_name" : "Valencian Community",
               "types" : [ "administrative_area_level_1", "political" ]
            },
            {
               "long_name" : "Spain",
               "short_name" : "ES",
               "types" : [ "country", "political" ]
            }
         ],
         "formatted_address" : "12006 Castellón de la Plana, Castellón, Spain",
         "geometry" : {
            "bounds" : {
               "northeast" : {
                  "lat" : 40.0330235,
                  "lng" : -0.0427362
               },
               "southwest" : {
                  "lat" : 39.9601759,
                  "lng" : -0.1644062
               }
            },
            "location" : {
               "lat" : 39.9965828,
               "lng" : -0.1073935
            },
            "location_type" : "APPROXIMATE",
            "viewport" : {
               "northeast" : {
                  "lat" : 40.0330235,
                  "lng" : -0.0427362
               },
               "southwest" : {
                  "lat" : 39.9601759,
                  "lng" : -0.1644062
               }
            }
         },
         "place_id" : "ChIJV_jk9Zn9Xw0RAF0TPnKvAhw",
         "types" : [ "postal_code" ]
      },
      {
         "address_components" : [
            {
               "long_name" : "Castellón de la Plana",
               "short_name" : "Castellón de la Plana",
               "types" : [ "administrative_area_level_4", "political" ]
            },
            {
               "long_name" : "Castellón",
               "short_name" : "Castellón",
               "types" : [ "administrative_area_level_2", "political" ]
            },
            {
               "long_name" : "Valencian Community",
               "short_name" : "Valencian Community",
               "types" : [ "administrative_area_level_1", "political" ]
            },
            {
               "long_name" : "Spain",
               "short_name" : "ES",
               "types" : [ "country", "political" ]
            }
         ],
         "formatted_address" : "Castellón de la Plana, Castellón, Spain",
         "geometry" : {
            "bounds" : {
               "northeast" : {
                  "lat" : 40.06441350000001,
                  "lng" : 0.6912275999999999
               },
               "southwest" : {
                  "lat" : 39.8501212,
                  "lng" : -0.1644067
               }
            },
            "location" : {
               "lat" : 40.0017505,
               "lng" : -0.05599390000000001
            },
            "location_type" : "APPROXIMATE",
            "viewport" : {
               "northeast" : {
                  "lat" : 40.06441350000001,
                  "lng" : 0.6912275999999999
               },
               "southwest" : {
                  "lat" : 39.8501212,
                  "lng" : -0.1644067
               }
            }
         },
         "place_id" : "ChIJ34vk7yj-Xw0RXqONjd-SdlM",
         "types" : [ "administrative_area_level_4", "political" ]
      },
      {
         "address_components" : [
            {
               "long_name" : "Plana Alta",
               "short_name" : "Plana Alta",
               "types" : [ "administrative_area_level_3", "political" ]
            },
            {
               "long_name" : "Castellón",
               "short_name" : "Castellón",
               "types" : [ "administrative_area_level_2", "political" ]
            },
            {
               "long_name" : "Valencian Community",
               "short_name" : "Valencian Community",
               "types" : [ "administrative_area_level_1", "political" ]
            },
            {
               "long_name" : "Spain",
               "short_name" : "ES",
               "types" : [ "country", "political" ]
            }
         ],
         "formatted_address" : "Plana Alta, Castellón, Spain",
         "geometry" : {
            "bounds" : {
               "northeast" : {
                  "lat" : 40.4182745,
                  "lng" : 0.6887496
               },
               "southwest" : {
                  "lat" : 39.8933317,
                  "lng" : -0.1659079
               }
            },
            "location" : {
               "lat" : 40.2271003,
               "lng" : 0.0746767
            },
            "location_type" : "APPROXIMATE",
            "viewport" : {
               "northeast" : {
                  "lat" : 40.4182745,
                  "lng" : 0.6887496
               },
               "southwest" : {
                  "lat" : 39.8933317,
                  "lng" : -0.1659079
               }
            }
         },
         "place_id" : "ChIJHWyn-ncXoBIRxF_Aq-DRWQg",
         "types" : [ "administrative_area_level_3", "political" ]
      },
      {
         "address_components" : [
            {
               "long_name" : "Castellón",
               "short_name" : "Castellón",
               "types" : [ "administrative_area_level_2", "political" ]
            },
            {
               "long_name" : "Valencian Community",
               "short_name" : "Valencian Community",
               "types" : [ "administrative_area_level_1", "political" ]
            },
            {
               "long_name" : "Spain",
               "short_name" : "ES",
               "types" : [ "country", "political" ]
            }
         ],
         "formatted_address" : "Castellón, Spain",
         "geometry" : {
            "bounds" : {
               "northeast" : {
                  "lat" : 40.7886312,
                  "lng" : 0.6912275999999999
               },
               "southwest" : {
                  "lat" : 39.7146978,
                  "lng" : -0.8462968
               }
            },
            "location" : {
               "lat" : 40.1451772,
               "lng" : -0.1494988
            },
            "location_type" : "APPROXIMATE",
            "viewport" : {
               "northeast" : {
                  "lat" : 40.7886312,
                  "lng" : 0.6912275999999999
               },
               "southwest" : {
                  "lat" : 39.7146978,
                  "lng" : -0.8462968
               }
            }
         },
         "place_id" : "ChIJd-4zz4vzXw0R8Mkh126vAgM",
         "types" : [ "administrative_area_level_2", "political" ]
      },
      {
         "address_components" : [
            {
               "long_name" : "Valencian Community",
               "short_name" : "Valencian Community",
               "types" : [ "administrative_area_level_1", "political" ]
            },
            {
               "long_name" : "Spain",
               "short_name" : "ES",
               "types" : [ "country", "political" ]
            }
         ],
         "formatted_address" : "Valencian Community, Spain",
         "geometry" : {
            "bounds" : {
               "northeast" : {
                  "lat" : 40.7886312,
                  "lng" : 0.6912275999999999
               },
               "southwest" : {
                  "lat" : 37.8438987,
                  "lng" : -1.5289447
               }
            },
            "location" : {
               "lat" : 39.4840108,
               "lng" : -0.7532808999999999
            },
            "location_type" : "APPROXIMATE",
            "viewport" : {
               "northeast" : {
                  "lat" : 40.7886312,
                  "lng" : 0.6912275999999999
               },
               "southwest" : {
                  "lat" : 37.8438987,
                  "lng" : -1.5289447
               }
            }
         },
         "place_id" : "ChIJDTGOzUD8XQ0RXQsxGLjLQF8",
         "types" : [ "administrative_area_level_1", "political" ]
      },
      {
         "address_components" : [
            {
               "long_name" : "Spain",
               "short_name" : "ES",
               "types" : [ "country", "political" ]
            }
         ],
         "formatted_address" : "Spain",
         "geometry" : {
            "bounds" : {
               "northeast" : {
                  "lat" : 43.8504,
                  "lng" : 4.6362
               },
               "southwest" : {
                  "lat" : 27.4985,
                  "lng" : -18.2648001
               }
            },
            "location" : {
               "lat" : 40.46366700000001,
               "lng" : -3.74922
            },
            "location_type" : "APPROXIMATE",
            "viewport" : {
               "northeast" : {
                  "lat" : 43.8504,
                  "lng" : 4.6362
               },
               "southwest" : {
                  "lat" : 27.4985,
                  "lng" : -18.2648001
               }
            }
         },
         "place_id" : "ChIJi7xhMnjjQgwR7KNoB5Qs7KY",
         "types" : [ "country", "political" ]
      }
   ],
   "status" : "OK"
}
