{
   "plus_code" : {
      "compound_code" : "RGC2+HM Castelo Branco, Portugal",
      "global_code" : "8CFJRGC2+HM"
   },
   "results" : [
      {
         "address_components" : [
            {
               "long_name" : "12",
               "short_name" : "12",
               "types" : [ "street_number" ]
            },
            {
               "long_name" : "Avenida Pedro Alvares Cabral",
               "short_name" : "Av. Pedro Alvares Cabral",
               "types" : [ "route" ]
            },
            {
               "long_name" : "Castelo Branco",
               "short_name" : "Castelo Branco",
               "types" : [ "locality", "political" ]
            },
            {
               "long_name" : "Castelo Branco",
               "short_name" : "Castelo Branco",
               "types" : [ "administrative_area_level_1", "political" ]
            },
            {
               "long_name" : "Portugal",
               "short_name" : "PT",
               "types" : [ "country", "political" ]
            },
            {
               "long_name" : "6000-084",
               "short_name" : "6000-084",
               "types" : [ "postal_code" ]
            }
         ],
         "formatted_address" : "Av. Pedro Alvares Cabral 12, 6000-084 Castelo Branco, Portugal",
         "geometry" : {
            "location" : {
               "lat" : 39.8214524,
               "lng" : -7.4982929
            },
            "location_type" : "ROOFTOP",
            "viewport" : {
               "northeast" : {
                  "lat" : 39.82280138029149,
                  "lng" : -7.496943919708498
               },
               "southwest" : {
                  "lat" : 39.8201034197085,
                  "lng" : -7.499641880291501
               }
            }
         },
         "place_id" : "ChIJwcBRryBcPQ0R5m2JhLQrzy8",
         "plus_code" : {
            "compound_code" : "RGC2+HM Castelo Branco, Portugal",
            "global_code" : "8CFJRGC2+HM"
         },
         "types" : [ "street_address" ]
      },
      {
         "address_components" : [
            {
               "long_name" : "12",
               "short_name" : "12",
               "types" : [ "street_number" ]
            },
            {
               "long_name" : "Avenida Pedro Alvares Cabral",
               "short_name" : "Av. Pedro Alvares Cabral",
               "types" : [ "route" ]
            },
            {
               "long_name" : "Castelo Branco",
               "short_name" : "Castelo Branco",
               "types" : [ "locality", "political" ]
            },
            {
               "long_name" : "Castelo Branco",
               "short_name" : "Castelo Branco",
               "types" : [ "administrative_area_level_1", "political" ]
            },
            {
               "long_name" : "Portugal",
               "short_name" : "PT",
               "types" : [ "country", "political" ]
            },
            {
               "long_name" : "6000-084",
               "short_name" : "6000-084",
               "types" : [ "postal_code" ]
            }
         ],
         "formatted_address" : "Av. Pedro Alvares Cabral 12, 6000-084 Castelo Branco, Portugal",
         "geometry" : {
            "location" : {
               "lat" : 39.8214524,
               "lng" : -7.4982929
            },
            "location_type" : "ROOFTOP",
            "viewport" : {
               "northeast" : {
                  "lat" : 39.82280138029149,
                  "lng" : -7.496943919708498
               },
               "southwest" : {
                  "lat" : 39.8201034197085,
                  "lng" : -7.499641880291501
               }
            }
         },
         "place_id" : "ChIJu38SInVePQ0RsYSAiceRs_I",
         "plus_code" : {
            "compound_code" : "RGC2+HM Castelo Branco, Portugal",
            "global_code" : "8CFJRGC2+HM"
         },
         "types" : [ "establishment", "point_of_interest", "university" ]
      },
      {
         "address_components" : [
            {
               "long_name" : "12",
               "short_name" : "12",
               "types" : [ "street_number" ]
            },
            {
               "long_name" : "Avenida Pedro Alvares Cabral",
               "short_name" : "Av. Pedro Alvares Cabral",
               "types" : [ "route" ]
            },
            {
               "long_name" : "Castelo Branco",
               "short_name" : "Castelo Branco",
               "types" : [ "locality", "political" ]
            },
            {
               "long_name" : "Portugal",
               "short_name" : "PT",
               "types" : [ "country", "political" ]
            }
         ],
         "formatted_address" : "Av. Pedro Alvares Cabral 12, Castelo Branco, Portugal",
         "geometry" : {
            "location" : {
               "lat" : 39.8213797,
               "lng" : -7.498361900000001
            },
            "location_type" : "RANGE_INTERPOLATED",
            "viewport" : {
               "northeast" : {
                  "lat" : 39.8227286802915,
                  "lng" : -7.497012919708498
               },
               "southwest" : {
                  "lat" : 39.82003071970851,
                  "lng" : -7.499710880291503
               }
            }
         },
         "place_id" : "EjVBdi4gUGVkcm8gQWx2YXJlcyBDYWJyYWwgMTIsIENhc3RlbG8gQnJhbmNvLCBQb3J0dWdhbCIaEhgKFAoSCVHzzakgXD0NEXTv9puYaqYZEAw",
         "types" : [ "street_address" ]
      },
      {
         "address_components" : [
            {
               "long_name" : "6000-249",
               "short_name" : "6000-249",
               "types" : [ "postal_code" ]
            },
            {
               "long_name" : "Castelo Branco",
               "short_name" : "Castelo Branco",
               "types" : [ "locality", "political" ]
            },
            {
               "long_name" : "Castelo Branco District",
               "short_name" : "Castelo Branco District",
               "types" : [ "administrative_area_level_1", "political" ]
            },
            {
               "long_name" : "Portugal",
               "short_name" : "PT",
               "types" : [ "country", "political" ]
            }
         ],
         "formatted_address" : "6000-249 Castelo Branco, Portugal",
         "geometry" : {
            "bounds" : {
               "northeast" : {
                  "lat" : 39.8225151,
                  "lng" : -7.4963003
               },
               "southwest" : {
                  "lat" : 39.8210602,
                  "lng" : -7.499007
               }
            },
            "location" : {
               "lat" : 39.8217931,
               "lng" : -7.4977835
            },
            "location_type" : "APPROXIMATE",
            "viewport" : {
               "northeast" : {
                  "lat" : 39.82313663029149,
                  "lng" : -7.4963003
               },
               "southwest" : {
                  "lat" : 39.82043866970849,
                  "lng" : -7.499007
               }
            }
         },
         "place_id" : "ChIJizmDsiBcPQ0RB0XjsZnEDHM",
         "types" : [ "postal_code" ]
      },
      {
         "address_components" : [
            {
               "long_name" : "Castelo Branco",
               "short_name" : "Castelo Branco",
               "types" : [ "administrative_area_level_3", "political" ]
            },
            {
               "long_name" : "Castelo Branco",
               "short_name" : "Castelo Branco",
               "types" : [ "locality", "political" ]
            },
            {
               "long_name" : "Castelo Branco",
               "short_name" : "Castelo Branco",
               "types" : [ "administrative_area_level_1", "political" ]
            },
            {
               "long_name" : "Portugal",
               "short_name" : "PT",
               "types" : [ "country", "political" ]
            },
            {
               "long_name" : "6000",
               "short_name" : "6000",
               "types" : [ "postal_code", "postal_code_prefix" ]
            }
         ],
         "formatted_address" : "Castelo Branco, 6000 Castelo Branco, Portugal",
         "geometry" : {
            "bounds" : {
               "northeast" : {
                  "lat" : 39.9093461,
                  "lng" : -7.367089999999999
               },
               "southwest" : {
                  "lat" : 39.7136873,
                  "lng" : -7.5591241
               }
            },
            "location" : {
               "lat" : 39.8031161,
               "lng" : -7.4597725
            },
            "location_type" : "APPROXIMATE",
            "viewport" : {
               "northeast" : {
                  "lat" : 39.9093461,
                  "lng" : -7.367089999999999
               },
               "southwest" : {
                  "lat" : 39.7136873,
                  "lng" : -7.5591241
               }
            }
         },
         "place_id" : "ChIJKc5HsW1ePQ0RwJmQ5L3rAAU",
         "types" : [ "administrative_area_level_3", "political" ]
      },
      {
         "address_components" : [
            {
               "long_name" : "Castelo Branco",
               "short_name" : "Castelo Branco",
               "types" : [ "locality", "political" ]
            },
            {
               "long_name" : "Castelo Branco District",
               "short_name" : "Castelo Branco District",
               "types" : [ "administrative_area_level_1", "political" ]
            },
            {
               "long_name" : "Portugal",
               "short_name" : "PT",
               "types" : [ "country", "political" ]
            },
            {
               "long_name" : "6000",
               "short_name" : "6000",
               "types" : [ "postal_code", "postal_code_prefix" ]
            }
         ],
         "formatted_address" : "6000 Castelo Branco, Portugal",
         "geometry" : {
            "bounds" : {
               "northeast" : {
                  "lat" : 39.9093461,
                  "lng" : -7.367089999999999
               },
               "southwest" : {
                  "lat" : 39.7136873,
                  "lng" : -7.5591241
               }
            },
            "location" : {
               "lat" : 39.8197117,
               "lng" : -7.4964662
            },
            "location_type" : "APPROXIMATE",
            "viewport" : {
               "northeast" : {
                  "lat" : 39.9093461,
                  "lng" : -7.367089999999999
               },
               "southwest" : {
                  "lat" : 39.7136873,
                  "lng" : -7.5591241
               }
            }
         },
         "place_id" : "ChIJ23-QlShcPQ0RQB67VSpqcBw",
         "types" : [ "locality", "political" ]
      },
      {
         "address_components" : [
            {
               "long_name" : "6000",
               "short_name" : "6000",
               "types" : [ "postal_code", "postal_code_prefix" ]
            },
            {
               "long_name" : "Castelo Branco District",
               "short_name" : "Castelo Branco District",
               "types" : [ "administrative_area_level_1", "political" ]
            },
            {
               "long_name" : "Portugal",
               "short_name" : "PT",
               "types" : [ "country", "political" ]
            }
         ],
         "formatted_address" : "6000, Portugal",
         "geometry" : {
            "bounds" : {
               "northeast" : {
                  "lat" : 40.0818161,
                  "lng" : -7.179134999999999
               },
               "southwest" : {
                  "lat" : 39.6408621,
                  "lng" : -7.8504747
               }
            },
            "location" : {
               "lat" : 39.8575017,
               "lng" : -7.5680595
            },
            "location_type" : "APPROXIMATE",
            "viewport" : {
               "northeast" : {
                  "lat" : 40.0818161,
                  "lng" : -7.179134999999999
               },
               "southwest" : {
                  "lat" : 39.6408621,
                  "lng" : -7.8504747
               }
            }
         },
         "place_id" : "ChIJBwbr8IdcPQ0R8KQ7DsHrABw",
         "types" : [ "postal_code", "postal_code_prefix" ]
      },
      {
         "address_components" : [
            {
               "long_name" : "Castelo Branco",
               "short_name" : "Castelo Branco",
               "types" : [ "administrative_area_level_2", "political" ]
            },
            {
               "long_name" : "Castelo Branco District",
               "short_name" : "Castelo Branco District",
               "types" : [ "administrative_area_level_1", "political" ]
            },
            {
               "long_name" : "Portugal",
               "short_name" : "PT",
               "types" : [ "country", "political" ]
            }
         ],
         "formatted_address" : "Castelo Branco, Portugal",
         "geometry" : {
            "bounds" : {
               "northeast" : {
                  "lat" : 40.0836478,
                  "lng" : -7.1791534
               },
               "southwest" : {
                  "lat" : 39.64084649999999,
                  "lng" : -7.8507551
               }
            },
            "location" : {
               "lat" : 39.8631323,
               "lng" : -7.4814163
            },
            "location_type" : "APPROXIMATE",
            "viewport" : {
               "northeast" : {
                  "lat" : 40.0836478,
                  "lng" : -7.1791534
               },
               "southwest" : {
                  "lat" : 39.64084649999999,
                  "lng" : -7.8507551
               }
            }
         },
         "place_id" : "ChIJ_1PqwodcPQ0REDGQ5L3rAAQ",
         "types" : [ "administrative_area_level_2", "political" ]
      },
      {
         "address_components" : [
            {
               "long_name" : "Castelo Branco District",
               "short_name" : "Castelo Branco District",
               "types" : [ "administrative_area_level_1", "political" ]
            },
            {
               "long_name" : "Portugal",
               "short_name" : "PT",
               "types" : [ "country", "political" ]
            }
         ],
         "formatted_address" : "Castelo Branco District, Portugal",
         "geometry" : {
            "bounds" : {
               "northeast" : {
                  "lat" : 40.4161317,
                  "lng" : -6.863785
               },
               "southwest" : {
                  "lat" : 39.5373649,
                  "lng" : -8.293123399999999
               }
            },
            "location" : {
               "lat" : 39.8253609,
               "lng" : -7.4910995
            },
            "location_type" : "APPROXIMATE",
            "viewport" : {
               "northeast" : {
                  "lat" : 40.4161317,
                  "lng" : -6.863785
               },
               "southwest" : {
                  "lat" : 39.5373649,
                  "lng" : -8.293123399999999
               }
            }
         },
         "place_id" : "ChIJFSA9e6BDPQ0RsCLTRdTrn1k",
         "types" : [ "administrative_area_level_1", "political" ]
      },
      {
         "address_components" : [
            {
               "long_name" : "Portugal",
               "short_name" : "PT",
               "types" : [ "country", "political" ]
            }
         ],
         "formatted_address" : "Portugal",
         "geometry" : {
            "bounds" : {
               "northeast" : {
                  "lat" : 42.1543111,
                  "lng" : -6.189159200000001
               },
               "southwest" : {
                  "lat" : 32.2895,
                  "lng" : -31.4647999
               }
            },
            "location" : {
               "lat" : 39.39987199999999,
               "lng" : -8.224454
            },
            "location_type" : "APPROXIMATE",
            "viewport" : {
               "northeast" : {
                  "lat" : 42.1543111,
                  "lng" : -6.189159200000001
               },
               "southwest" : {
                  "lat" : 32.2895,
                  "lng" : -31.4647999
               }
            }
         },
         "place_id" : "ChIJ1SZCvy0kMgsRQfBOHAlLuCo",
         "types" : [ "country", "political" ]
      }
   ],
   "status" : "OK"
}
