{
   "plus_code" : {
      "compound_code" : "XVPG+CJ Arnhem, Netherlands",
      "global_code" : "9F37XVPG+CJ"
   },
   "results" : [
      {
         "address_components" : [
            {
               "long_name" : "310",
               "short_name" : "310",
               "types" : [ "street_number" ]
            },
            {
               "long_name" : "Utrechtseweg",
               "short_name" : "Utrechtseweg",
               "types" : [ "route" ]
            },
            {
               "long_name" : "Arnhem",
               "short_name" : "Arnhem",
               "types" : [ "locality", "political" ]
            },
            {
               "long_name" : "Arnhem",
               "short_name" : "Arnhem",
               "types" : [ "administrative_area_level_2", "political" ]
            },
            {
               "long_name" : "Gelderland",
               "short_name" : "GE",
               "types" : [ "administrative_area_level_1", "political" ]
            },
            {
               "long_name" : "Netherlands",
               "short_name" : "NL",
               "types" : [ "country", "political" ]
            },
            {
               "long_name" : "6812 AR",
               "short_name" : "6812 AR",
               "types" : [ "postal_code" ]
            }
         ],
         "formatted_address" : "Utrechtseweg 310, 6812 AR Arnhem, Netherlands",
         "geometry" : {
            "location" : {
               "lat" : 51.9860171,
               "lng" : 5.8766146
            },
            "location_type" : "ROOFTOP",
            "viewport" : {
               "northeast" : {
                  "lat" : 51.98736608029149,
                  "lng" : 5.877963580291502
               },
               "southwest" : {
                  "lat" : 51.98466811970849,
                  "lng" : 5.875265619708498
               }
            }
         },
         "place_id" : "ChIJyT3PoI2lx0cRiR7QENOoupA",
         "plus_code" : {
            "compound_code" : "XVPG+CJ Arnhem, Netherlands",
            "global_code" : "9F37XVPG+CJ"
         },
         "types" : [ "establishment", "point_of_interest" ]
      },
      {
         "address_components" : [
            {
               "long_name" : "306",
               "short_name" : "306",
               "types" : [ "street_number" ]
            },
            {
               "long_name" : "Utrechtseweg",
               "short_name" : "Utrechtseweg",
               "types" : [ "route" ]
            },
            {
               "long_name" : "Arnhem",
               "short_name" : "Arnhem",
               "types" : [ "locality", "political" ]
            },
            {
               "long_name" : "Arnhem",
               "short_name" : "Arnhem",
               "types" : [ "administrative_area_level_2", "political" ]
            },
            {
               "long_name" : "Gelderland",
               "short_name" : "GE",
               "types" : [ "administrative_area_level_1", "political" ]
            },
            {
               "long_name" : "Netherlands",
               "short_name" : "NL",
               "types" : [ "country", "political" ]
            },
            {
               "long_name" : "6812 AR",
               "short_name" : "6812 AR",
               "types" : [ "postal_code" ]
            }
         ],
         "formatted_address" : "Utrechtseweg 306, 6812 AR Arnhem, Netherlands",
         "geometry" : {
            "location" : {
               "lat" : 51.9857628,
               "lng" : 5.8765363
            },
            "location_type" : "ROOFTOP",
            "viewport" : {
               "northeast" : {
                  "lat" : 51.9871117802915,
                  "lng" : 5.877885280291502
               },
               "southwest" : {
                  "lat" : 51.9844138197085,
                  "lng" : 5.875187319708497
               }
            }
         },
         "place_id" : "ChIJbwcuzpOlx0cRRnccLZ2UT_M",
         "plus_code" : {
            "compound_code" : "XVPG+8J Arnhem, Netherlands",
            "global_code" : "9F37XVPG+8J"
         },
         "types" : [ "street_address" ]
      },
      {
         "address_components" : [
            {
               "long_name" : "Brinkweg",
               "short_name" : "Brinkweg",
               "types" : [ "route" ]
            },
            {
               "long_name" : "Arnhem",
               "short_name" : "Arnhem",
               "types" : [ "locality", "political" ]
            },
            {
               "long_name" : "Arnhem",
               "short_name" : "Arnhem",
               "types" : [ "administrative_area_level_2", "political" ]
            },
            {
               "long_name" : "Gelderland",
               "short_name" : "GE",
               "types" : [ "administrative_area_level_1", "political" ]
            },
            {
               "long_name" : "Netherlands",
               "short_name" : "NL",
               "types" : [ "country", "political" ]
            },
            {
               "long_name" : "6812",
               "short_name" : "6812",
               "types" : [ "postal_code", "postal_code_prefix" ]
            }
         ],
         "formatted_address" : "Brinkweg, 6812 Arnhem, Netherlands",
         "geometry" : {
            "bounds" : {
               "northeast" : {
                  "lat" : 51.9864262,
                  "lng" : 5.8760816
               },
               "southwest" : {
                  "lat" : 51.986266,
                  "lng" : 5.8758054
               }
            },
            "location" : {
               "lat" : 51.9863515,
               "lng" : 5.8759311
            },
            "location_type" : "ROOFTOP",
            "viewport" : {
               "northeast" : {
                  "lat" : 51.9876950802915,
                  "lng" : 5.877292480291502
               },
               "southwest" : {
                  "lat" : 51.9849971197085,
                  "lng" : 5.874594519708498
               }
            }
         },
         "place_id" : "ChIJxxjhKpKlx0cRaNHVbMv7hQI",
         "types" : [ "premise" ]
      },
      {
         "address_components" : [
            {
               "long_name" : "236",
               "short_name" : "236",
               "types" : [ "street_number" ]
            },
            {
               "long_name" : "Zuidelijke Parallelweg",
               "short_name" : "Zuidelijke Parallelweg",
               "types" : [ "route" ]
            },
            {
               "long_name" : "Arnhem",
               "short_name" : "Arnhem",
               "types" : [ "locality", "political" ]
            },
            {
               "long_name" : "Netherlands",
               "short_name" : "NL",
               "types" : [ "country", "political" ]
            },
            {
               "long_name" : "6812 BZ",
               "short_name" : "6812 BZ",
               "types" : [ "postal_code" ]
            }
         ],
         "formatted_address" : "Zuidelijke Parallelweg 236, 6812 BZ Arnhem, Netherlands",
         "geometry" : {
            "location" : {
               "lat" : 51.98634389999999,
               "lng" : 5.877543699999999
            },
            "location_type" : "RANGE_INTERPOLATED",
            "viewport" : {
               "northeast" : {
                  "lat" : 51.9876928802915,
                  "lng" : 5.878892680291502
               },
               "southwest" : {
                  "lat" : 51.9849949197085,
                  "lng" : 5.876194719708497
               }
            }
         },
         "place_id" : "EjVadWlkZWxpamtlIFBhcmFsbGVsd2VnIDIzNiwgNjgxMiBCWiBBcm5oZW0sIE5lZGVybGFuZCIbEhkKFAoSCXkFruKTpcdHEQGmX2aSJ1qtEOwB",
         "types" : [ "street_address" ]
      },
      {
         "address_components" : [
            {
               "long_name" : "6811 CG",
               "short_name" : "6811 CG",
               "types" : [ "postal_code" ]
            },
            {
               "long_name" : "Arnhem",
               "short_name" : "Arnhem",
               "types" : [ "locality", "political" ]
            },
            {
               "long_name" : "Arnhem",
               "short_name" : "Arnhem",
               "types" : [ "administrative_area_level_2", "political" ]
            },
            {
               "long_name" : "Gelderland",
               "short_name" : "GE",
               "types" : [ "administrative_area_level_1", "political" ]
            },
            {
               "long_name" : "Netherlands",
               "short_name" : "NL",
               "types" : [ "country", "political" ]
            }
         ],
         "formatted_address" : "6811 CG Arnhem, Netherlands",
         "geometry" : {
            "bounds" : {
               "northeast" : {
                  "lat" : 51.9864889,
                  "lng" : 5.912692499999999
               },
               "southwest" : {
                  "lat" : 51.9767021,
                  "lng" : 5.8758118
               }
            },
            "location" : {
               "lat" : 51.9777651,
               "lng" : 5.909532599999999
            },
            "location_type" : "APPROXIMATE",
            "viewport" : {
               "northeast" : {
                  "lat" : 51.9864889,
                  "lng" : 5.912692499999999
               },
               "southwest" : {
                  "lat" : 51.9767021,
                  "lng" : 5.8758118
               }
            }
         },
         "place_id" : "ChIJYfXY3Mqlx0cRoD0SnC0VE08",
         "types" : [ "postal_code" ]
      },
      {
         "address_components" : [
            {
               "long_name" : "6812",
               "short_name" : "6812",
               "types" : [ "postal_code", "postal_code_prefix" ]
            },
            {
               "long_name" : "Arnhem",
               "short_name" : "Arnhem",
               "types" : [ "locality", "political" ]
            },
            {
               "long_name" : "Arnhem",
               "short_name" : "Arnhem",
               "types" : [ "administrative_area_level_2", "political" ]
            },
            {
               "long_name" : "Gelderland",
               "short_name" : "GE",
               "types" : [ "administrative_area_level_1", "political" ]
            },
            {
               "long_name" : "Netherlands",
               "short_name" : "NL",
               "types" : [ "country", "political" ]
            }
         ],
         "formatted_address" : "6812 Arnhem, Netherlands",
         "geometry" : {
            "bounds" : {
               "northeast" : {
                  "lat" : 51.98678040000001,
                  "lng" : 5.900795
               },
               "southwest" : {
                  "lat" : 51.9749823,
                  "lng" : 5.8636863
               }
            },
            "location" : {
               "lat" : 51.9838608,
               "lng" : 5.8755333
            },
            "location_type" : "APPROXIMATE",
            "viewport" : {
               "northeast" : {
                  "lat" : 51.98678040000001,
                  "lng" : 5.900795
               },
               "southwest" : {
                  "lat" : 51.9749823,
                  "lng" : 5.8636863
               }
            }
         },
         "place_id" : "ChIJGVcsLZWlx0cR4d7Tt9OOXr8",
         "types" : [ "postal_code", "postal_code_prefix" ]
      },
      {
         "address_components" : [
            {
               "long_name" : "Klingelbeek",
               "short_name" : "Klingelbeek",
               "types" : [ "political", "sublocality", "sublocality_level_2" ]
            },
            {
               "long_name" : "Elderveld",
               "short_name" : "Elderveld",
               "types" : [ "political", "sublocality", "sublocality_level_1" ]
            },
            {
               "long_name" : "Arnhem",
               "short_name" : "Arnhem",
               "types" : [ "locality", "political" ]
            },
            {
               "long_name" : "Arnhem",
               "short_name" : "Arnhem",
               "types" : [ "administrative_area_level_2", "political" ]
            },
            {
               "long_name" : "Gelderland",
               "short_name" : "GE",
               "types" : [ "administrative_area_level_1", "political" ]
            },
            {
               "long_name" : "Netherlands",
               "short_name" : "NL",
               "types" : [ "country", "political" ]
            }
         ],
         "formatted_address" : "Klingelbeek, Arnhem, Netherlands",
         "geometry" : {
            "bounds" : {
               "northeast" : {
                  "lat" : 51.9869819,
                  "lng" : 5.8856029
               },
               "southwest" : {
                  "lat" : 51.9723509,
                  "lng" : 5.863924
               }
            },
            "location" : {
               "lat" : 51.98000159999999,
               "lng" : 5.8730458
            },
            "location_type" : "APPROXIMATE",
            "viewport" : {
               "northeast" : {
                  "lat" : 51.9869819,
                  "lng" : 5.8856029
               },
               "southwest" : {
                  "lat" : 51.9723509,
                  "lng" : 5.863924
               }
            }
         },
         "place_id" : "ChIJF-E3J-ulx0cRomi7u3rBkNQ",
         "types" : [ "political", "sublocality", "sublocality_level_2" ]
      },
      {
         "address_components" : [
            {
               "long_name" : "Arnhem",
               "short_name" : "Arnhem",
               "types" : [ "locality", "political" ]
            },
            {
               "long_name" : "Arnhem",
               "short_name" : "Arnhem",
               "types" : [ "administrative_area_level_2", "political" ]
            },
            {
               "long_name" : "Gelderland",
               "short_name" : "GE",
               "types" : [ "administrative_area_level_1", "political" ]
            },
            {
               "long_name" : "Netherlands",
               "short_name" : "NL",
               "types" : [ "country", "political" ]
            }
         ],
         "formatted_address" : "Arnhem, Netherlands",
         "geometry" : {
            "bounds" : {
               "northeast" : {
                  "lat" : 52.0778176,
                  "lng" : 5.9901518
               },
               "southwest" : {
                  "lat" : 51.9334141,
                  "lng" : 5.8030456
               }
            },
            "location" : {
               "lat" : 51.9851034,
               "lng" : 5.898729599999999
            },
            "location_type" : "APPROXIMATE",
            "viewport" : {
               "northeast" : {
                  "lat" : 52.0778176,
                  "lng" : 5.9901518
               },
               "southwest" : {
                  "lat" : 51.9334141,
                  "lng" : 5.8030456
               }
            }
         },
         "place_id" : "ChIJcyKbzpG6x0cR18pz-eBaHBY",
         "types" : [ "locality", "political" ]
      },
      {
         "address_components" : [
            {
               "long_name" : "Arnhem",
               "short_name" : "Arnhem",
               "types" : [ "administrative_area_level_2", "political" ]
            },
            {
               "long_name" : "Gelderland",
               "short_name" : "GE",
               "types" : [ "administrative_area_level_1", "political" ]
            },
            {
               "long_name" : "Netherlands",
               "short_name" : "NL",
               "types" : [ "country", "political" ]
            }
         ],
         "formatted_address" : "Arnhem, Netherlands",
         "geometry" : {
            "bounds" : {
               "northeast" : {
                  "lat" : 52.0778176,
                  "lng" : 5.9901518
               },
               "southwest" : {
                  "lat" : 51.9334141,
                  "lng" : 5.8030456
               }
            },
            "location" : {
               "lat" : 51.98533070000001,
               "lng" : 5.904656399999999
            },
            "location_type" : "APPROXIMATE",
            "viewport" : {
               "northeast" : {
                  "lat" : 52.0778176,
                  "lng" : 5.9901518
               },
               "southwest" : {
                  "lat" : 51.9334141,
                  "lng" : 5.8030456
               }
            }
         },
         "place_id" : "ChIJcyKbzpG6x0cRoEH45uDn_sg",
         "types" : [ "administrative_area_level_2", "political" ]
      },
      {
         "address_components" : [
            {
               "long_name" : "Gelderland",
               "short_name" : "Gelderland",
               "types" : [ "administrative_area_level_1", "political" ]
            },
            {
               "long_name" : "Netherlands",
               "short_name" : "NL",
               "types" : [ "country", "political" ]
            }
         ],
         "formatted_address" : "Gelderland, Netherlands",
         "geometry" : {
            "bounds" : {
               "northeast" : {
                  "lat" : 52.5220087,
                  "lng" : 6.833041799999999
               },
               "southwest" : {
                  "lat" : 51.7336076,
                  "lng" : 4.9938809
               }
            },
            "location" : {
               "lat" : 52.045155,
               "lng" : 5.8718235
            },
            "location_type" : "APPROXIMATE",
            "viewport" : {
               "northeast" : {
                  "lat" : 52.5220087,
                  "lng" : 6.833041799999999
               },
               "southwest" : {
                  "lat" : 51.7336076,
                  "lng" : 4.9938809
               }
            }
         },
         "place_id" : "ChIJB-9Q0R-6x0cRcFwejVreAAM",
         "types" : [ "administrative_area_level_1", "political" ]
      },
      {
         "address_components" : [
            {
               "long_name" : "Netherlands",
               "short_name" : "NL",
               "types" : [ "country", "political" ]
            }
         ],
         "formatted_address" : "Netherlands",
         "geometry" : {
            "bounds" : {
               "northeast" : {
                  "lat" : 53.6316,
                  "lng" : 7.227510199999999
               },
               "southwest" : {
                  "lat" : 50.75038379999999,
                  "lng" : 3.3316001
               }
            },
            "location" : {
               "lat" : 52.132633,
               "lng" : 5.291265999999999
            },
            "location_type" : "APPROXIMATE",
            "viewport" : {
               "northeast" : {
                  "lat" : 53.6316,
                  "lng" : 7.227510199999999
               },
               "southwest" : {
                  "lat" : 50.75038379999999,
                  "lng" : 3.3316001
               }
            }
         },
         "place_id" : "ChIJu-SH28MJxkcRnwq9_851obM",
         "types" : [ "country", "political" ]
      }
   ],
   "status" : "OK"
}
