{
   "plus_code" : {
      "compound_code" : "G3R9+5M Seoul, South Korea",
      "global_code" : "8Q99G3R9+5M"
   },
   "results" : [
      {
         "address_components" : [
            {
               "long_name" : "Hwayang-dong",
               "short_name" : "Hwayang-dong",
               "types" : [ "political", "sublocality", "sublocality_level_2" ]
            },
            {
               "long_name" : "Seoul",
               "short_name" : "Seoul",
               "types" : [ "administrative_area_level_1", "political" ]
            },
            {
               "long_name" : "South Korea",
               "short_name" : "KR",
               "types" : [ "country", "political" ]
            },
            {
               "long_name" : "143-130",
               "short_name" : "143-130",
               "types" : [ "postal_code" ]
            }
         ],
         "formatted_address" : "Hwayang-dong, Seoul, South Korea",
         "geometry" : {
            "location" : {
               "lat" : 37.540389,
               "lng" : 127.069236
            },
            "location_type" : "GEOMETRIC_CENTER",
            "viewport" : {
               "northeast" : {
                  "lat" : 37.5417379802915,
                  "lng" : 127.0705849802915
               },
               "southwest" : {
                  "lat" : 37.5390400197085,
                  "lng" : 127.0678870197085
               }
            }
         },
         "place_id" : "ChIJBVAHrOmkfDURiatjSxtmL6o",
         "types" : [
            "establishment",
            "point_of_interest",
            "subway_station",
            "transit_station"
         ]
      },
      {
         "address_components" : [
            {
               "long_name" : "지하 110",
               "short_name" : "지하 110",
               "types" : [ "premise" ]
            },
            {
               "long_name" : "Neungdong-ro",
               "short_name" : "Neungdong-ro",
               "types" : [ "political", "sublocality", "sublocality_level_4" ]
            },
            {
               "long_name" : "Hwayang-dong",
               "short_name" : "Hwayang-dong",
               "types" : [ "political", "sublocality", "sublocality_level_2" ]
            },
            {
               "long_name" : "Gwangjin-gu",
               "short_name" : "Gwangjin-gu",
               "types" : [ "political", "sublocality", "sublocality_level_1" ]
            },
            {
               "long_name" : "Seoul",
               "short_name" : "Seoul",
               "types" : [ "administrative_area_level_1", "political" ]
            },
            {
               "long_name" : "South Korea",
               "short_name" : "KR",
               "types" : [ "country", "political" ]
            },
            {
               "long_name" : "143-130",
               "short_name" : "143-130",
               "types" : [ "postal_code" ]
            }
         ],
         "formatted_address" : "지하 110 Neungdong-ro, Hwayang-dong, Gwangjin-gu, Seoul, South Korea",
         "geometry" : {
            "location" : {
               "lat" : 37.54051690000001,
               "lng" : 127.0690846
            },
            "location_type" : "ROOFTOP",
            "viewport" : {
               "northeast" : {
                  "lat" : 37.54186588029151,
                  "lng" : 127.0704335802915
               },
               "southwest" : {
                  "lat" : 37.53916791970851,
                  "lng" : 127.0677356197085
               }
            }
         },
         "place_id" : "ChIJudfcrumkfDUReQSq32Q3lhY",
         "types" : [ "street_address" ]
      },
      {
         "address_components" : [
            {
               "long_name" : "143-130",
               "short_name" : "143-130",
               "types" : [ "postal_code" ]
            },
            {
               "long_name" : "Hwayang-dong",
               "short_name" : "Hwayang-dong",
               "types" : [ "political", "sublocality", "sublocality_level_2" ]
            },
            {
               "long_name" : "Gwangjin-gu",
               "short_name" : "Gwangjin-gu",
               "types" : [ "political", "sublocality", "sublocality_level_1" ]
            },
            {
               "long_name" : "Seoul",
               "short_name" : "Seoul",
               "types" : [ "administrative_area_level_1", "political" ]
            },
            {
               "long_name" : "South Korea",
               "short_name" : "KR",
               "types" : [ "country", "political" ]
            }
         ],
         "formatted_address" : "Hwayang-dong, Gwangjin-gu, Seoul, South Korea",
         "geometry" : {
            "bounds" : {
               "northeast" : {
                  "lat" : 37.5482819,
                  "lng" : 127.0814933
               },
               "southwest" : {
                  "lat" : 37.5383921,
                  "lng" : 127.0636637
               }
            },
            "location" : {
               "lat" : 37.544294,
               "lng" : 127.0735715
            },
            "location_type" : "APPROXIMATE",
            "viewport" : {
               "northeast" : {
                  "lat" : 37.5482819,
                  "lng" : 127.0814933
               },
               "southwest" : {
                  "lat" : 37.5383921,
                  "lng" : 127.0636637
               }
            }
         },
         "place_id" : "ChIJ9a7OX8KkfDURmELiCW020kk",
         "types" : [ "postal_code" ]
      },
      {
         "address_components" : [
            {
               "long_name" : "Hwayang-dong",
               "short_name" : "Hwayang-dong",
               "types" : [ "political", "sublocality", "sublocality_level_2" ]
            },
            {
               "long_name" : "Gwangjin-gu",
               "short_name" : "Gwangjin-gu",
               "types" : [ "political", "sublocality", "sublocality_level_1" ]
            },
            {
               "long_name" : "Seoul",
               "short_name" : "Seoul",
               "types" : [ "administrative_area_level_1", "political" ]
            },
            {
               "long_name" : "South Korea",
               "short_name" : "KR",
               "types" : [ "country", "political" ]
            },
            {
               "long_name" : "143-130",
               "short_name" : "143-130",
               "types" : [ "postal_code" ]
            }
         ],
         "formatted_address" : "Hwayang-dong, Gwangjin-gu, Seoul, South Korea",
         "geometry" : {
            "bounds" : {
               "northeast" : {
                  "lat" : 37.5482819,
                  "lng" : 127.0814933
               },
               "southwest" : {
                  "lat" : 37.5383921,
                  "lng" : 127.0636637
               }
            },
            "location" : {
               "lat" : 37.5464832,
               "lng" : 127.0713497
            },
            "location_type" : "APPROXIMATE",
            "viewport" : {
               "northeast" : {
                  "lat" : 37.5482819,
                  "lng" : 127.0814933
               },
               "southwest" : {
                  "lat" : 37.5383921,
                  "lng" : 127.0636637
               }
            }
         },
         "place_id" : "ChIJ32XhJ92kfDUR7t_IF9F3q1s",
         "types" : [ "political", "sublocality", "sublocality_level_2" ]
      },
      {
         "address_components" : [
            {
               "long_name" : "Neungdong-ro",
               "short_name" : "Neungdong-ro",
               "types" : [ "political", "sublocality", "sublocality_level_4" ]
            },
            {
               "long_name" : "Gwangjin-gu",
               "short_name" : "Gwangjin-gu",
               "types" : [ "political", "sublocality", "sublocality_level_1" ]
            },
            {
               "long_name" : "Seoul",
               "short_name" : "Seoul",
               "types" : [ "administrative_area_level_1", "political" ]
            },
            {
               "long_name" : "South Korea",
               "short_name" : "KR",
               "types" : [ "country", "political" ]
            }
         ],
         "formatted_address" : "Neungdong-ro, Gwangjin-gu, Seoul, South Korea",
         "geometry" : {
            "bounds" : {
               "northeast" : {
                  "lat" : 37.5685542,
                  "lng" : 127.0857198
               },
               "southwest" : {
                  "lat" : 37.5319161,
                  "lng" : 127.0664077
               }
            },
            "location" : {
               "lat" : 37.5486706,
               "lng" : 127.0759024
            },
            "location_type" : "APPROXIMATE",
            "viewport" : {
               "northeast" : {
                  "lat" : 37.5685542,
                  "lng" : 127.0857198
               },
               "southwest" : {
                  "lat" : 37.5319161,
                  "lng" : 127.0664077
               }
            }
         },
         "place_id" : "ChIJXefdlNCkfDUR-oV896eIOM0",
         "types" : [ "political", "sublocality", "sublocality_level_4" ]
      },
      {
         "address_components" : [
            {
               "long_name" : "Gwangjin-gu",
               "short_name" : "Gwangjin-gu",
               "types" : [ "political", "sublocality", "sublocality_level_1" ]
            },
            {
               "long_name" : "Seoul",
               "short_name" : "Seoul",
               "types" : [ "administrative_area_level_1", "political" ]
            },
            {
               "long_name" : "South Korea",
               "short_name" : "KR",
               "types" : [ "country", "political" ]
            }
         ],
         "formatted_address" : "Gwangjin-gu, Seoul, South Korea",
         "geometry" : {
            "bounds" : {
               "northeast" : {
                  "lat" : 37.5725795,
                  "lng" : 127.1161444
               },
               "southwest" : {
                  "lat" : 37.5199637,
                  "lng" : 127.0555968
               }
            },
            "location" : {
               "lat" : 37.5384843,
               "lng" : 127.0822938
            },
            "location_type" : "APPROXIMATE",
            "viewport" : {
               "northeast" : {
                  "lat" : 37.5725795,
                  "lng" : 127.1161444
               },
               "southwest" : {
                  "lat" : 37.5199637,
                  "lng" : 127.0555968
               }
            }
         },
         "place_id" : "ChIJCRkc-CilfDURMf90Sfel8ag",
         "types" : [ "political", "sublocality", "sublocality_level_1" ]
      },
      {
         "address_components" : [
            {
               "long_name" : "Seoul",
               "short_name" : "Seoul",
               "types" : [ "administrative_area_level_1", "political" ]
            },
            {
               "long_name" : "South Korea",
               "short_name" : "KR",
               "types" : [ "country", "political" ]
            }
         ],
         "formatted_address" : "Seoul, South Korea",
         "geometry" : {
            "bounds" : {
               "northeast" : {
                  "lat" : 37.7017495,
                  "lng" : 127.1835899
               },
               "southwest" : {
                  "lat" : 37.4259627,
                  "lng" : 126.7645827
               }
            },
            "location" : {
               "lat" : 37.566535,
               "lng" : 126.9779692
            },
            "location_type" : "APPROXIMATE",
            "viewport" : {
               "northeast" : {
                  "lat" : 37.7017495,
                  "lng" : 127.1835899
               },
               "southwest" : {
                  "lat" : 37.4259627,
                  "lng" : 126.7645827
               }
            }
         },
         "place_id" : "ChIJzzlcLQGifDURm_JbQKHsEX4",
         "types" : [ "administrative_area_level_1", "political" ]
      },
      {
         "address_components" : [
            {
               "long_name" : "Seoul",
               "short_name" : "Seoul",
               "types" : [ "locality", "political" ]
            },
            {
               "long_name" : "Seoul",
               "short_name" : "Seoul",
               "types" : [ "administrative_area_level_1", "political" ]
            },
            {
               "long_name" : "South Korea",
               "short_name" : "KR",
               "types" : [ "country", "political" ]
            }
         ],
         "formatted_address" : "Seoul, South Korea",
         "geometry" : {
            "bounds" : {
               "northeast" : {
                  "lat" : 37.7017495,
                  "lng" : 127.1835899
               },
               "southwest" : {
                  "lat" : 37.4259627,
                  "lng" : 126.7645827
               }
            },
            "location" : {
               "lat" : 37.566535,
               "lng" : 126.9779692
            },
            "location_type" : "APPROXIMATE",
            "viewport" : {
               "northeast" : {
                  "lat" : 37.7017495,
                  "lng" : 127.1835899
               },
               "southwest" : {
                  "lat" : 37.4259627,
                  "lng" : 126.7645827
               }
            }
         },
         "place_id" : "ChIJzWXFYYuifDUR64Pq5LTtioU",
         "types" : [ "locality", "political" ]
      },
      {
         "address_components" : [
            {
               "long_name" : "South Korea",
               "short_name" : "KR",
               "types" : [ "country", "political" ]
            }
         ],
         "formatted_address" : "South Korea",
         "geometry" : {
            "bounds" : {
               "northeast" : {
                  "lat" : 38.63400000000001,
                  "lng" : 131.1603
               },
               "southwest" : {
                  "lat" : 33.0041,
                  "lng" : 124.5863
               }
            },
            "location" : {
               "lat" : 35.907757,
               "lng" : 127.766922
            },
            "location_type" : "APPROXIMATE",
            "viewport" : {
               "northeast" : {
                  "lat" : 38.63400000000001,
                  "lng" : 131.1603
               },
               "southwest" : {
                  "lat" : 33.0041,
                  "lng" : 124.5863
               }
            }
         },
         "place_id" : "ChIJm7oRy-tVZDURS9uIugCbJJE",
         "types" : [ "country", "political" ]
      }
   ],
   "status" : "OK"
}
