{
   "plus_code" : {
      "compound_code" : "5WG4+C8 Gwangju, South Korea",
      "global_code" : "8Q785WG4+C8"
   },
   "results" : [
      {
         "address_components" : [
            {
               "long_name" : "산77",
               "short_name" : "산77",
               "types" : [ "premise" ]
            },
            {
               "long_name" : "Yongbong-dong",
               "short_name" : "Yongbong-dong",
               "types" : [ "political", "sublocality", "sublocality_level_2" ]
            },
            {
               "long_name" : "Buk-gu",
               "short_name" : "Buk-gu",
               "types" : [ "political", "sublocality", "sublocality_level_1" ]
            },
            {
               "long_name" : "Gwangju",
               "short_name" : "Gwangju",
               "types" : [ "administrative_area_level_1", "political" ]
            },
            {
               "long_name" : "South Korea",
               "short_name" : "KR",
               "types" : [ "country", "political" ]
            },
            {
               "long_name" : "500-070",
               "short_name" : "500-070",
               "types" : [ "postal_code" ]
            }
         ],
         "formatted_address" : "산77 Yongbong-dong, Buk-gu, Kwangju, South Korea",
         "geometry" : {
            "location" : {
               "lat" : 35.1761918,
               "lng" : 126.9057883
            },
            "location_type" : "ROOFTOP",
            "viewport" : {
               "northeast" : {
                  "lat" : 35.17754078029149,
                  "lng" : 126.9071372802915
               },
               "southwest" : {
                  "lat" : 35.1748428197085,
                  "lng" : 126.9044393197085
               }
            }
         },
         "place_id" : "ChIJMxNEK1eMcTURvV8akrwEMgQ",
         "plus_code" : {
            "compound_code" : "5WG4+F8 Gwangju, South Korea",
            "global_code" : "8Q785WG4+F8"
         },
         "types" : [ "street_address" ]
      },
      {
         "address_components" : [
            {
               "long_name" : "500-070",
               "short_name" : "500-070",
               "types" : [ "postal_code" ]
            },
            {
               "long_name" : "Yongbong-dong",
               "short_name" : "Yongbong-dong",
               "types" : [ "political", "sublocality", "sublocality_level_2" ]
            },
            {
               "long_name" : "Buk-gu",
               "short_name" : "Buk-gu",
               "types" : [ "political", "sublocality", "sublocality_level_1" ]
            },
            {
               "long_name" : "Gwangju",
               "short_name" : "Gwangju",
               "types" : [ "administrative_area_level_1", "political" ]
            },
            {
               "long_name" : "South Korea",
               "short_name" : "KR",
               "types" : [ "country", "political" ]
            }
         ],
         "formatted_address" : "Yongbong-dong, Buk-gu, Gwangju, South Korea",
         "geometry" : {
            "bounds" : {
               "northeast" : {
                  "lat" : 35.1872074,
                  "lng" : 126.9158288
               },
               "southwest" : {
                  "lat" : 35.1716185,
                  "lng" : 126.8812227
               }
            },
            "location" : {
               "lat" : 35.179311,
               "lng" : 126.8976626
            },
            "location_type" : "APPROXIMATE",
            "viewport" : {
               "northeast" : {
                  "lat" : 35.1872074,
                  "lng" : 126.9158288
               },
               "southwest" : {
                  "lat" : 35.1716185,
                  "lng" : 126.8812227
               }
            }
         },
         "place_id" : "ChIJOQoa6VGMcTURw_0iy12VERE",
         "types" : [ "postal_code" ]
      },
      {
         "address_components" : [
            {
               "long_name" : "Yongbong-dong",
               "short_name" : "Yongbong-dong",
               "types" : [ "political", "sublocality", "sublocality_level_2" ]
            },
            {
               "long_name" : "Buk-gu",
               "short_name" : "Buk-gu",
               "types" : [ "political", "sublocality", "sublocality_level_1" ]
            },
            {
               "long_name" : "Gwangju",
               "short_name" : "Gwangju",
               "types" : [ "administrative_area_level_1", "political" ]
            },
            {
               "long_name" : "South Korea",
               "short_name" : "KR",
               "types" : [ "country", "political" ]
            },
            {
               "long_name" : "500-070",
               "short_name" : "500-070",
               "types" : [ "postal_code" ]
            }
         ],
         "formatted_address" : "Yongbong-dong, Buk-gu, Gwangju, South Korea",
         "geometry" : {
            "bounds" : {
               "northeast" : {
                  "lat" : 35.1872074,
                  "lng" : 126.9158288
               },
               "southwest" : {
                  "lat" : 35.1716185,
                  "lng" : 126.8812227
               }
            },
            "location" : {
               "lat" : 35.1804047,
               "lng" : 126.9012071
            },
            "location_type" : "APPROXIMATE",
            "viewport" : {
               "northeast" : {
                  "lat" : 35.1872074,
                  "lng" : 126.9158288
               },
               "southwest" : {
                  "lat" : 35.1716185,
                  "lng" : 126.8812227
               }
            }
         },
         "place_id" : "ChIJWY3E51GMcTURObYt3P7YzmQ",
         "types" : [ "political", "sublocality", "sublocality_level_2" ]
      },
      {
         "address_components" : [
            {
               "long_name" : "Uchi-ro",
               "short_name" : "Uchi-ro",
               "types" : [ "political", "sublocality", "sublocality_level_4" ]
            },
            {
               "long_name" : "Buk-gu",
               "short_name" : "Buk-gu",
               "types" : [ "political", "sublocality", "sublocality_level_1" ]
            },
            {
               "long_name" : "Gwangju",
               "short_name" : "Gwangju",
               "types" : [ "administrative_area_level_1", "political" ]
            },
            {
               "long_name" : "South Korea",
               "short_name" : "KR",
               "types" : [ "country", "political" ]
            }
         ],
         "formatted_address" : "Uchi-ro, Buk-gu, Gwangju, South Korea",
         "geometry" : {
            "bounds" : {
               "northeast" : {
                  "lat" : 35.2400201,
                  "lng" : 126.913219
               },
               "southwest" : {
                  "lat" : 35.1676896,
                  "lng" : 126.8916169
               }
            },
            "location" : {
               "lat" : 35.1888835,
               "lng" : 126.9072298
            },
            "location_type" : "APPROXIMATE",
            "viewport" : {
               "northeast" : {
                  "lat" : 35.2400201,
                  "lng" : 126.913219
               },
               "southwest" : {
                  "lat" : 35.1676896,
                  "lng" : 126.8916169
               }
            }
         },
         "place_id" : "ChIJ-9cXeJiNcTURgIyw3Xf74kg",
         "types" : [ "political", "sublocality", "sublocality_level_4" ]
      },
      {
         "address_components" : [
            {
               "long_name" : "Buk-gu",
               "short_name" : "Buk-gu",
               "types" : [ "political", "sublocality", "sublocality_level_1" ]
            },
            {
               "long_name" : "Gwangju",
               "short_name" : "Gwangju",
               "types" : [ "administrative_area_level_1", "political" ]
            },
            {
               "long_name" : "South Korea",
               "short_name" : "KR",
               "types" : [ "country", "political" ]
            }
         ],
         "formatted_address" : "Buk-gu, Gwangju, South Korea",
         "geometry" : {
            "bounds" : {
               "northeast" : {
                  "lat" : 35.2587209,
                  "lng" : 127.0229413
               },
               "southwest" : {
                  "lat" : 35.1228187,
                  "lng" : 126.8352548
               }
            },
            "location" : {
               "lat" : 35.1740167,
               "lng" : 126.9119842
            },
            "location_type" : "APPROXIMATE",
            "viewport" : {
               "northeast" : {
                  "lat" : 35.2587209,
                  "lng" : 127.0229413
               },
               "southwest" : {
                  "lat" : 35.1228187,
                  "lng" : 126.8352548
               }
            }
         },
         "place_id" : "ChIJp5sF9BSNcTURx2PgDAW_NGw",
         "types" : [ "political", "sublocality", "sublocality_level_1" ]
      },
      {
         "address_components" : [
            {
               "long_name" : "Gwangju",
               "short_name" : "Gwangju",
               "types" : [ "locality", "political" ]
            },
            {
               "long_name" : "Gwangju",
               "short_name" : "Gwangju",
               "types" : [ "administrative_area_level_1", "political" ]
            },
            {
               "long_name" : "South Korea",
               "short_name" : "KR",
               "types" : [ "country", "political" ]
            }
         ],
         "formatted_address" : "Gwangju, South Korea",
         "geometry" : {
            "bounds" : {
               "northeast" : {
                  "lat" : 35.2589426,
                  "lng" : 127.0229413
               },
               "southwest" : {
                  "lat" : 35.0508149,
                  "lng" : 126.6449035
               }
            },
            "location" : {
               "lat" : 35.1595454,
               "lng" : 126.8526012
            },
            "location_type" : "APPROXIMATE",
            "viewport" : {
               "northeast" : {
                  "lat" : 35.2589426,
                  "lng" : 127.0229413
               },
               "southwest" : {
                  "lat" : 35.0508149,
                  "lng" : 126.6449035
               }
            }
         },
         "place_id" : "ChIJr6f1ASOJcTURSPUlAe3S9AU",
         "types" : [ "locality", "political" ]
      },
      {
         "address_components" : [
            {
               "long_name" : "Gwangju",
               "short_name" : "Gwangju",
               "types" : [ "administrative_area_level_1", "political" ]
            },
            {
               "long_name" : "South Korea",
               "short_name" : "KR",
               "types" : [ "country", "political" ]
            }
         ],
         "formatted_address" : "Gwangju, South Korea",
         "geometry" : {
            "bounds" : {
               "northeast" : {
                  "lat" : 35.2589426,
                  "lng" : 127.0229413
               },
               "southwest" : {
                  "lat" : 35.0508149,
                  "lng" : 126.6449035
               }
            },
            "location" : {
               "lat" : 35.1595454,
               "lng" : 126.8526012
            },
            "location_type" : "APPROXIMATE",
            "viewport" : {
               "northeast" : {
                  "lat" : 35.2589426,
                  "lng" : 127.0229413
               },
               "southwest" : {
                  "lat" : 35.0508149,
                  "lng" : 126.6449035
               }
            }
         },
         "place_id" : "ChIJr6f1ASOJcTURaeoJZDD-G78",
         "types" : [ "administrative_area_level_1", "political" ]
      },
      {
         "address_components" : [
            {
               "long_name" : "South Korea",
               "short_name" : "KR",
               "types" : [ "country", "political" ]
            }
         ],
         "formatted_address" : "South Korea",
         "geometry" : {
            "bounds" : {
               "northeast" : {
                  "lat" : 38.63400000000001,
                  "lng" : 131.1603
               },
               "southwest" : {
                  "lat" : 33.0041,
                  "lng" : 124.5863
               }
            },
            "location" : {
               "lat" : 35.907757,
               "lng" : 127.766922
            },
            "location_type" : "APPROXIMATE",
            "viewport" : {
               "northeast" : {
                  "lat" : 38.63400000000001,
                  "lng" : 131.1603
               },
               "southwest" : {
                  "lat" : 33.0041,
                  "lng" : 124.5863
               }
            }
         },
         "place_id" : "ChIJm7oRy-tVZDURS9uIugCbJJE",
         "types" : [ "country", "political" ]
      }
   ],
   "status" : "OK"
}
