{
   "plus_code" : {
      "compound_code" : "R9JJ+2J Paris, France",
      "global_code" : "8FW4R9JJ+2J"
   },
   "results" : [
      {
         "address_components" : [
            {
               "long_name" : "5",
               "short_name" : "5",
               "types" : [ "street_number" ]
            },
            {
               "long_name" : "Rue Thomas Mann",
               "short_name" : "Rue Thomas Mann",
               "types" : [ "route" ]
            },
            {
               "long_name" : "Paris",
               "short_name" : "Paris",
               "types" : [ "locality", "political" ]
            },
            {
               "long_name" : "Paris",
               "short_name" : "Paris",
               "types" : [ "administrative_area_level_2", "political" ]
            },
            {
               "long_name" : "Île-de-France",
               "short_name" : "Île-de-France",
               "types" : [ "administrative_area_level_1", "political" ]
            },
            {
               "long_name" : "France",
               "short_name" : "FR",
               "types" : [ "country", "political" ]
            },
            {
               "long_name" : "75013",
               "short_name" : "75013",
               "types" : [ "postal_code" ]
            }
         ],
         "formatted_address" : "5 Rue Thomas Mann, 75013 Paris, France",
         "geometry" : {
            "location" : {
               "lat" : 48.8300812,
               "lng" : 2.3815815
            },
            "location_type" : "ROOFTOP",
            "viewport" : {
               "northeast" : {
                  "lat" : 48.83143018029149,
                  "lng" : 2.382930480291502
               },
               "southwest" : {
                  "lat" : 48.8287322197085,
                  "lng" : 2.380232519708498
               }
            }
         },
         "place_id" : "ChIJSaRspQZy5kcRsJLL_mMMCF4",
         "plus_code" : {
            "compound_code" : "R9JJ+2J Paris, France",
            "global_code" : "8FW4R9JJ+2J"
         },
         "types" : [ "establishment", "point_of_interest", "university" ]
      },
      {
         "address_components" : [
            {
               "long_name" : "59",
               "short_name" : "59",
               "types" : [ "street_number" ]
            },
            {
               "long_name" : "Quai Panhard et Levassor",
               "short_name" : "Quai Panhard et Levassor",
               "types" : [ "route" ]
            },
            {
               "long_name" : "Paris",
               "short_name" : "Paris",
               "types" : [ "locality", "political" ]
            },
            {
               "long_name" : "Paris",
               "short_name" : "Paris",
               "types" : [ "administrative_area_level_2", "political" ]
            },
            {
               "long_name" : "Île-de-France",
               "short_name" : "Île-de-France",
               "types" : [ "administrative_area_level_1", "political" ]
            },
            {
               "long_name" : "France",
               "short_name" : "FR",
               "types" : [ "country", "political" ]
            },
            {
               "long_name" : "75013",
               "short_name" : "75013",
               "types" : [ "postal_code" ]
            }
         ],
         "formatted_address" : "59 Quai Panhard et Levassor, 75013 Paris, France",
         "geometry" : {
            "location" : {
               "lat" : 48.8301921,
               "lng" : 2.3817381
            },
            "location_type" : "ROOFTOP",
            "viewport" : {
               "northeast" : {
                  "lat" : 48.83154108029149,
                  "lng" : 2.383087080291502
               },
               "southwest" : {
                  "lat" : 48.82884311970849,
                  "lng" : 2.380389119708498
               }
            }
         },
         "place_id" : "ChIJSdsTVTly5kcRkypBVFutkX8",
         "plus_code" : {
            "compound_code" : "R9JJ+3M Paris, France",
            "global_code" : "8FW4R9JJ+3M"
         },
         "types" : [ "street_address" ]
      },
      {
         "address_components" : [
            {
               "long_name" : "France",
               "short_name" : "FR",
               "types" : [ "country", "political" ]
            },
            {
               "long_name" : "Paris",
               "short_name" : "Paris",
               "types" : [ "locality", "political" ]
            },
            {
               "long_name" : "Paris",
               "short_name" : "Paris",
               "types" : [ "administrative_area_level_2", "political" ]
            },
            {
               "long_name" : "Île-de-France",
               "short_name" : "Île-de-France",
               "types" : [ "administrative_area_level_1", "political" ]
            },
            {
               "long_name" : "75013",
               "short_name" : "75013",
               "types" : [ "postal_code" ]
            }
         ],
         "formatted_address" : "75013 Paris, France",
         "geometry" : {
            "location" : {
               "lat" : 48.8303784,
               "lng" : 2.3819743
            },
            "location_type" : "GEOMETRIC_CENTER",
            "viewport" : {
               "northeast" : {
                  "lat" : 48.8317273802915,
                  "lng" : 2.383323280291502
               },
               "southwest" : {
                  "lat" : 48.8290294197085,
                  "lng" : 2.380625319708498
               }
            }
         },
         "place_id" : "ChIJ-0ISqz5y5kcRW55cYewJ_SA",
         "plus_code" : {
            "compound_code" : "R9JJ+5Q Paris, France",
            "global_code" : "8FW4R9JJ+5Q"
         },
         "types" : [
            "bus_station",
            "establishment",
            "point_of_interest",
            "transit_station"
         ]
      },
      {
         "address_components" : [
            {
               "long_name" : "8",
               "short_name" : "8",
               "types" : [ "street_number" ]
            },
            {
               "long_name" : "Esplanade Pierre Vidal-Naquet",
               "short_name" : "Espl. Pierre Vidal-Naquet",
               "types" : [ "route" ]
            },
            {
               "long_name" : "Paris",
               "short_name" : "Paris",
               "types" : [ "locality", "political" ]
            },
            {
               "long_name" : "France",
               "short_name" : "FR",
               "types" : [ "country", "political" ]
            },
            {
               "long_name" : "75013",
               "short_name" : "75013",
               "types" : [ "postal_code" ]
            }
         ],
         "formatted_address" : "8 Espl. Pierre Vidal-Naquet, 75013 Paris, France",
         "geometry" : {
            "location" : {
               "lat" : 48.8297468,
               "lng" : 2.3817136
            },
            "location_type" : "RANGE_INTERPOLATED",
            "viewport" : {
               "northeast" : {
                  "lat" : 48.83109578029149,
                  "lng" : 2.383062580291502
               },
               "southwest" : {
                  "lat" : 48.82839781970849,
                  "lng" : 2.380364619708498
               }
            }
         },
         "place_id" : "EjA4IEVzcGwuIFBpZXJyZSBWaWRhbC1OYXF1ZXQsIDc1MDEzIFBhcmlzLCBGcmFuY2UiGhIYChQKEgnZKO5XOXLmRxFrtNd84Ihj9BAI",
         "types" : [ "street_address" ]
      },
      {
         "address_components" : [
            {
               "long_name" : "Quartier de la Gare",
               "short_name" : "Quartier de la Gare",
               "types" : [ "neighborhood", "political" ]
            },
            {
               "long_name" : "Paris",
               "short_name" : "Paris",
               "types" : [ "locality", "political" ]
            },
            {
               "long_name" : "Paris",
               "short_name" : "Paris",
               "types" : [ "administrative_area_level_2", "political" ]
            },
            {
               "long_name" : "Île-de-France",
               "short_name" : "Île-de-France",
               "types" : [ "administrative_area_level_1", "political" ]
            },
            {
               "long_name" : "France",
               "short_name" : "FR",
               "types" : [ "country", "political" ]
            },
            {
               "long_name" : "75013",
               "short_name" : "75013",
               "types" : [ "postal_code" ]
            }
         ],
         "formatted_address" : "Quartier de la Gare, 75013 Paris, France",
         "geometry" : {
            "bounds" : {
               "northeast" : {
                  "lat" : 48.83810700000001,
                  "lng" : 2.386961
               },
               "southwest" : {
                  "lat" : 48.818924,
                  "lng" : 2.355605
               }
            },
            "location" : {
               "lat" : 48.8280752,
               "lng" : 2.3674068
            },
            "location_type" : "APPROXIMATE",
            "viewport" : {
               "northeast" : {
                  "lat" : 48.83810700000001,
                  "lng" : 2.386961
               },
               "southwest" : {
                  "lat" : 48.818924,
                  "lng" : 2.355605
               }
            }
         },
         "place_id" : "ChIJ61YrZgNy5kcRdyAbW2XC9vs",
         "types" : [ "neighborhood", "political" ]
      },
      {
         "address_components" : [
            {
               "long_name" : "13th arrondissement",
               "short_name" : "13th arrondissement",
               "types" : [ "political", "sublocality", "sublocality_level_1" ]
            },
            {
               "long_name" : "Paris",
               "short_name" : "Paris",
               "types" : [ "locality", "political" ]
            },
            {
               "long_name" : "Paris",
               "short_name" : "Paris",
               "types" : [ "administrative_area_level_2", "political" ]
            },
            {
               "long_name" : "Île-de-France",
               "short_name" : "Île-de-France",
               "types" : [ "administrative_area_level_1", "political" ]
            },
            {
               "long_name" : "France",
               "short_name" : "FR",
               "types" : [ "country", "political" ]
            },
            {
               "long_name" : "75013",
               "short_name" : "75013",
               "types" : [ "postal_code" ]
            }
         ],
         "formatted_address" : "13th arrondissement, 75013 Paris, France",
         "geometry" : {
            "bounds" : {
               "northeast" : {
                  "lat" : 48.8449649,
                  "lng" : 2.390053
               },
               "southwest" : {
                  "lat" : 48.815573,
                  "lng" : 2.3411081
               }
            },
            "location" : {
               "lat" : 48.830759,
               "lng" : 2.359204
            },
            "location_type" : "APPROXIMATE",
            "viewport" : {
               "northeast" : {
                  "lat" : 48.8449649,
                  "lng" : 2.390053
               },
               "southwest" : {
                  "lat" : 48.815573,
                  "lng" : 2.3411081
               }
            }
         },
         "place_id" : "ChIJgwVOTCdy5kcREBuUaMOCCwU",
         "types" : [ "political", "sublocality", "sublocality_level_1" ]
      },
      {
         "address_components" : [
            {
               "long_name" : "75013",
               "short_name" : "75013",
               "types" : [ "postal_code" ]
            },
            {
               "long_name" : "Paris",
               "short_name" : "Paris",
               "types" : [ "locality", "political" ]
            },
            {
               "long_name" : "Paris",
               "short_name" : "Paris",
               "types" : [ "administrative_area_level_2", "political" ]
            },
            {
               "long_name" : "Île-de-France",
               "short_name" : "Île-de-France",
               "types" : [ "administrative_area_level_1", "political" ]
            },
            {
               "long_name" : "France",
               "short_name" : "FR",
               "types" : [ "country", "political" ]
            }
         ],
         "formatted_address" : "75013 Paris, France",
         "geometry" : {
            "bounds" : {
               "northeast" : {
                  "lat" : 48.84493089999999,
                  "lng" : 2.3902644
               },
               "southwest" : {
                  "lat" : 48.8158796,
                  "lng" : 2.3411271
               }
            },
            "location" : {
               "lat" : 48.830759,
               "lng" : 2.359204
            },
            "location_type" : "APPROXIMATE",
            "viewport" : {
               "northeast" : {
                  "lat" : 48.84493089999999,
                  "lng" : 2.3902644
               },
               "southwest" : {
                  "lat" : 48.8158796,
                  "lng" : 2.3411271
               }
            }
         },
         "place_id" : "ChIJgwVOTCdy5kcRwFHY4caCCxw",
         "types" : [ "postal_code" ]
      },
      {
         "address_components" : [
            {
               "long_name" : "Paris",
               "short_name" : "Paris",
               "types" : [ "administrative_area_level_2", "political" ]
            },
            {
               "long_name" : "Paris",
               "short_name" : "Paris",
               "types" : [ "locality", "political" ]
            },
            {
               "long_name" : "Île-de-France",
               "short_name" : "Île-de-France",
               "types" : [ "administrative_area_level_1", "political" ]
            },
            {
               "long_name" : "France",
               "short_name" : "FR",
               "types" : [ "country", "political" ]
            }
         ],
         "formatted_address" : "Paris, France",
         "geometry" : {
            "bounds" : {
               "northeast" : {
                  "lat" : 48.9021449,
                  "lng" : 2.4699208
               },
               "southwest" : {
                  "lat" : 48.815573,
                  "lng" : 2.224199
               }
            },
            "location" : {
               "lat" : 48.8565823,
               "lng" : 2.3522148
            },
            "location_type" : "APPROXIMATE",
            "viewport" : {
               "northeast" : {
                  "lat" : 48.9021449,
                  "lng" : 2.4699208
               },
               "southwest" : {
                  "lat" : 48.815573,
                  "lng" : 2.224199
               }
            }
         },
         "place_id" : "ChIJD7fiBh9u5kcRMCqLaMOCCwM",
         "types" : [ "administrative_area_level_2", "political" ]
      },
      {
         "address_components" : [
            {
               "long_name" : "Paris",
               "short_name" : "Paris",
               "types" : [ "locality", "political" ]
            },
            {
               "long_name" : "Paris",
               "short_name" : "Paris",
               "types" : [ "administrative_area_level_2", "political" ]
            },
            {
               "long_name" : "Île-de-France",
               "short_name" : "Île-de-France",
               "types" : [ "administrative_area_level_1", "political" ]
            },
            {
               "long_name" : "France",
               "short_name" : "FR",
               "types" : [ "country", "political" ]
            }
         ],
         "formatted_address" : "Paris, France",
         "geometry" : {
            "bounds" : {
               "northeast" : {
                  "lat" : 48.9021449,
                  "lng" : 2.4699208
               },
               "southwest" : {
                  "lat" : 48.815573,
                  "lng" : 2.224199
               }
            },
            "location" : {
               "lat" : 48.856614,
               "lng" : 2.3522219
            },
            "location_type" : "APPROXIMATE",
            "viewport" : {
               "northeast" : {
                  "lat" : 48.9021449,
                  "lng" : 2.4699208
               },
               "southwest" : {
                  "lat" : 48.815573,
                  "lng" : 2.224199
               }
            }
         },
         "place_id" : "ChIJD7fiBh9u5kcRYJSMaMOCCwQ",
         "types" : [ "locality", "political" ]
      },
      {
         "address_components" : [
            {
               "long_name" : "Île-de-France",
               "short_name" : "Île-de-France",
               "types" : [ "administrative_area_level_1", "political" ]
            },
            {
               "long_name" : "France",
               "short_name" : "FR",
               "types" : [ "country", "political" ]
            }
         ],
         "formatted_address" : "Île-de-France, France",
         "geometry" : {
            "bounds" : {
               "northeast" : {
                  "lat" : 49.241504,
                  "lng" : 3.5590069
               },
               "southwest" : {
                  "lat" : 48.1200811,
                  "lng" : 1.44617
               }
            },
            "location" : {
               "lat" : 48.8499198,
               "lng" : 2.6370411
            },
            "location_type" : "APPROXIMATE",
            "viewport" : {
               "northeast" : {
                  "lat" : 49.241504,
                  "lng" : 3.5590069
               },
               "southwest" : {
                  "lat" : 48.1200811,
                  "lng" : 1.44617
               }
            }
         },
         "place_id" : "ChIJF4ymA8Th5UcRcCWLaMOCCwE",
         "types" : [ "administrative_area_level_1", "political" ]
      },
      {
         "address_components" : [
            {
               "long_name" : "France",
               "short_name" : "FR",
               "types" : [ "country", "political" ]
            }
         ],
         "formatted_address" : "France",
         "geometry" : {
            "bounds" : {
               "northeast" : {
                  "lat" : 51.1241999,
                  "lng" : 9.6624999
               },
               "southwest" : {
                  "lat" : 41.31433,
                  "lng" : -5.5591
               }
            },
            "location" : {
               "lat" : 46.227638,
               "lng" : 2.213749
            },
            "location_type" : "APPROXIMATE",
            "viewport" : {
               "northeast" : {
                  "lat" : 51.1241999,
                  "lng" : 9.6624999
               },
               "southwest" : {
                  "lat" : 41.31433,
                  "lng" : -5.5591
               }
            }
         },
         "place_id" : "ChIJMVd4MymgVA0R99lHx5Y__Ws",
         "types" : [ "country", "political" ]
      }
   ],
   "status" : "OK"
}
