{
   "plus_code" : {
      "compound_code" : "5QVG+X8 Gières, France",
      "global_code" : "8FQ75QVG+X8"
   },
   "results" : [
      {
         "address_components" : [
            {
               "long_name" : "601",
               "short_name" : "601",
               "types" : [ "street_number" ]
            },
            {
               "long_name" : "Rue de la Chimie",
               "short_name" : "Rue de la Chimie",
               "types" : [ "route" ]
            },
            {
               "long_name" : "Gières",
               "short_name" : "Gières",
               "types" : [ "locality", "political" ]
            },
            {
               "long_name" : "Isère",
               "short_name" : "Isère",
               "types" : [ "administrative_area_level_2", "political" ]
            },
            {
               "long_name" : "Auvergne-Rhône-Alpes",
               "short_name" : "Auvergne-Rhône-Alpes",
               "types" : [ "administrative_area_level_1", "political" ]
            },
            {
               "long_name" : "France",
               "short_name" : "FR",
               "types" : [ "country", "political" ]
            },
            {
               "long_name" : "38400",
               "short_name" : "38400",
               "types" : [ "postal_code" ]
            }
         ],
         "formatted_address" : "601 Rue de la Chimie, 38400 Gières, France",
         "geometry" : {
            "location" : {
               "lat" : 45.194952,
               "lng" : 5.775765000000001
            },
            "location_type" : "ROOFTOP",
            "viewport" : {
               "northeast" : {
                  "lat" : 45.1963009802915,
                  "lng" : 5.777113980291503
               },
               "southwest" : {
                  "lat" : 45.1936030197085,
                  "lng" : 5.774416019708499
               }
            }
         },
         "place_id" : "ChIJqfr-66H1ikcRnw3DBUnG624",
         "plus_code" : {
            "compound_code" : "5QVG+X8 Gières, France",
            "global_code" : "8FQ75QVG+X8"
         },
         "types" : [ "street_address" ]
      },
      {
         "address_components" : [
            {
               "long_name" : "601",
               "short_name" : "601",
               "types" : [ "street_number" ]
            },
            {
               "long_name" : "Rue de la Chimie",
               "short_name" : "Rue de la Chimie",
               "types" : [ "route" ]
            },
            {
               "long_name" : "Gières",
               "short_name" : "Gières",
               "types" : [ "locality", "political" ]
            },
            {
               "long_name" : "Isère",
               "short_name" : "Isère",
               "types" : [ "administrative_area_level_2", "political" ]
            },
            {
               "long_name" : "Auvergne-Rhône-Alpes",
               "short_name" : "Auvergne-Rhône-Alpes",
               "types" : [ "administrative_area_level_1", "political" ]
            },
            {
               "long_name" : "France",
               "short_name" : "FR",
               "types" : [ "country", "political" ]
            },
            {
               "long_name" : "38400",
               "short_name" : "38400",
               "types" : [ "postal_code" ]
            }
         ],
         "formatted_address" : "601 Rue de la Chimie, 38400 Gières, France",
         "geometry" : {
            "location" : {
               "lat" : 45.194952,
               "lng" : 5.775765000000001
            },
            "location_type" : "ROOFTOP",
            "viewport" : {
               "northeast" : {
                  "lat" : 45.1963009802915,
                  "lng" : 5.777113980291503
               },
               "southwest" : {
                  "lat" : 45.1936030197085,
                  "lng" : 5.774416019708499
               }
            }
         },
         "place_id" : "ChIJpfr-66H1ikcRIERegQ83dZQ",
         "plus_code" : {
            "compound_code" : "5QVG+X8 Gières, France",
            "global_code" : "8FQ75QVG+X8"
         },
         "types" : [ "establishment", "point_of_interest", "university" ]
      },
      {
         "address_components" : [
            {
               "long_name" : "2094",
               "short_name" : "2094",
               "types" : [ "street_number" ]
            },
            {
               "long_name" : "Rue de la Piscine",
               "short_name" : "Rue de la Piscine",
               "types" : [ "route" ]
            },
            {
               "long_name" : "Gières",
               "short_name" : "Gières",
               "types" : [ "locality", "political" ]
            },
            {
               "long_name" : "France",
               "short_name" : "FR",
               "types" : [ "country", "political" ]
            },
            {
               "long_name" : "38610",
               "short_name" : "38610",
               "types" : [ "postal_code" ]
            }
         ],
         "formatted_address" : "2094 Rue de la Piscine, 38610 Gières, France",
         "geometry" : {
            "location" : {
               "lat" : 45.1946355,
               "lng" : 5.775783
            },
            "location_type" : "RANGE_INTERPOLATED",
            "viewport" : {
               "northeast" : {
                  "lat" : 45.19598448029149,
                  "lng" : 5.777131980291502
               },
               "southwest" : {
                  "lat" : 45.1932865197085,
                  "lng" : 5.774434019708497
               }
            }
         },
         "place_id" : "Ei0yMDk0IFJ1ZSBkZSBsYSBQaXNjaW5lLCAzODYxMCBHacOocmVzLCBGcmFuY2UiGxIZChQKEgnTFgnoofWKRxH4wN8_6-EJ_hCuEA",
         "types" : [ "street_address" ]
      },
      {
         "address_components" : [
            {
               "long_name" : "Gières",
               "short_name" : "Gières",
               "types" : [ "locality", "political" ]
            },
            {
               "long_name" : "Isere",
               "short_name" : "Isere",
               "types" : [ "administrative_area_level_2", "political" ]
            },
            {
               "long_name" : "Auvergne-Rhône-Alpes",
               "short_name" : "Auvergne-Rhône-Alpes",
               "types" : [ "administrative_area_level_1", "political" ]
            },
            {
               "long_name" : "France",
               "short_name" : "FR",
               "types" : [ "country", "political" ]
            }
         ],
         "formatted_address" : "Gières, France",
         "geometry" : {
            "bounds" : {
               "northeast" : {
                  "lat" : 45.2063989,
                  "lng" : 5.813040000000001
               },
               "southwest" : {
                  "lat" : 45.15914,
                  "lng" : 5.766477
               }
            },
            "location" : {
               "lat" : 45.1800489,
               "lng" : 5.791126999999999
            },
            "location_type" : "APPROXIMATE",
            "viewport" : {
               "northeast" : {
                  "lat" : 45.2063989,
                  "lng" : 5.813040000000001
               },
               "southwest" : {
                  "lat" : 45.15914,
                  "lng" : 5.766477
               }
            }
         },
         "place_id" : "ChIJuUe0GHv1ikcRAuxmkyZxKfQ",
         "types" : [ "locality", "political" ]
      },
      {
         "address_components" : [
            {
               "long_name" : "38610",
               "short_name" : "38610",
               "types" : [ "postal_code" ]
            },
            {
               "long_name" : "Venon",
               "short_name" : "Venon",
               "types" : [ "locality", "political" ]
            },
            {
               "long_name" : "Isere",
               "short_name" : "Isere",
               "types" : [ "administrative_area_level_2", "political" ]
            },
            {
               "long_name" : "Auvergne-Rhône-Alpes",
               "short_name" : "Auvergne-Rhône-Alpes",
               "types" : [ "administrative_area_level_1", "political" ]
            },
            {
               "long_name" : "France",
               "short_name" : "FR",
               "types" : [ "country", "political" ]
            }
         ],
         "formatted_address" : "38610 Venon, France",
         "geometry" : {
            "bounds" : {
               "northeast" : {
                  "lat" : 45.2064159,
                  "lng" : 5.8303213
               },
               "southwest" : {
                  "lat" : 45.1592065,
                  "lng" : 5.7668534
               }
            },
            "location" : {
               "lat" : 45.1758393,
               "lng" : 5.799809499999999
            },
            "location_type" : "APPROXIMATE",
            "viewport" : {
               "northeast" : {
                  "lat" : 45.2064159,
                  "lng" : 5.8303213
               },
               "southwest" : {
                  "lat" : 45.1592065,
                  "lng" : 5.7668534
               }
            }
         },
         "place_id" : "ChIJMVkmVYZfikcRcFfkQS6rCBw",
         "postcode_localities" : [ "Gières", "Venon" ],
         "types" : [ "postal_code" ]
      },
      {
         "address_components" : [
            {
               "long_name" : "Isere",
               "short_name" : "Isere",
               "types" : [ "administrative_area_level_2", "political" ]
            },
            {
               "long_name" : "Auvergne-Rhône-Alpes",
               "short_name" : "Auvergne-Rhône-Alpes",
               "types" : [ "administrative_area_level_1", "political" ]
            },
            {
               "long_name" : "France",
               "short_name" : "FR",
               "types" : [ "country", "political" ]
            }
         ],
         "formatted_address" : "Isere, France",
         "geometry" : {
            "bounds" : {
               "northeast" : {
                  "lat" : 45.883397,
                  "lng" : 6.359309
               },
               "southwest" : {
                  "lat" : 44.695873,
                  "lng" : 4.7425939
               }
            },
            "location" : {
               "lat" : 44.9957745,
               "lng" : 5.9293476
            },
            "location_type" : "APPROXIMATE",
            "viewport" : {
               "northeast" : {
                  "lat" : 45.883397,
                  "lng" : 6.359309
               },
               "southwest" : {
                  "lat" : 44.695873,
                  "lng" : 4.7425939
               }
            }
         },
         "place_id" : "ChIJh1d4BM_oikcR4Ce55CqrCAM",
         "types" : [ "administrative_area_level_2", "political" ]
      },
      {
         "address_components" : [
            {
               "long_name" : "Auvergne-Rhône-Alpes",
               "short_name" : "Auvergne-Rhône-Alpes",
               "types" : [ "administrative_area_level_1", "political" ]
            },
            {
               "long_name" : "France",
               "short_name" : "FR",
               "types" : [ "country", "political" ]
            }
         ],
         "formatted_address" : "Auvergne-Rhône-Alpes, France",
         "geometry" : {
            "bounds" : {
               "northeast" : {
                  "lat" : 46.804293,
                  "lng" : 7.1855661
               },
               "southwest" : {
                  "lat" : 44.115493,
                  "lng" : 2.062882
               }
            },
            "location" : {
               "lat" : 45.4471431,
               "lng" : 4.385250699999999
            },
            "location_type" : "APPROXIMATE",
            "viewport" : {
               "northeast" : {
                  "lat" : 46.804293,
                  "lng" : 7.1855661
               },
               "southwest" : {
                  "lat" : 44.115493,
                  "lng" : 2.062882
               }
            }
         },
         "place_id" : "ChIJ_fju9ukE9UcROuOAIn5wRjk",
         "types" : [ "administrative_area_level_1", "political" ]
      },
      {
         "address_components" : [
            {
               "long_name" : "France",
               "short_name" : "FR",
               "types" : [ "country", "political" ]
            }
         ],
         "formatted_address" : "France",
         "geometry" : {
            "bounds" : {
               "northeast" : {
                  "lat" : 51.1241999,
                  "lng" : 9.6624999
               },
               "southwest" : {
                  "lat" : 41.31433,
                  "lng" : -5.5591
               }
            },
            "location" : {
               "lat" : 46.227638,
               "lng" : 2.213749
            },
            "location_type" : "APPROXIMATE",
            "viewport" : {
               "northeast" : {
                  "lat" : 51.1241999,
                  "lng" : 9.6624999
               },
               "southwest" : {
                  "lat" : 41.31433,
                  "lng" : -5.5591
               }
            }
         },
         "place_id" : "ChIJMVd4MymgVA0R99lHx5Y__Ws",
         "types" : [ "country", "political" ]
      }
   ],
   "status" : "OK"
}
