{
   "plus_code" : {
      "compound_code" : "G22W+FH Budapest, Hungary",
      "global_code" : "8FVXG22W+FH"
   },
   "results" : [
      {
         "address_components" : [
            {
               "long_name" : "9",
               "short_name" : "9",
               "types" : [ "street_number" ]
            },
            {
               "long_name" : "Széchenyi István tér",
               "short_name" : "Széchenyi István tér",
               "types" : [ "route" ]
            },
            {
               "long_name" : "V. kerület",
               "short_name" : "V. kerület",
               "types" : [ "political", "sublocality", "sublocality_level_1" ]
            },
            {
               "long_name" : "Budapest",
               "short_name" : "Budapest",
               "types" : [ "locality", "political" ]
            },
            {
               "long_name" : "Hungary",
               "short_name" : "HU",
               "types" : [ "country", "political" ]
            },
            {
               "long_name" : "1051",
               "short_name" : "1051",
               "types" : [ "postal_code" ]
            }
         ],
         "formatted_address" : "Budapest, Széchenyi István tér 9, 1051 Hungary",
         "geometry" : {
            "location" : {
               "lat" : 47.5012456,
               "lng" : 19.0464429
            },
            "location_type" : "ROOFTOP",
            "viewport" : {
               "northeast" : {
                  "lat" : 47.50259458029149,
                  "lng" : 19.0477918802915
               },
               "southwest" : {
                  "lat" : 47.49989661970849,
                  "lng" : 19.0450939197085
               }
            }
         },
         "place_id" : "ChIJkQ1k6RXcQUcR9BaExx6puTg",
         "plus_code" : {
            "compound_code" : "G22W+FH Budapest, Hungary",
            "global_code" : "8FVXG22W+FH"
         },
         "types" : [ "establishment", "point_of_interest" ]
      },
      {
         "address_components" : [
            {
               "long_name" : "9",
               "short_name" : "9",
               "types" : [ "street_number" ]
            },
            {
               "long_name" : "Széchenyi István tér",
               "short_name" : "Széchenyi István tér",
               "types" : [ "route" ]
            },
            {
               "long_name" : "V. kerület",
               "short_name" : "V. kerület",
               "types" : [ "political", "sublocality", "sublocality_level_1" ]
            },
            {
               "long_name" : "Budapest",
               "short_name" : "Budapest",
               "types" : [ "locality", "political" ]
            },
            {
               "long_name" : "Hungary",
               "short_name" : "HU",
               "types" : [ "country", "political" ]
            },
            {
               "long_name" : "1051",
               "short_name" : "1051",
               "types" : [ "postal_code" ]
            }
         ],
         "formatted_address" : "Budapest, Széchenyi István tér 9, 1051 Hungary",
         "geometry" : {
            "location" : {
               "lat" : 47.501014,
               "lng" : 19.046537
            },
            "location_type" : "ROOFTOP",
            "viewport" : {
               "northeast" : {
                  "lat" : 47.5023629802915,
                  "lng" : 19.0478859802915
               },
               "southwest" : {
                  "lat" : 47.4996650197085,
                  "lng" : 19.0451880197085
               }
            }
         },
         "place_id" : "ChIJcQoI6RXcQUcRHhqVlmjr7Ss",
         "plus_code" : {
            "compound_code" : "G22W+CJ Budapest, Hungary",
            "global_code" : "8FVXG22W+CJ"
         },
         "types" : [ "street_address" ]
      },
      {
         "address_components" : [
            {
               "long_name" : "3",
               "short_name" : "3",
               "types" : [ "street_number" ]
            },
            {
               "long_name" : "Akadémia utca",
               "short_name" : "Akadémia u.",
               "types" : [ "route" ]
            },
            {
               "long_name" : "Budapest",
               "short_name" : "Budapest",
               "types" : [ "locality", "political" ]
            },
            {
               "long_name" : "Hungary",
               "short_name" : "HU",
               "types" : [ "country", "political" ]
            },
            {
               "long_name" : "1054",
               "short_name" : "1054",
               "types" : [ "postal_code" ]
            }
         ],
         "formatted_address" : "Budapest, Akadémia u. 3, 1054 Hungary",
         "geometry" : {
            "location" : {
               "lat" : 47.5015101,
               "lng" : 19.0468213
            },
            "location_type" : "RANGE_INTERPOLATED",
            "viewport" : {
               "northeast" : {
                  "lat" : 47.5028590802915,
                  "lng" : 19.0481702802915
               },
               "southwest" : {
                  "lat" : 47.5001611197085,
                  "lng" : 19.04547231970849
               }
            }
         },
         "place_id" : "EixCdWRhcGVzdCwgQWthZMOpbWlhIHUuIDMsIDEwNTQgTWFneWFyb3JzesOhZyIaEhgKFAoSCZFE5sMV3EFHEVixBqWUydedEAM",
         "types" : [ "street_address" ]
      },
      {
         "address_components" : [
            {
               "long_name" : "1051",
               "short_name" : "1051",
               "types" : [ "postal_code" ]
            },
            {
               "long_name" : "District V.",
               "short_name" : "District V.",
               "types" : [ "political", "sublocality", "sublocality_level_1" ]
            },
            {
               "long_name" : "Budapest",
               "short_name" : "Budapest",
               "types" : [ "locality", "political" ]
            },
            {
               "long_name" : "Hungary",
               "short_name" : "HU",
               "types" : [ "country", "political" ]
            }
         ],
         "formatted_address" : "Budapest, 1051 Hungary",
         "geometry" : {
            "bounds" : {
               "northeast" : {
                  "lat" : 47.5034289,
                  "lng" : 19.0550051
               },
               "southwest" : {
                  "lat" : 47.494394,
                  "lng" : 19.043139
               }
            },
            "location" : {
               "lat" : 47.4982199,
               "lng" : 19.0489445
            },
            "location_type" : "APPROXIMATE",
            "viewport" : {
               "northeast" : {
                  "lat" : 47.5034289,
                  "lng" : 19.0550051
               },
               "southwest" : {
                  "lat" : 47.494394,
                  "lng" : 19.043139
               }
            }
         },
         "place_id" : "ChIJ9-XMTmvcQUcRs_Ix6ijEAAs",
         "types" : [ "postal_code" ]
      },
      {
         "address_components" : [
            {
               "long_name" : "Lipótváros",
               "short_name" : "Lipótváros",
               "types" : [ "neighborhood", "political" ]
            },
            {
               "long_name" : "District V.",
               "short_name" : "District V.",
               "types" : [ "political", "sublocality", "sublocality_level_1" ]
            },
            {
               "long_name" : "Budapest",
               "short_name" : "Budapest",
               "types" : [ "locality", "political" ]
            },
            {
               "long_name" : "Hungary",
               "short_name" : "HU",
               "types" : [ "country", "political" ]
            }
         ],
         "formatted_address" : "Budapest, Lipótváros, Hungary",
         "geometry" : {
            "bounds" : {
               "northeast" : {
                  "lat" : 47.514709,
                  "lng" : 19.05565
               },
               "southwest" : {
                  "lat" : 47.4944429,
                  "lng" : 19.0422681
               }
            },
            "location" : {
               "lat" : 47.5019132,
               "lng" : 19.0496511
            },
            "location_type" : "APPROXIMATE",
            "viewport" : {
               "northeast" : {
                  "lat" : 47.514709,
                  "lng" : 19.05565
               },
               "southwest" : {
                  "lat" : 47.4944429,
                  "lng" : 19.0422681
               }
            }
         },
         "place_id" : "ChIJuYIq9hPcQUcROei1dj8q7xo",
         "types" : [ "neighborhood", "political" ]
      },
      {
         "address_components" : [
            {
               "long_name" : "District V.",
               "short_name" : "District V.",
               "types" : [ "political", "sublocality", "sublocality_level_1" ]
            },
            {
               "long_name" : "Budapest",
               "short_name" : "Budapest",
               "types" : [ "locality", "political" ]
            },
            {
               "long_name" : "Hungary",
               "short_name" : "HU",
               "types" : [ "country", "political" ]
            }
         ],
         "formatted_address" : "Budapest, District V., Hungary",
         "geometry" : {
            "bounds" : {
               "northeast" : {
                  "lat" : 47.51472099999999,
                  "lng" : 19.0618051
               },
               "southwest" : {
                  "lat" : 47.4857439,
                  "lng" : 19.0422599
               }
            },
            "location" : {
               "lat" : 47.5002319,
               "lng" : 19.0520181
            },
            "location_type" : "APPROXIMATE",
            "viewport" : {
               "northeast" : {
                  "lat" : 47.51472099999999,
                  "lng" : 19.0618051
               },
               "southwest" : {
                  "lat" : 47.4857439,
                  "lng" : 19.0422599
               }
            }
         },
         "place_id" : "ChIJTX1oTBXcQUcRgNUeDCnEAAU",
         "types" : [ "political", "sublocality", "sublocality_level_1" ]
      },
      {
         "address_components" : [
            {
               "long_name" : "Budapest",
               "short_name" : "Budapest",
               "types" : [ "administrative_area_level_1", "political" ]
            },
            {
               "long_name" : "Budapest",
               "short_name" : "Budapest",
               "types" : [ "locality", "political" ]
            },
            {
               "long_name" : "Hungary",
               "short_name" : "HU",
               "types" : [ "country", "political" ]
            }
         ],
         "formatted_address" : "Budapest, Hungary",
         "geometry" : {
            "bounds" : {
               "northeast" : {
                  "lat" : 47.6130119,
                  "lng" : 19.3345049
               },
               "southwest" : {
                  "lat" : 47.349415,
                  "lng" : 18.9261011
               }
            },
            "location" : {
               "lat" : 47.4763392,
               "lng" : 19.0652774
            },
            "location_type" : "APPROXIMATE",
            "viewport" : {
               "northeast" : {
                  "lat" : 47.6130119,
                  "lng" : 19.3345049
               },
               "southwest" : {
                  "lat" : 47.349415,
                  "lng" : 18.9261011
               }
            }
         },
         "place_id" : "ChIJyc_U0TTDQUcRYBAeDCnEAAE",
         "types" : [ "administrative_area_level_1", "political" ]
      },
      {
         "address_components" : [
            {
               "long_name" : "Budapest",
               "short_name" : "Budapest",
               "types" : [ "locality", "political" ]
            },
            {
               "long_name" : "Hungary",
               "short_name" : "HU",
               "types" : [ "country", "political" ]
            }
         ],
         "formatted_address" : "Budapest, Hungary",
         "geometry" : {
            "bounds" : {
               "northeast" : {
                  "lat" : 47.6130119,
                  "lng" : 19.3345049
               },
               "southwest" : {
                  "lat" : 47.349415,
                  "lng" : 18.9261011
               }
            },
            "location" : {
               "lat" : 47.497912,
               "lng" : 19.040235
            },
            "location_type" : "APPROXIMATE",
            "viewport" : {
               "northeast" : {
                  "lat" : 47.6130119,
                  "lng" : 19.3345049
               },
               "southwest" : {
                  "lat" : 47.349415,
                  "lng" : 18.9261011
               }
            }
         },
         "place_id" : "ChIJyc_U0TTDQUcRYBEeDCnEAAQ",
         "types" : [ "locality", "political" ]
      },
      {
         "address_components" : [
            {
               "long_name" : "Budapest",
               "short_name" : "Budapest",
               "types" : [ "administrative_area_level_2", "political" ]
            },
            {
               "long_name" : "Budapest",
               "short_name" : "Budapest",
               "types" : [ "locality", "political" ]
            },
            {
               "long_name" : "Hungary",
               "short_name" : "HU",
               "types" : [ "country", "political" ]
            }
         ],
         "formatted_address" : "Budapest, Hungary",
         "geometry" : {
            "bounds" : {
               "northeast" : {
                  "lat" : 47.6130119,
                  "lng" : 19.3345049
               },
               "southwest" : {
                  "lat" : 47.349415,
                  "lng" : 18.9261011
               }
            },
            "location" : {
               "lat" : 47.4763392,
               "lng" : 19.0652774
            },
            "location_type" : "APPROXIMATE",
            "viewport" : {
               "northeast" : {
                  "lat" : 47.6130119,
                  "lng" : 19.3345049
               },
               "southwest" : {
                  "lat" : 47.349415,
                  "lng" : 18.9261011
               }
            }
         },
         "place_id" : "ChIJ73nSljTDQUcRLQb6xdENJ6U",
         "types" : [ "administrative_area_level_2", "political" ]
      },
      {
         "address_components" : [
            {
               "long_name" : "Hungary",
               "short_name" : "HU",
               "types" : [ "country", "political" ]
            }
         ],
         "formatted_address" : "Hungary",
         "geometry" : {
            "bounds" : {
               "northeast" : {
                  "lat" : 48.585234,
                  "lng" : 22.8965438
               },
               "southwest" : {
                  "lat" : 45.7370889,
                  "lng" : 16.1133078
               }
            },
            "location" : {
               "lat" : 47.162494,
               "lng" : 19.5033041
            },
            "location_type" : "APPROXIMATE",
            "viewport" : {
               "northeast" : {
                  "lat" : 48.585234,
                  "lng" : 22.8965438
               },
               "southwest" : {
                  "lat" : 45.7370889,
                  "lng" : 16.1133078
               }
            }
         },
         "place_id" : "ChIJw-Q333uDQUcREBAeDCnEAAA",
         "types" : [ "country", "political" ]
      }
   ],
   "status" : "OK"
}
