{
   "plus_code" : {
      "compound_code" : "3HFC+RX Madison, WI, USA",
      "global_code" : "86MG3HFC+RX"
   },
   "results" : [
      {
         "address_components" : [
            {
               "long_name" : "711",
               "short_name" : "711",
               "types" : [ "street_number" ]
            },
            {
               "long_name" : "Highland Avenue",
               "short_name" : "Highland Ave",
               "types" : [ "route" ]
            },
            {
               "long_name" : "Madison",
               "short_name" : "Madison",
               "types" : [ "locality", "political" ]
            },
            {
               "long_name" : "Dane County",
               "short_name" : "Dane County",
               "types" : [ "administrative_area_level_2", "political" ]
            },
            {
               "long_name" : "Wisconsin",
               "short_name" : "WI",
               "types" : [ "administrative_area_level_1", "political" ]
            },
            {
               "long_name" : "United States",
               "short_name" : "US",
               "types" : [ "country", "political" ]
            },
            {
               "long_name" : "53705",
               "short_name" : "53705",
               "types" : [ "postal_code" ]
            }
         ],
         "formatted_address" : "711 Highland Ave, Madison, WI 53705, USA",
         "geometry" : {
            "bounds" : {
               "northeast" : {
                  "lat" : 43.0750332,
                  "lng" : -89.42737699999999
               },
               "southwest" : {
                  "lat" : 43.0742002,
                  "lng" : -89.4286501
               }
            },
            "location" : {
               "lat" : 43.0745851,
               "lng" : -89.42759409999999
            },
            "location_type" : "ROOFTOP",
            "viewport" : {
               "northeast" : {
                  "lat" : 43.0759656802915,
                  "lng" : -89.42666456970849
               },
               "southwest" : {
                  "lat" : 43.0732677197085,
                  "lng" : -89.42936253029151
               }
            }
         },
         "place_id" : "ChIJrR7vkvKsB4gRuxu4opQsxgw",
         "types" : [ "premise" ]
      },
      {
         "address_components" : [
            {
               "long_name" : "1",
               "short_name" : "1",
               "types" : [ "street_number" ]
            },
            {
               "long_name" : "Gifford Pinchot Drive",
               "short_name" : "Gifford Pinchot Dr",
               "types" : [ "route" ]
            },
            {
               "long_name" : "Madison",
               "short_name" : "Madison",
               "types" : [ "locality", "political" ]
            },
            {
               "long_name" : "Dane County",
               "short_name" : "Dane County",
               "types" : [ "administrative_area_level_2", "political" ]
            },
            {
               "long_name" : "Wisconsin",
               "short_name" : "WI",
               "types" : [ "administrative_area_level_1", "political" ]
            },
            {
               "long_name" : "United States",
               "short_name" : "US",
               "types" : [ "country", "political" ]
            },
            {
               "long_name" : "53726",
               "short_name" : "53726",
               "types" : [ "postal_code" ]
            },
            {
               "long_name" : "2366",
               "short_name" : "2366",
               "types" : [ "postal_code_suffix" ]
            }
         ],
         "formatted_address" : "1 Gifford Pinchot Dr, Madison, WI 53726, USA",
         "geometry" : {
            "location" : {
               "lat" : 43.0746139,
               "lng" : -89.42761710000001
            },
            "location_type" : "ROOFTOP",
            "viewport" : {
               "northeast" : {
                  "lat" : 43.07596288029149,
                  "lng" : -89.42626811970851
               },
               "southwest" : {
                  "lat" : 43.07326491970849,
                  "lng" : -89.42896608029152
               }
            }
         },
         "place_id" : "ChIJse51EO2sB4gRdW8jIwh0AS4",
         "types" : [ "establishment", "point_of_interest" ]
      },
      {
         "address_components" : [
            {
               "long_name" : "1",
               "short_name" : "1",
               "types" : [ "street_number" ]
            },
            {
               "long_name" : "Gifford Pinchot Drive",
               "short_name" : "Gifford Pinchot Dr",
               "types" : [ "route" ]
            },
            {
               "long_name" : "Madison",
               "short_name" : "Madison",
               "types" : [ "locality", "political" ]
            },
            {
               "long_name" : "Dane County",
               "short_name" : "Dane County",
               "types" : [ "administrative_area_level_2", "political" ]
            },
            {
               "long_name" : "Wisconsin",
               "short_name" : "WI",
               "types" : [ "administrative_area_level_1", "political" ]
            },
            {
               "long_name" : "United States",
               "short_name" : "US",
               "types" : [ "country", "political" ]
            },
            {
               "long_name" : "53726",
               "short_name" : "53726",
               "types" : [ "postal_code" ]
            }
         ],
         "formatted_address" : "1 Gifford Pinchot Dr, Madison, WI 53726, USA",
         "geometry" : {
            "location" : {
               "lat" : 43.0746139,
               "lng" : -89.42761710000001
            },
            "location_type" : "ROOFTOP",
            "viewport" : {
               "northeast" : {
                  "lat" : 43.07596288029149,
                  "lng" : -89.42626811970851
               },
               "southwest" : {
                  "lat" : 43.07326491970849,
                  "lng" : -89.42896608029152
               }
            }
         },
         "place_id" : "ChIJ03Q-nfKsB4gR0c4rpwiJqVs",
         "types" : [ "street_address" ]
      },
      {
         "address_components" : [
            {
               "long_name" : "37",
               "short_name" : "37",
               "types" : [ "street_number" ]
            },
            {
               "long_name" : "Gifford Pinchot Drive",
               "short_name" : "Gifford Pinchot Dr",
               "types" : [ "route" ]
            },
            {
               "long_name" : "Madison",
               "short_name" : "Madison",
               "types" : [ "locality", "political" ]
            },
            {
               "long_name" : "Wisconsin",
               "short_name" : "WI",
               "types" : [ "administrative_area_level_1", "political" ]
            },
            {
               "long_name" : "United States",
               "short_name" : "US",
               "types" : [ "country", "political" ]
            },
            {
               "long_name" : "53726",
               "short_name" : "53726",
               "types" : [ "postal_code" ]
            }
         ],
         "formatted_address" : "37 Gifford Pinchot Dr, Madison, WI 53726, USA",
         "geometry" : {
            "location" : {
               "lat" : 43.0746,
               "lng" : -89.42683799999999
            },
            "location_type" : "RANGE_INTERPOLATED",
            "viewport" : {
               "northeast" : {
                  "lat" : 43.07594898029149,
                  "lng" : -89.42548901970848
               },
               "southwest" : {
                  "lat" : 43.07325101970849,
                  "lng" : -89.4281869802915
               }
            }
         },
         "place_id" : "Ei0zNyBHaWZmb3JkIFBpbmNob3QgRHIsIE1hZGlzb24sIFdJIDUzNzI2LCBVU0EiGhIYChQKEgmZcyFi7awHiBEukWpeFr2vlhAl",
         "types" : [ "street_address" ]
      },
      {
         "address_components" : [
            {
               "long_name" : "53705",
               "short_name" : "53705",
               "types" : [ "postal_code" ]
            },
            {
               "long_name" : "Madison",
               "short_name" : "Madison",
               "types" : [ "locality", "political" ]
            },
            {
               "long_name" : "Dane County",
               "short_name" : "Dane County",
               "types" : [ "administrative_area_level_2", "political" ]
            },
            {
               "long_name" : "Wisconsin",
               "short_name" : "WI",
               "types" : [ "administrative_area_level_1", "political" ]
            },
            {
               "long_name" : "United States",
               "short_name" : "US",
               "types" : [ "country", "political" ]
            }
         ],
         "formatted_address" : "Madison, WI 53705, USA",
         "geometry" : {
            "bounds" : {
               "northeast" : {
                  "lat" : 43.096282,
                  "lng" : -89.41515099999999
               },
               "southwest" : {
                  "lat" : 43.0535129,
                  "lng" : -89.5027549
               }
            },
            "location" : {
               "lat" : 43.0716332,
               "lng" : -89.46003689999999
            },
            "location_type" : "APPROXIMATE",
            "viewport" : {
               "northeast" : {
                  "lat" : 43.096282,
                  "lng" : -89.41515099999999
               },
               "southwest" : {
                  "lat" : 43.0535129,
                  "lng" : -89.5027549
               }
            }
         },
         "place_id" : "ChIJldBL7xesB4gR9wPeL3U6gcA",
         "types" : [ "postal_code" ]
      },
      {
         "address_components" : [
            {
               "long_name" : "Madison",
               "short_name" : "Madison",
               "types" : [ "locality", "political" ]
            },
            {
               "long_name" : "Dane County",
               "short_name" : "Dane County",
               "types" : [ "administrative_area_level_2", "political" ]
            },
            {
               "long_name" : "Wisconsin",
               "short_name" : "WI",
               "types" : [ "administrative_area_level_1", "political" ]
            },
            {
               "long_name" : "United States",
               "short_name" : "US",
               "types" : [ "country", "political" ]
            }
         ],
         "formatted_address" : "Madison, WI, USA",
         "geometry" : {
            "bounds" : {
               "northeast" : {
                  "lat" : 43.171916,
                  "lng" : -89.24645199999999
               },
               "southwest" : {
                  "lat" : 42.998071,
                  "lng" : -89.56638889999999
               }
            },
            "location" : {
               "lat" : 43.0730517,
               "lng" : -89.4012302
            },
            "location_type" : "APPROXIMATE",
            "viewport" : {
               "northeast" : {
                  "lat" : 43.171916,
                  "lng" : -89.24645199999999
               },
               "southwest" : {
                  "lat" : 42.998071,
                  "lng" : -89.56638889999999
               }
            }
         },
         "place_id" : "ChIJ_xkgOm1TBogRmEFIurX8DE4",
         "types" : [ "locality", "political" ]
      },
      {
         "address_components" : [
            {
               "long_name" : "Dane County",
               "short_name" : "Dane County",
               "types" : [ "administrative_area_level_2", "political" ]
            },
            {
               "long_name" : "Wisconsin",
               "short_name" : "WI",
               "types" : [ "administrative_area_level_1", "political" ]
            },
            {
               "long_name" : "United States",
               "short_name" : "US",
               "types" : [ "country", "political" ]
            }
         ],
         "formatted_address" : "Dane County, WI, USA",
         "geometry" : {
            "bounds" : {
               "northeast" : {
                  "lat" : 43.29419,
                  "lng" : -89.00872900000002
               },
               "southwest" : {
                  "lat" : 42.8449949,
                  "lng" : -89.83921199999999
               }
            },
            "location" : {
               "lat" : 43.0186073,
               "lng" : -89.5497632
            },
            "location_type" : "APPROXIMATE",
            "viewport" : {
               "northeast" : {
                  "lat" : 43.29419,
                  "lng" : -89.00872900000002
               },
               "southwest" : {
                  "lat" : 42.8449949,
                  "lng" : -89.83921199999999
               }
            }
         },
         "place_id" : "ChIJR0uBFlj2BogRz09LOU-1Vyw",
         "types" : [ "administrative_area_level_2", "political" ]
      },
      {
         "address_components" : [
            {
               "long_name" : "Wisconsin",
               "short_name" : "Wisconsin",
               "types" : [ "administrative_area_level_1", "political" ]
            },
            {
               "long_name" : "United States",
               "short_name" : "US",
               "types" : [ "country", "political" ]
            }
         ],
         "formatted_address" : "Wisconsin, USA",
         "geometry" : {
            "bounds" : {
               "northeast" : {
                  "lat" : 47.3098219,
                  "lng" : -86.2495479
               },
               "southwest" : {
                  "lat" : 42.4917199,
                  "lng" : -92.88943309999999
               }
            },
            "location" : {
               "lat" : 43.7844397,
               "lng" : -88.7878678
            },
            "location_type" : "APPROXIMATE",
            "viewport" : {
               "northeast" : {
                  "lat" : 47.3098219,
                  "lng" : -86.2495479
               },
               "southwest" : {
                  "lat" : 42.4917199,
                  "lng" : -92.88943309999999
               }
            }
         },
         "place_id" : "ChIJr-OEkw_0qFIR1kmG-LjV1fI",
         "types" : [ "administrative_area_level_1", "political" ]
      },
      {
         "address_components" : [
            {
               "long_name" : "United States",
               "short_name" : "US",
               "types" : [ "country", "political" ]
            }
         ],
         "formatted_address" : "United States",
         "geometry" : {
            "bounds" : {
               "northeast" : {
                  "lat" : 71.5388001,
                  "lng" : -66.885417
               },
               "southwest" : {
                  "lat" : 18.7763,
                  "lng" : 170.5957
               }
            },
            "location" : {
               "lat" : 37.09024,
               "lng" : -95.712891
            },
            "location_type" : "APPROXIMATE",
            "viewport" : {
               "northeast" : {
                  "lat" : 71.5388001,
                  "lng" : -66.885417
               },
               "southwest" : {
                  "lat" : 18.7763,
                  "lng" : 170.5957
               }
            }
         },
         "place_id" : "ChIJCzYy5IS16lQRQrfeQ5K5Oxw",
         "types" : [ "country", "political" ]
      }
   ],
   "status" : "OK"
}
