{
   "plus_code" : {
      "compound_code" : "V7CF+29 Paris, France",
      "global_code" : "8FW4V7CF+29"
   },
   "results" : [
      {
         "address_components" : [
            {
               "long_name" : "Place du Maréchal de Lattre de Tassigny",
               "short_name" : "Place du Maréchal de Lattre de Tassigny",
               "types" : [ "route" ]
            },
            {
               "long_name" : "Paris",
               "short_name" : "Paris",
               "types" : [ "locality", "political" ]
            },
            {
               "long_name" : "Paris",
               "short_name" : "Paris",
               "types" : [ "administrative_area_level_2", "political" ]
            },
            {
               "long_name" : "Île-de-France",
               "short_name" : "Île-de-France",
               "types" : [ "administrative_area_level_1", "political" ]
            },
            {
               "long_name" : "France",
               "short_name" : "FR",
               "types" : [ "country", "political" ]
            },
            {
               "long_name" : "75016",
               "short_name" : "75016",
               "types" : [ "postal_code" ]
            }
         ],
         "formatted_address" : "Place du Maréchal de Lattre de Tassigny, 75016 Paris, France",
         "geometry" : {
            "location" : {
               "lat" : 48.870029,
               "lng" : 2.273451
            },
            "location_type" : "GEOMETRIC_CENTER",
            "viewport" : {
               "northeast" : {
                  "lat" : 48.87137798029149,
                  "lng" : 2.274799980291502
               },
               "southwest" : {
                  "lat" : 48.86868001970849,
                  "lng" : 2.272102019708498
               }
            }
         },
         "place_id" : "ChIJt1DSIlll5kcRg56slfq0kzM",
         "plus_code" : {
            "compound_code" : "V7CF+29 Paris, France",
            "global_code" : "8FW4V7CF+29"
         },
         "types" : [ "establishment", "point_of_interest", "university" ]
      },
      {
         "address_components" : [
            {
               "long_name" : "16",
               "short_name" : "16",
               "types" : [ "street_number" ]
            },
            {
               "long_name" : "Boulevard Lannes",
               "short_name" : "Boulevard Lannes",
               "types" : [ "route" ]
            },
            {
               "long_name" : "Paris",
               "short_name" : "Paris",
               "types" : [ "locality", "political" ]
            },
            {
               "long_name" : "Paris",
               "short_name" : "Paris",
               "types" : [ "administrative_area_level_2", "political" ]
            },
            {
               "long_name" : "Île-de-France",
               "short_name" : "Île-de-France",
               "types" : [ "administrative_area_level_1", "political" ]
            },
            {
               "long_name" : "France",
               "short_name" : "FR",
               "types" : [ "country", "political" ]
            },
            {
               "long_name" : "75116",
               "short_name" : "75116",
               "types" : [ "postal_code" ]
            }
         ],
         "formatted_address" : "16 Boulevard Lannes, 75116 Paris, France",
         "geometry" : {
            "location" : {
               "lat" : 48.8699428,
               "lng" : 2.273729
            },
            "location_type" : "ROOFTOP",
            "viewport" : {
               "northeast" : {
                  "lat" : 48.87129178029149,
                  "lng" : 2.275077980291502
               },
               "southwest" : {
                  "lat" : 48.86859381970849,
                  "lng" : 2.272380019708498
               }
            }
         },
         "place_id" : "ChIJYbuYmFll5kcR-1pE6MnbU24",
         "plus_code" : {
            "compound_code" : "V79F+XF Paris, France",
            "global_code" : "8FW4V79F+XF"
         },
         "types" : [ "street_address" ]
      },
      {
         "address_components" : [
            {
               "long_name" : "17",
               "short_name" : "17",
               "types" : [ "street_number" ]
            },
            {
               "long_name" : "Avenue du Maréchal Fayolle",
               "short_name" : "Avenue du Maréchal Fayolle",
               "types" : [ "route" ]
            },
            {
               "long_name" : "Paris",
               "short_name" : "Paris",
               "types" : [ "locality", "political" ]
            },
            {
               "long_name" : "France",
               "short_name" : "FR",
               "types" : [ "country", "political" ]
            },
            {
               "long_name" : "75116",
               "short_name" : "75116",
               "types" : [ "postal_code" ]
            }
         ],
         "formatted_address" : "17 Avenue du Maréchal Fayolle, 75116 Paris, France",
         "geometry" : {
            "location" : {
               "lat" : 48.8703561,
               "lng" : 2.2729403
            },
            "location_type" : "RANGE_INTERPOLATED",
            "viewport" : {
               "northeast" : {
                  "lat" : 48.87170508029149,
                  "lng" : 2.274289280291502
               },
               "southwest" : {
                  "lat" : 48.86900711970849,
                  "lng" : 2.271591319708498
               }
            }
         },
         "place_id" : "EjMxNyBBdmVudWUgZHUgTWFyw6ljaGFsIEZheW9sbGUsIDc1MTE2IFBhcmlzLCBGcmFuY2UiGhIYChQKEgnnKO2AWWXmRxE4OF7YMAgAqxAR",
         "types" : [ "street_address" ]
      },
      {
         "address_components" : [
            {
               "long_name" : "Porte Dauphine",
               "short_name" : "Porte Dauphine",
               "types" : [ "neighborhood", "political" ]
            },
            {
               "long_name" : "Paris",
               "short_name" : "Paris",
               "types" : [ "locality", "political" ]
            },
            {
               "long_name" : "Paris",
               "short_name" : "Paris",
               "types" : [ "administrative_area_level_2", "political" ]
            },
            {
               "long_name" : "Île-de-France",
               "short_name" : "Île-de-France",
               "types" : [ "administrative_area_level_1", "political" ]
            },
            {
               "long_name" : "France",
               "short_name" : "FR",
               "types" : [ "country", "political" ]
            }
         ],
         "formatted_address" : "Porte Dauphine, Paris, France",
         "geometry" : {
            "bounds" : {
               "northeast" : {
                  "lat" : 48.880255,
                  "lng" : 2.2873241
               },
               "southwest" : {
                  "lat" : 48.863,
                  "lng" : 2.255233
               }
            },
            "location" : {
               "lat" : 48.8727631,
               "lng" : 2.272776
            },
            "location_type" : "APPROXIMATE",
            "viewport" : {
               "northeast" : {
                  "lat" : 48.880255,
                  "lng" : 2.2873241
               },
               "southwest" : {
                  "lat" : 48.863,
                  "lng" : 2.255233
               }
            }
         },
         "place_id" : "ChIJ-WGuRVll5kcRPdaOHg-VloM",
         "types" : [ "neighborhood", "political" ]
      },
      {
         "address_components" : [
            {
               "long_name" : "75016",
               "short_name" : "75016",
               "types" : [ "postal_code" ]
            },
            {
               "long_name" : "Paris",
               "short_name" : "Paris",
               "types" : [ "locality", "political" ]
            },
            {
               "long_name" : "Paris",
               "short_name" : "Paris",
               "types" : [ "administrative_area_level_2", "political" ]
            },
            {
               "long_name" : "Île-de-France",
               "short_name" : "Île-de-France",
               "types" : [ "administrative_area_level_1", "political" ]
            },
            {
               "long_name" : "France",
               "short_name" : "FR",
               "types" : [ "country", "political" ]
            }
         ],
         "formatted_address" : "75016 Paris, France",
         "geometry" : {
            "bounds" : {
               "northeast" : {
                  "lat" : 48.9023866,
                  "lng" : 2.373043
               },
               "southwest" : {
                  "lat" : 48.8338739,
                  "lng" : 2.2241006
               }
            },
            "location" : {
               "lat" : 48.8530933,
               "lng" : 2.2487626
            },
            "location_type" : "APPROXIMATE",
            "viewport" : {
               "northeast" : {
                  "lat" : 48.9023866,
                  "lng" : 2.373043
               },
               "southwest" : {
                  "lat" : 48.8338739,
                  "lng" : 2.2241006
               }
            }
         },
         "place_id" : "ChIJ2ew0UbR65kcR8FHY4caCCxw",
         "types" : [ "postal_code" ]
      },
      {
         "address_components" : [
            {
               "long_name" : "16th arrondissement",
               "short_name" : "16th arrondissement",
               "types" : [ "political", "sublocality", "sublocality_level_1" ]
            },
            {
               "long_name" : "Paris",
               "short_name" : "Paris",
               "types" : [ "locality", "political" ]
            },
            {
               "long_name" : "Paris",
               "short_name" : "Paris",
               "types" : [ "administrative_area_level_2", "political" ]
            },
            {
               "long_name" : "Île-de-France",
               "short_name" : "Île-de-France",
               "types" : [ "administrative_area_level_1", "political" ]
            },
            {
               "long_name" : "France",
               "short_name" : "FR",
               "types" : [ "country", "political" ]
            }
         ],
         "formatted_address" : "16th arrondissement, Paris, France",
         "geometry" : {
            "bounds" : {
               "northeast" : {
                  "lat" : 48.8803319,
                  "lng" : 2.301587
               },
               "southwest" : {
                  "lat" : 48.8338419,
                  "lng" : 2.2241989
               }
            },
            "location" : {
               "lat" : 48.8585799,
               "lng" : 2.2847017
            },
            "location_type" : "APPROXIMATE",
            "viewport" : {
               "northeast" : {
                  "lat" : 48.8803319,
                  "lng" : 2.301587
               },
               "southwest" : {
                  "lat" : 48.8338419,
                  "lng" : 2.2241989
               }
            }
         },
         "place_id" : "ChIJ6VVDJrN65kcRQBuUaMOCCwU",
         "types" : [ "political", "sublocality", "sublocality_level_1" ]
      },
      {
         "address_components" : [
            {
               "long_name" : "Paris",
               "short_name" : "Paris",
               "types" : [ "administrative_area_level_2", "political" ]
            },
            {
               "long_name" : "Paris",
               "short_name" : "Paris",
               "types" : [ "locality", "political" ]
            },
            {
               "long_name" : "Île-de-France",
               "short_name" : "Île-de-France",
               "types" : [ "administrative_area_level_1", "political" ]
            },
            {
               "long_name" : "France",
               "short_name" : "FR",
               "types" : [ "country", "political" ]
            }
         ],
         "formatted_address" : "Paris, France",
         "geometry" : {
            "bounds" : {
               "northeast" : {
                  "lat" : 48.9021449,
                  "lng" : 2.4699208
               },
               "southwest" : {
                  "lat" : 48.815573,
                  "lng" : 2.224199
               }
            },
            "location" : {
               "lat" : 48.8565823,
               "lng" : 2.3522148
            },
            "location_type" : "APPROXIMATE",
            "viewport" : {
               "northeast" : {
                  "lat" : 48.9021449,
                  "lng" : 2.4699208
               },
               "southwest" : {
                  "lat" : 48.815573,
                  "lng" : 2.224199
               }
            }
         },
         "place_id" : "ChIJD7fiBh9u5kcRMCqLaMOCCwM",
         "types" : [ "administrative_area_level_2", "political" ]
      },
      {
         "address_components" : [
            {
               "long_name" : "Paris",
               "short_name" : "Paris",
               "types" : [ "locality", "political" ]
            },
            {
               "long_name" : "Paris",
               "short_name" : "Paris",
               "types" : [ "administrative_area_level_2", "political" ]
            },
            {
               "long_name" : "Île-de-France",
               "short_name" : "Île-de-France",
               "types" : [ "administrative_area_level_1", "political" ]
            },
            {
               "long_name" : "France",
               "short_name" : "FR",
               "types" : [ "country", "political" ]
            }
         ],
         "formatted_address" : "Paris, France",
         "geometry" : {
            "bounds" : {
               "northeast" : {
                  "lat" : 48.9021449,
                  "lng" : 2.4699208
               },
               "southwest" : {
                  "lat" : 48.815573,
                  "lng" : 2.224199
               }
            },
            "location" : {
               "lat" : 48.856614,
               "lng" : 2.3522219
            },
            "location_type" : "APPROXIMATE",
            "viewport" : {
               "northeast" : {
                  "lat" : 48.9021449,
                  "lng" : 2.4699208
               },
               "southwest" : {
                  "lat" : 48.815573,
                  "lng" : 2.224199
               }
            }
         },
         "place_id" : "ChIJD7fiBh9u5kcRYJSMaMOCCwQ",
         "types" : [ "locality", "political" ]
      },
      {
         "address_components" : [
            {
               "long_name" : "Île-de-France",
               "short_name" : "Île-de-France",
               "types" : [ "administrative_area_level_1", "political" ]
            },
            {
               "long_name" : "France",
               "short_name" : "FR",
               "types" : [ "country", "political" ]
            }
         ],
         "formatted_address" : "Île-de-France, France",
         "geometry" : {
            "bounds" : {
               "northeast" : {
                  "lat" : 49.241504,
                  "lng" : 3.5590069
               },
               "southwest" : {
                  "lat" : 48.1200811,
                  "lng" : 1.44617
               }
            },
            "location" : {
               "lat" : 48.8499198,
               "lng" : 2.6370411
            },
            "location_type" : "APPROXIMATE",
            "viewport" : {
               "northeast" : {
                  "lat" : 49.241504,
                  "lng" : 3.5590069
               },
               "southwest" : {
                  "lat" : 48.1200811,
                  "lng" : 1.44617
               }
            }
         },
         "place_id" : "ChIJF4ymA8Th5UcRcCWLaMOCCwE",
         "types" : [ "administrative_area_level_1", "political" ]
      },
      {
         "address_components" : [
            {
               "long_name" : "France",
               "short_name" : "FR",
               "types" : [ "country", "political" ]
            }
         ],
         "formatted_address" : "France",
         "geometry" : {
            "bounds" : {
               "northeast" : {
                  "lat" : 51.1241999,
                  "lng" : 9.6624999
               },
               "southwest" : {
                  "lat" : 41.31433,
                  "lng" : -5.5591
               }
            },
            "location" : {
               "lat" : 46.227638,
               "lng" : 2.213749
            },
            "location_type" : "APPROXIMATE",
            "viewport" : {
               "northeast" : {
                  "lat" : 51.1241999,
                  "lng" : 9.6624999
               },
               "southwest" : {
                  "lat" : 41.31433,
                  "lng" : -5.5591
               }
            }
         },
         "place_id" : "ChIJMVd4MymgVA0R99lHx5Y__Ws",
         "types" : [ "country", "political" ]
      }
   ],
   "status" : "OK"
}
