{
   "plus_code" : {
      "compound_code" : "62VC+J6 Jodhpur, Rajasthan, India",
      "global_code" : "7JRM62VC+J6"
   },
   "results" : [
      {
         "address_components" : [
            {
               "long_name" : "Jodhpur",
               "short_name" : "Jodhpur",
               "types" : [ "locality", "political" ]
            },
            {
               "long_name" : "Rajasthan",
               "short_name" : "RJ",
               "types" : [ "administrative_area_level_1", "political" ]
            },
            {
               "long_name" : "India",
               "short_name" : "IN",
               "types" : [ "country", "political" ]
            },
            {
               "long_name" : "342011",
               "short_name" : "342011",
               "types" : [ "postal_code" ]
            }
         ],
         "formatted_address" : "Residency Road, Jodhpur, Rajasthan 342011, India",
         "geometry" : {
            "location" : {
               "lat" : 26.2440384,
               "lng" : 73.0205823
            },
            "location_type" : "GEOMETRIC_CENTER",
            "viewport" : {
               "northeast" : {
                  "lat" : 26.2453873802915,
                  "lng" : 73.02193128029151
               },
               "southwest" : {
                  "lat" : 26.24268941970849,
                  "lng" : 73.0192333197085
               }
            }
         },
         "place_id" : "ChIJcYyIWHSMQTkRvPyk-LN_i9U",
         "types" : [ "establishment", "point_of_interest", "university" ]
      },
      {
         "address_components" : [
            {
               "long_name" : "Unnamed Road",
               "short_name" : "Unnamed Road",
               "types" : [ "route" ]
            },
            {
               "long_name" : "Bhagat Ki Kothi",
               "short_name" : "Bhagat Ki Kothi",
               "types" : [ "political", "sublocality", "sublocality_level_1" ]
            },
            {
               "long_name" : "Jodhpur",
               "short_name" : "Jodhpur",
               "types" : [ "locality", "political" ]
            },
            {
               "long_name" : "Jodhpur",
               "short_name" : "Jodhpur",
               "types" : [ "administrative_area_level_2", "political" ]
            },
            {
               "long_name" : "Rajasthan",
               "short_name" : "RJ",
               "types" : [ "administrative_area_level_1", "political" ]
            },
            {
               "long_name" : "India",
               "short_name" : "IN",
               "types" : [ "country", "political" ]
            },
            {
               "long_name" : "342001",
               "short_name" : "342001",
               "types" : [ "postal_code" ]
            }
         ],
         "formatted_address" : "Unnamed Road, Bhagat Ki Kothi, Jodhpur, Rajasthan 342001, India",
         "geometry" : {
            "bounds" : {
               "northeast" : {
                  "lat" : 26.246237,
                  "lng" : 73.0221973
               },
               "southwest" : {
                  "lat" : 26.2448196,
                  "lng" : 73.01914769999999
               }
            },
            "location" : {
               "lat" : 26.2455283,
               "lng" : 73.0206725
            },
            "location_type" : "GEOMETRIC_CENTER",
            "viewport" : {
               "northeast" : {
                  "lat" : 26.2468772802915,
                  "lng" : 73.0221973
               },
               "southwest" : {
                  "lat" : 26.24417931970849,
                  "lng" : 73.01914769999999
               }
            }
         },
         "place_id" : "ChIJxeVvPXWMQTkR4h9GCS9vD3A",
         "types" : [ "route" ]
      },
      {
         "address_components" : [
            {
               "long_name" : "Bhagat Ki Kothi",
               "short_name" : "Bhagat Ki Kothi",
               "types" : [ "political", "sublocality", "sublocality_level_1" ]
            },
            {
               "long_name" : "Jodhpur",
               "short_name" : "Jodhpur",
               "types" : [ "locality", "political" ]
            },
            {
               "long_name" : "Jodhpur",
               "short_name" : "Jodhpur",
               "types" : [ "administrative_area_level_2", "political" ]
            },
            {
               "long_name" : "Rajasthan",
               "short_name" : "RJ",
               "types" : [ "administrative_area_level_1", "political" ]
            },
            {
               "long_name" : "India",
               "short_name" : "IN",
               "types" : [ "country", "political" ]
            }
         ],
         "formatted_address" : "Bhagat Ki Kothi, Jodhpur, Rajasthan, India",
         "geometry" : {
            "bounds" : {
               "northeast" : {
                  "lat" : 26.2608535,
                  "lng" : 73.0300713
               },
               "southwest" : {
                  "lat" : 26.232127,
                  "lng" : 73.01440719999999
               }
            },
            "location" : {
               "lat" : 26.2582954,
               "lng" : 73.0167426
            },
            "location_type" : "APPROXIMATE",
            "viewport" : {
               "northeast" : {
                  "lat" : 26.2608535,
                  "lng" : 73.0300713
               },
               "southwest" : {
                  "lat" : 26.232127,
                  "lng" : 73.01440719999999
               }
            }
         },
         "place_id" : "ChIJ4VsbLXSMQTkRd82Kf6lcZtk",
         "types" : [ "political", "sublocality", "sublocality_level_1" ]
      },
      {
         "address_components" : [
            {
               "long_name" : "Jodhpur",
               "short_name" : "Jodhpur",
               "types" : [ "locality", "political" ]
            },
            {
               "long_name" : "Jodhpur",
               "short_name" : "Jodhpur",
               "types" : [ "administrative_area_level_2", "political" ]
            },
            {
               "long_name" : "Rajasthan",
               "short_name" : "RJ",
               "types" : [ "administrative_area_level_1", "political" ]
            },
            {
               "long_name" : "India",
               "short_name" : "IN",
               "types" : [ "country", "political" ]
            }
         ],
         "formatted_address" : "Jodhpur, Rajasthan, India",
         "geometry" : {
            "bounds" : {
               "northeast" : {
                  "lat" : 26.3572277,
                  "lng" : 73.1368446
               },
               "southwest" : {
                  "lat" : 26.1834778,
                  "lng" : 72.9242419
               }
            },
            "location" : {
               "lat" : 26.2389469,
               "lng" : 73.02430939999999
            },
            "location_type" : "APPROXIMATE",
            "viewport" : {
               "northeast" : {
                  "lat" : 26.3572277,
                  "lng" : 73.1368446
               },
               "southwest" : {
                  "lat" : 26.1834778,
                  "lng" : 72.9242419
               }
            }
         },
         "place_id" : "ChIJucwGqk6MQTkRuKvhClvqFIE",
         "types" : [ "locality", "political" ]
      },
      {
         "address_components" : [
            {
               "long_name" : "342001",
               "short_name" : "342001",
               "types" : [ "postal_code" ]
            },
            {
               "long_name" : "Jodhpur",
               "short_name" : "Jodhpur",
               "types" : [ "administrative_area_level_2", "political" ]
            },
            {
               "long_name" : "Rajasthan",
               "short_name" : "RJ",
               "types" : [ "administrative_area_level_1", "political" ]
            },
            {
               "long_name" : "India",
               "short_name" : "IN",
               "types" : [ "country", "political" ]
            }
         ],
         "formatted_address" : "Rajasthan 342001, India",
         "geometry" : {
            "bounds" : {
               "northeast" : {
                  "lat" : 26.3965165,
                  "lng" : 73.04159340000001
               },
               "southwest" : {
                  "lat" : 26.2330694,
                  "lng" : 72.71039949999999
               }
            },
            "location" : {
               "lat" : 26.3022093,
               "lng" : 72.86336349999999
            },
            "location_type" : "APPROXIMATE",
            "viewport" : {
               "northeast" : {
                  "lat" : 26.3965165,
                  "lng" : 73.04159340000001
               },
               "southwest" : {
                  "lat" : 26.2330694,
                  "lng" : 72.71039949999999
               }
            }
         },
         "place_id" : "ChIJswSTUzWFQTkRPXkGX0CDgpI",
         "types" : [ "postal_code" ]
      },
      {
         "address_components" : [
            {
               "long_name" : "Jodhpur",
               "short_name" : "Jodhpur",
               "types" : [ "administrative_area_level_2", "political" ]
            },
            {
               "long_name" : "Rajasthan",
               "short_name" : "RJ",
               "types" : [ "administrative_area_level_1", "political" ]
            },
            {
               "long_name" : "India",
               "short_name" : "IN",
               "types" : [ "country", "political" ]
            }
         ],
         "formatted_address" : "Jodhpur, Rajasthan, India",
         "geometry" : {
            "bounds" : {
               "northeast" : {
                  "lat" : 27.61616,
                  "lng" : 73.87156999999999
               },
               "southwest" : {
                  "lat" : 25.8506699,
                  "lng" : 71.80067
               }
            },
            "location" : {
               "lat" : 26.6838342,
               "lng" : 72.8988069
            },
            "location_type" : "APPROXIMATE",
            "viewport" : {
               "northeast" : {
                  "lat" : 27.61616,
                  "lng" : 73.87156999999999
               },
               "southwest" : {
                  "lat" : 25.8506699,
                  "lng" : 71.80067
               }
            }
         },
         "place_id" : "ChIJucwGqk6MQTkROY3_fyPoWus",
         "types" : [ "administrative_area_level_2", "political" ]
      },
      {
         "address_components" : [
            {
               "long_name" : "Rajasthan",
               "short_name" : "Rajasthan",
               "types" : [ "administrative_area_level_1", "political" ]
            },
            {
               "long_name" : "India",
               "short_name" : "IN",
               "types" : [ "country", "political" ]
            }
         ],
         "formatted_address" : "Rajasthan, India",
         "geometry" : {
            "bounds" : {
               "northeast" : {
                  "lat" : 30.1932842,
                  "lng" : 78.26338109999999
               },
               "southwest" : {
                  "lat" : 23.0632669,
                  "lng" : 69.484413
               }
            },
            "location" : {
               "lat" : 27.0238036,
               "lng" : 74.21793260000001
            },
            "location_type" : "APPROXIMATE",
            "viewport" : {
               "northeast" : {
                  "lat" : 30.1932842,
                  "lng" : 78.26338109999999
               },
               "southwest" : {
                  "lat" : 23.0632669,
                  "lng" : 69.484413
               }
            }
         },
         "place_id" : "ChIJNw7j9_o-ajkR5YjABkWbK7U",
         "types" : [ "administrative_area_level_1", "political" ]
      },
      {
         "address_components" : [
            {
               "long_name" : "India",
               "short_name" : "IN",
               "types" : [ "country", "political" ]
            }
         ],
         "formatted_address" : "India",
         "geometry" : {
            "bounds" : {
               "northeast" : {
                  "lat" : 35.513327,
                  "lng" : 97.39535869999999
               },
               "southwest" : {
                  "lat" : 6.4626999,
                  "lng" : 68.1097
               }
            },
            "location" : {
               "lat" : 20.593684,
               "lng" : 78.96288
            },
            "location_type" : "APPROXIMATE",
            "viewport" : {
               "northeast" : {
                  "lat" : 35.513327,
                  "lng" : 97.39535869999999
               },
               "southwest" : {
                  "lat" : 6.4626999,
                  "lng" : 68.1097
               }
            }
         },
         "place_id" : "ChIJkbeSa_BfYzARphNChaFPjNc",
         "types" : [ "country", "political" ]
      }
   ],
   "status" : "OK"
}
