{
   "plus_code" : {
      "compound_code" : "65XR+F7 Yunlong, Xuzhou, Jiangsu, China",
      "global_code" : "8P6V65XR+F7"
   },
   "results" : [
      {
         "address_components" : [
            {
               "long_name" : "Heping Road",
               "short_name" : "Heping Rd",
               "types" : [ "route" ]
            },
            {
               "long_name" : "Yunlong Qu",
               "short_name" : "Yunlong Qu",
               "types" : [ "political", "sublocality", "sublocality_level_1" ]
            },
            {
               "long_name" : "Xuzhou Shi",
               "short_name" : "Xuzhou Shi",
               "types" : [ "locality", "political" ]
            },
            {
               "long_name" : "Jiangsu Sheng",
               "short_name" : "Jiangsu Sheng",
               "types" : [ "administrative_area_level_1", "political" ]
            },
            {
               "long_name" : "China",
               "short_name" : "CN",
               "types" : [ "country", "political" ]
            },
            {
               "long_name" : "221000",
               "short_name" : "221000",
               "types" : [ "postal_code" ]
            }
         ],
         "formatted_address" : "Heping Rd, Yunlong Qu, Xuzhou Shi, Jiangsu Sheng, China, 221000",
         "geometry" : {
            "location" : {
               "lat" : 34.248647,
               "lng" : 117.190731
            },
            "location_type" : "GEOMETRIC_CENTER",
            "viewport" : {
               "northeast" : {
                  "lat" : 34.2499959802915,
                  "lng" : 117.1920799802915
               },
               "southwest" : {
                  "lat" : 34.2472980197085,
                  "lng" : 117.1893820197085
               }
            }
         },
         "place_id" : "ChIJ2adK-5sHxjURzzTW-Oq8Xyk",
         "plus_code" : {
            "compound_code" : "65XR+F7 Yunlong, Xuzhou, Jiangsu, China",
            "global_code" : "8P6V65XR+F7"
         },
         "types" : [ "establishment", "point_of_interest", "university" ]
      },
      {
         "address_components" : [
            {
               "long_name" : "Unnamed Road",
               "short_name" : "Unnamed Road",
               "types" : [ "route" ]
            },
            {
               "long_name" : "Yunlong Qu",
               "short_name" : "Yunlong Qu",
               "types" : [ "political", "sublocality", "sublocality_level_1" ]
            },
            {
               "long_name" : "Xuzhou Shi",
               "short_name" : "Xuzhou Shi",
               "types" : [ "locality", "political" ]
            },
            {
               "long_name" : "Jiangsu Sheng",
               "short_name" : "Jiangsu Sheng",
               "types" : [ "administrative_area_level_1", "political" ]
            },
            {
               "long_name" : "China",
               "short_name" : "CN",
               "types" : [ "country", "political" ]
            },
            {
               "long_name" : "221000",
               "short_name" : "221000",
               "types" : [ "postal_code" ]
            }
         ],
         "formatted_address" : "Unnamed Road, Yunlong Qu, Xuzhou Shi, Jiangsu Sheng, China, 221000",
         "geometry" : {
            "bounds" : {
               "northeast" : {
                  "lat" : 34.2488915,
                  "lng" : 117.1907858
               },
               "southwest" : {
                  "lat" : 34.2488007,
                  "lng" : 117.1905662
               }
            },
            "location" : {
               "lat" : 34.2488461,
               "lng" : 117.190676
            },
            "location_type" : "GEOMETRIC_CENTER",
            "viewport" : {
               "northeast" : {
                  "lat" : 34.2501950802915,
                  "lng" : 117.1920249802915
               },
               "southwest" : {
                  "lat" : 34.2474971197085,
                  "lng" : 117.1893270197085
               }
            }
         },
         "place_id" : "ChIJqQJa5JsHxjURBOQNmPyF42A",
         "types" : [ "route" ]
      },
      {
         "address_components" : [
            {
               "long_name" : "221008",
               "short_name" : "221008",
               "types" : [ "postal_code" ]
            },
            {
               "long_name" : "Quanshan",
               "short_name" : "Quanshan",
               "types" : [ "political", "sublocality", "sublocality_level_1" ]
            },
            {
               "long_name" : "Xuzhou",
               "short_name" : "Xuzhou",
               "types" : [ "locality", "political" ]
            },
            {
               "long_name" : "Jiangsu",
               "short_name" : "Jiangsu",
               "types" : [ "administrative_area_level_1", "political" ]
            },
            {
               "long_name" : "China",
               "short_name" : "CN",
               "types" : [ "country", "political" ]
            }
         ],
         "formatted_address" : "Quanshan, Xuzhou, Jiangsu, China, 221008",
         "geometry" : {
            "bounds" : {
               "northeast" : {
                  "lat" : 34.2800914,
                  "lng" : 117.3263894
               },
               "southwest" : {
                  "lat" : 34.1611875,
                  "lng" : 117.1470638
               }
            },
            "location" : {
               "lat" : 34.2341195,
               "lng" : 117.1483629
            },
            "location_type" : "APPROXIMATE",
            "viewport" : {
               "northeast" : {
                  "lat" : 34.2800914,
                  "lng" : 117.3263894
               },
               "southwest" : {
                  "lat" : 34.1611875,
                  "lng" : 117.1470638
               }
            }
         },
         "place_id" : "ChIJF4n-uL_9xTURYkCGi49WdfE",
         "types" : [ "postal_code" ]
      },
      {
         "address_components" : [
            {
               "long_name" : "Yunlong",
               "short_name" : "Yunlong",
               "types" : [ "political", "sublocality", "sublocality_level_1" ]
            },
            {
               "long_name" : "Xuzhou",
               "short_name" : "Xuzhou",
               "types" : [ "locality", "political" ]
            },
            {
               "long_name" : "Jiangsu",
               "short_name" : "Jiangsu",
               "types" : [ "administrative_area_level_1", "political" ]
            },
            {
               "long_name" : "China",
               "short_name" : "CN",
               "types" : [ "country", "political" ]
            },
            {
               "long_name" : "221100",
               "short_name" : "221100",
               "types" : [ "postal_code" ]
            }
         ],
         "formatted_address" : "Yunlong, Xuzhou, Jiangsu, China, 221100",
         "geometry" : {
            "bounds" : {
               "northeast" : {
                  "lat" : 34.2784196,
                  "lng" : 117.3446784
               },
               "southwest" : {
                  "lat" : 34.1436331,
                  "lng" : 117.1792098
               }
            },
            "location" : {
               "lat" : 34.253164,
               "lng" : 117.251076
            },
            "location_type" : "APPROXIMATE",
            "viewport" : {
               "northeast" : {
                  "lat" : 34.2784196,
                  "lng" : 117.3446784
               },
               "southwest" : {
                  "lat" : 34.1436331,
                  "lng" : 117.1792098
               }
            }
         },
         "place_id" : "ChIJiwuECJwGxjUR_kpwHue-nIs",
         "types" : [ "political", "sublocality", "sublocality_level_1" ]
      },
      {
         "address_components" : [
            {
               "long_name" : "Xuzhou",
               "short_name" : "Xuzhou",
               "types" : [ "locality", "political" ]
            },
            {
               "long_name" : "Jiangsu",
               "short_name" : "Jiangsu",
               "types" : [ "administrative_area_level_1", "political" ]
            },
            {
               "long_name" : "China",
               "short_name" : "CN",
               "types" : [ "country", "political" ]
            }
         ],
         "formatted_address" : "Xuzhou, Jiangsu, China",
         "geometry" : {
            "bounds" : {
               "northeast" : {
                  "lat" : 34.9750873,
                  "lng" : 118.6740716
               },
               "southwest" : {
                  "lat" : 33.7107851,
                  "lng" : 116.3619603
               }
            },
            "location" : {
               "lat" : 34.205768,
               "lng" : 117.284124
            },
            "location_type" : "APPROXIMATE",
            "viewport" : {
               "northeast" : {
                  "lat" : 34.9750873,
                  "lng" : 118.6740716
               },
               "southwest" : {
                  "lat" : 33.7107851,
                  "lng" : 116.3619603
               }
            }
         },
         "place_id" : "ChIJeS9jrwkVxjURgPh-QZarHZw",
         "types" : [ "locality", "political" ]
      },
      {
         "address_components" : [
            {
               "long_name" : "Jiangsu",
               "short_name" : "Jiangsu",
               "types" : [ "administrative_area_level_1", "political" ]
            },
            {
               "long_name" : "China",
               "short_name" : "CN",
               "types" : [ "country", "political" ]
            }
         ],
         "formatted_address" : "Jiangsu, China",
         "geometry" : {
            "bounds" : {
               "northeast" : {
                  "lat" : 35.1245133,
                  "lng" : 121.9751853
               },
               "southwest" : {
                  "lat" : 30.7578404,
                  "lng" : 116.3619603
               }
            },
            "location" : {
               "lat" : 33.1401715,
               "lng" : 119.7889248
            },
            "location_type" : "APPROXIMATE",
            "viewport" : {
               "northeast" : {
                  "lat" : 35.1245133,
                  "lng" : 121.9751853
               },
               "southwest" : {
                  "lat" : 30.7578404,
                  "lng" : 116.3619603
               }
            }
         },
         "place_id" : "ChIJRcJLMdoAtzURtVOFbLbqlI0",
         "types" : [ "administrative_area_level_1", "political" ]
      },
      {
         "address_components" : [
            {
               "long_name" : "China",
               "short_name" : "CN",
               "types" : [ "country", "political" ]
            }
         ],
         "formatted_address" : "China",
         "geometry" : {
            "bounds" : {
               "northeast" : {
                  "lat" : 53.5609739,
                  "lng" : 134.7754563
               },
               "southwest" : {
                  "lat" : 17.9996,
                  "lng" : 73.4994136
               }
            },
            "location" : {
               "lat" : 35.86166,
               "lng" : 104.195397
            },
            "location_type" : "APPROXIMATE",
            "viewport" : {
               "northeast" : {
                  "lat" : 53.5609739,
                  "lng" : 134.7754563
               },
               "southwest" : {
                  "lat" : 17.9996,
                  "lng" : 73.4994136
               }
            }
         },
         "place_id" : "ChIJwULG5WSOUDERbzafNHyqHZU",
         "types" : [ "country", "political" ]
      }
   ],
   "status" : "OK"
}
