{
   "plus_code" : {
      "compound_code" : "CX34+PR Stockholm, Sweden",
      "global_code" : "9FFVCX34+PR"
   },
   "results" : [
      {
         "address_components" : [
            {
               "long_name" : "21",
               "short_name" : "21",
               "types" : [ "street_number" ]
            },
            {
               "long_name" : "Torshamnsgatan",
               "short_name" : "Torshamnsgatan",
               "types" : [ "route" ]
            },
            {
               "long_name" : "Kista",
               "short_name" : "Kista",
               "types" : [ "political", "sublocality", "sublocality_level_1" ]
            },
            {
               "long_name" : "Kista",
               "short_name" : "Kista",
               "types" : [ "postal_town" ]
            },
            {
               "long_name" : "Stockholms län",
               "short_name" : "Stockholms län",
               "types" : [ "administrative_area_level_1", "political" ]
            },
            {
               "long_name" : "Sweden",
               "short_name" : "SE",
               "types" : [ "country", "political" ]
            },
            {
               "long_name" : "164 40",
               "short_name" : "164 40",
               "types" : [ "postal_code" ]
            }
         ],
         "formatted_address" : "Torshamnsgatan 21, 164 40 Kista, Sweden",
         "geometry" : {
            "location" : {
               "lat" : 59.4043504,
               "lng" : 17.9570549
            },
            "location_type" : "ROOFTOP",
            "viewport" : {
               "northeast" : {
                  "lat" : 59.4056993802915,
                  "lng" : 17.9584038802915
               },
               "southwest" : {
                  "lat" : 59.4030014197085,
                  "lng" : 17.9557059197085
               }
            }
         },
         "place_id" : "ChIJ61zdSZKeX0YRDp59msYxROY",
         "plus_code" : {
            "compound_code" : "CX34+PR Stockholm, Sweden",
            "global_code" : "9FFVCX34+PR"
         },
         "types" : [ "establishment", "point_of_interest" ]
      },
      {
         "address_components" : [
            {
               "long_name" : "21b",
               "short_name" : "21b",
               "types" : [ "street_number" ]
            },
            {
               "long_name" : "Torshamnsgatan",
               "short_name" : "Torshamnsgatan",
               "types" : [ "route" ]
            },
            {
               "long_name" : "Kista",
               "short_name" : "Kista",
               "types" : [ "political", "sublocality", "sublocality_level_1" ]
            },
            {
               "long_name" : "Kista",
               "short_name" : "Kista",
               "types" : [ "postal_town" ]
            },
            {
               "long_name" : "Stockholms län",
               "short_name" : "Stockholms län",
               "types" : [ "administrative_area_level_1", "political" ]
            },
            {
               "long_name" : "Sweden",
               "short_name" : "SE",
               "types" : [ "country", "political" ]
            },
            {
               "long_name" : "164 40",
               "short_name" : "164 40",
               "types" : [ "postal_code" ]
            }
         ],
         "formatted_address" : "Torshamnsgatan 21b, 164 40 Kista, Sweden",
         "geometry" : {
            "location" : {
               "lat" : 59.4043504,
               "lng" : 17.9570549
            },
            "location_type" : "ROOFTOP",
            "viewport" : {
               "northeast" : {
                  "lat" : 59.4056993802915,
                  "lng" : 17.9584038802915
               },
               "southwest" : {
                  "lat" : 59.4030014197085,
                  "lng" : 17.9557059197085
               }
            }
         },
         "place_id" : "ChIJ61zdSZKeX0YRVRPmMoBXD-s",
         "plus_code" : {
            "compound_code" : "CX34+PR Stockholm, Sweden",
            "global_code" : "9FFVCX34+PR"
         },
         "types" : [ "street_address" ]
      },
      {
         "address_components" : [
            {
               "long_name" : "21",
               "short_name" : "21",
               "types" : [ "street_number" ]
            },
            {
               "long_name" : "Torshamnsgatan",
               "short_name" : "Torshamnsgatan",
               "types" : [ "route" ]
            },
            {
               "long_name" : "Kista",
               "short_name" : "Kista",
               "types" : [ "postal_town" ]
            },
            {
               "long_name" : "Sweden",
               "short_name" : "SE",
               "types" : [ "country", "political" ]
            },
            {
               "long_name" : "164 40",
               "short_name" : "164 40",
               "types" : [ "postal_code" ]
            }
         ],
         "formatted_address" : "Torshamnsgatan 21, 164 40 Kista, Sweden",
         "geometry" : {
            "location" : {
               "lat" : 59.4044373,
               "lng" : 17.9573137
            },
            "location_type" : "RANGE_INTERPOLATED",
            "viewport" : {
               "northeast" : {
                  "lat" : 59.40578628029151,
                  "lng" : 17.9586626802915
               },
               "southwest" : {
                  "lat" : 59.40308831970849,
                  "lng" : 17.9559647197085
               }
            }
         },
         "place_id" : "EihUb3JzaGFtbnNnYXRhbiAyMSwgMTY0IDQwIEtpc3RhLCBTdmVyaWdlIhoSGAoUChIJKfiPNpKeX0YRvdLcPahJT0AQFQ",
         "types" : [ "street_address" ]
      },
      {
         "address_components" : [
            {
               "long_name" : "164 40",
               "short_name" : "164 40",
               "types" : [ "postal_code" ]
            },
            {
               "long_name" : "Kista",
               "short_name" : "Kista",
               "types" : [ "postal_town" ]
            },
            {
               "long_name" : "Stockholms län",
               "short_name" : "Stockholms län",
               "types" : [ "administrative_area_level_1", "political" ]
            },
            {
               "long_name" : "Sweden",
               "short_name" : "SE",
               "types" : [ "country", "political" ]
            }
         ],
         "formatted_address" : "164 40 Kista, Sweden",
         "geometry" : {
            "bounds" : {
               "northeast" : {
                  "lat" : 59.41111009999999,
                  "lng" : 17.970343
               },
               "southwest" : {
                  "lat" : 59.39472600000001,
                  "lng" : 17.9364872
               }
            },
            "location" : {
               "lat" : 59.40509549999999,
               "lng" : 17.9551008
            },
            "location_type" : "APPROXIMATE",
            "viewport" : {
               "northeast" : {
                  "lat" : 59.41111009999999,
                  "lng" : 17.970343
               },
               "southwest" : {
                  "lat" : 59.39472600000001,
                  "lng" : 17.9364872
               }
            }
         },
         "place_id" : "ChIJPSFad5SeX0YRMz2IGPP-AAs",
         "types" : [ "postal_code" ]
      },
      {
         "address_components" : [
            {
               "long_name" : "Kista Industriområde",
               "short_name" : "Kista Industriområde",
               "types" : [ "neighborhood", "political" ]
            },
            {
               "long_name" : "Kista",
               "short_name" : "Kista",
               "types" : [ "political", "sublocality", "sublocality_level_1" ]
            },
            {
               "long_name" : "Stockholm",
               "short_name" : "Stockholm",
               "types" : [ "locality", "political" ]
            },
            {
               "long_name" : "Stockholms län",
               "short_name" : "Stockholms län",
               "types" : [ "administrative_area_level_1", "political" ]
            },
            {
               "long_name" : "Sweden",
               "short_name" : "SE",
               "types" : [ "country", "political" ]
            }
         ],
         "formatted_address" : "Kista Industriområde, Kista, Stockholm, Sweden",
         "geometry" : {
            "bounds" : {
               "northeast" : {
                  "lat" : 59.41647239999999,
                  "lng" : 17.9706288
               },
               "southwest" : {
                  "lat" : 59.3973286,
                  "lng" : 17.9311036
               }
            },
            "location" : {
               "lat" : 59.4074358,
               "lng" : 17.9490992
            },
            "location_type" : "APPROXIMATE",
            "viewport" : {
               "northeast" : {
                  "lat" : 59.41647239999999,
                  "lng" : 17.9706288
               },
               "southwest" : {
                  "lat" : 59.3973286,
                  "lng" : 17.9311036
               }
            }
         },
         "place_id" : "ChIJu_cV2-yeX0YRv7QvSjnQTmM",
         "types" : [ "neighborhood", "political" ]
      },
      {
         "address_components" : [
            {
               "long_name" : "Kista",
               "short_name" : "Kista",
               "types" : [ "political", "sublocality", "sublocality_level_1" ]
            },
            {
               "long_name" : "Stockholm",
               "short_name" : "Stockholm",
               "types" : [ "locality", "political" ]
            },
            {
               "long_name" : "Stockholm County",
               "short_name" : "Stockholm County",
               "types" : [ "administrative_area_level_1", "political" ]
            },
            {
               "long_name" : "Sweden",
               "short_name" : "SE",
               "types" : [ "country", "political" ]
            }
         ],
         "formatted_address" : "Kista, Stockholm, Sweden",
         "geometry" : {
            "bounds" : {
               "northeast" : {
                  "lat" : 59.4145379,
                  "lng" : 17.969626
               },
               "southwest" : {
                  "lat" : 59.3910959,
                  "lng" : 17.9161801
               }
            },
            "location" : {
               "lat" : 59.4024341,
               "lng" : 17.9464824
            },
            "location_type" : "APPROXIMATE",
            "viewport" : {
               "northeast" : {
                  "lat" : 59.4145379,
                  "lng" : 17.969626
               },
               "southwest" : {
                  "lat" : 59.3910959,
                  "lng" : 17.9161801
               }
            }
         },
         "place_id" : "ChIJyVwAVYmeX0YRz9LWK195u_8",
         "types" : [ "political", "sublocality", "sublocality_level_1" ]
      },
      {
         "address_components" : [
            {
               "long_name" : "Kista",
               "short_name" : "Kista",
               "types" : [ "postal_town" ]
            },
            {
               "long_name" : "Stockholms län",
               "short_name" : "Stockholms län",
               "types" : [ "administrative_area_level_1", "political" ]
            },
            {
               "long_name" : "Sweden",
               "short_name" : "SE",
               "types" : [ "country", "political" ]
            }
         ],
         "formatted_address" : "Kista, Sweden",
         "geometry" : {
            "bounds" : {
               "northeast" : {
                  "lat" : 59.42260289999999,
                  "lng" : 17.9718589
               },
               "southwest" : {
                  "lat" : 59.3899899,
                  "lng" : 17.8874898
               }
            },
            "location" : {
               "lat" : 59.4077432,
               "lng" : 17.9364404
            },
            "location_type" : "APPROXIMATE",
            "viewport" : {
               "northeast" : {
                  "lat" : 59.42260289999999,
                  "lng" : 17.9718589
               },
               "southwest" : {
                  "lat" : 59.3899899,
                  "lng" : 17.8874898
               }
            }
         },
         "place_id" : "ChIJN8UqSwONXkYRCt-mOgz4RWM",
         "types" : [ "postal_town" ]
      },
      {
         "address_components" : [
            {
               "long_name" : "Stockholm",
               "short_name" : "Stockholm",
               "types" : [ "locality", "political" ]
            },
            {
               "long_name" : "Stockholm County",
               "short_name" : "Stockholm County",
               "types" : [ "administrative_area_level_1", "political" ]
            },
            {
               "long_name" : "Sweden",
               "short_name" : "SE",
               "types" : [ "country", "political" ]
            }
         ],
         "formatted_address" : "Stockholm, Sweden",
         "geometry" : {
            "bounds" : {
               "northeast" : {
                  "lat" : 59.42784089999999,
                  "lng" : 18.198229
               },
               "southwest" : {
                  "lat" : 59.224443,
                  "lng" : 17.765876
               }
            },
            "location" : {
               "lat" : 59.32932349999999,
               "lng" : 18.0685808
            },
            "location_type" : "APPROXIMATE",
            "viewport" : {
               "northeast" : {
                  "lat" : 59.42784089999999,
                  "lng" : 18.198229
               },
               "southwest" : {
                  "lat" : 59.224443,
                  "lng" : 17.765876
               }
            }
         },
         "place_id" : "ChIJywtkGTF2X0YRZnedZ9MnDag",
         "types" : [ "locality", "political" ]
      },
      {
         "address_components" : [
            {
               "long_name" : "Stockholm Municipality",
               "short_name" : "Stockholm Municipality",
               "types" : [ "administrative_area_level_2", "political" ]
            },
            {
               "long_name" : "Stockholm County",
               "short_name" : "Stockholm County",
               "types" : [ "administrative_area_level_1", "political" ]
            },
            {
               "long_name" : "Sweden",
               "short_name" : "SE",
               "types" : [ "country", "political" ]
            }
         ],
         "formatted_address" : "Stockholm Municipality, Sweden",
         "geometry" : {
            "bounds" : {
               "northeast" : {
                  "lat" : 59.42661099999999,
                  "lng" : 18.198418
               },
               "southwest" : {
                  "lat" : 59.2278001,
                  "lng" : 17.7597501
               }
            },
            "location" : {
               "lat" : 59.31706999999999,
               "lng" : 17.9672428
            },
            "location_type" : "APPROXIMATE",
            "viewport" : {
               "northeast" : {
                  "lat" : 59.42661099999999,
                  "lng" : 18.198418
               },
               "southwest" : {
                  "lat" : 59.2278001,
                  "lng" : 17.7597501
               }
            }
         },
         "place_id" : "ChIJ53K_LD12X0YRbtKIXBM4QW4",
         "types" : [ "administrative_area_level_2", "political" ]
      },
      {
         "address_components" : [
            {
               "long_name" : "Stockholm County",
               "short_name" : "Stockholm County",
               "types" : [ "administrative_area_level_1", "political" ]
            },
            {
               "long_name" : "Sweden",
               "short_name" : "SE",
               "types" : [ "country", "political" ]
            }
         ],
         "formatted_address" : "Stockholm County, Sweden",
         "geometry" : {
            "bounds" : {
               "northeast" : {
                  "lat" : 60.25631300000001,
                  "lng" : 19.3518131
               },
               "southwest" : {
                  "lat" : 58.7356979,
                  "lng" : 17.2375371
               }
            },
            "location" : {
               "lat" : 59.60249579999999,
               "lng" : 18.1384383
            },
            "location_type" : "APPROXIMATE",
            "viewport" : {
               "northeast" : {
                  "lat" : 60.25631300000001,
                  "lng" : 19.3518131
               },
               "southwest" : {
                  "lat" : 58.7356979,
                  "lng" : 17.2375371
               }
            }
         },
         "place_id" : "ChIJPauYNIoH2EUR-vzAobVCa7M",
         "types" : [ "administrative_area_level_1", "political" ]
      },
      {
         "address_components" : [
            {
               "long_name" : "Sweden",
               "short_name" : "SE",
               "types" : [ "country", "political" ]
            }
         ],
         "formatted_address" : "Sweden",
         "geometry" : {
            "bounds" : {
               "northeast" : {
                  "lat" : 69.0599709,
                  "lng" : 24.1773101
               },
               "southwest" : {
                  "lat" : 55.0059799,
                  "lng" : 10.5798
               }
            },
            "location" : {
               "lat" : 60.12816100000001,
               "lng" : 18.643501
            },
            "location_type" : "APPROXIMATE",
            "viewport" : {
               "northeast" : {
                  "lat" : 69.0599709,
                  "lng" : 24.1773101
               },
               "southwest" : {
                  "lat" : 55.0059799,
                  "lng" : 10.5798
               }
            }
         },
         "place_id" : "ChIJ8fA1bTmyXEYRYm-tjaLruCI",
         "types" : [ "country", "political" ]
      }
   ],
   "status" : "OK"
}
