{
   "plus_code" : {
      "compound_code" : "P8X8+72 Antony, France",
      "global_code" : "8FW4P8X8+72"
   },
   "results" : [
      {
         "address_components" : [
            {
               "long_name" : "19",
               "short_name" : "19",
               "types" : [ "street_number" ]
            },
            {
               "long_name" : "Avenue Lavoisier",
               "short_name" : "Avenue Lavoisier",
               "types" : [ "route" ]
            },
            {
               "long_name" : "Antony",
               "short_name" : "Antony",
               "types" : [ "locality", "political" ]
            },
            {
               "long_name" : "Hauts-de-Seine",
               "short_name" : "Hauts-de-Seine",
               "types" : [ "administrative_area_level_2", "political" ]
            },
            {
               "long_name" : "Île-de-France",
               "short_name" : "Île-de-France",
               "types" : [ "administrative_area_level_1", "political" ]
            },
            {
               "long_name" : "France",
               "short_name" : "FR",
               "types" : [ "country", "political" ]
            },
            {
               "long_name" : "92160",
               "short_name" : "92160",
               "types" : [ "postal_code" ]
            }
         ],
         "formatted_address" : "19 Avenue Lavoisier, 92160 Antony, France",
         "geometry" : {
            "location" : {
               "lat" : 48.7488035,
               "lng" : 2.3144318
            },
            "location_type" : "ROOFTOP",
            "viewport" : {
               "northeast" : {
                  "lat" : 48.7501524802915,
                  "lng" : 2.315780780291502
               },
               "southwest" : {
                  "lat" : 48.7474545197085,
                  "lng" : 2.313082819708498
               }
            }
         },
         "place_id" : "ChIJBdqyYeJ25kcRbpOS3nkVG4o",
         "plus_code" : {
            "compound_code" : "P8X7+GQ Antony, France",
            "global_code" : "8FW4P8X7+GQ"
         },
         "types" : [ "street_address" ]
      },
      {
         "address_components" : [
            {
               "long_name" : "14",
               "short_name" : "14",
               "types" : [ "street_number" ]
            },
            {
               "long_name" : "Rue Pierre Gilles de Gennes",
               "short_name" : "Rue Pierre Gilles de Gennes",
               "types" : [ "route" ]
            },
            {
               "long_name" : "Antony",
               "short_name" : "Antony",
               "types" : [ "locality", "political" ]
            },
            {
               "long_name" : "France",
               "short_name" : "FR",
               "types" : [ "country", "political" ]
            },
            {
               "long_name" : "92160",
               "short_name" : "92160",
               "types" : [ "postal_code" ]
            }
         ],
         "formatted_address" : "14 Rue Pierre Gilles de Gennes, 92160 Antony, France",
         "geometry" : {
            "location" : {
               "lat" : 48.7480706,
               "lng" : 2.314544
            },
            "location_type" : "RANGE_INTERPOLATED",
            "viewport" : {
               "northeast" : {
                  "lat" : 48.74941958029149,
                  "lng" : 2.315892980291502
               },
               "southwest" : {
                  "lat" : 48.7467216197085,
                  "lng" : 2.313195019708498
               }
            }
         },
         "place_id" : "EjQxNCBSdWUgUGllcnJlIEdpbGxlcyBkZSBHZW5uZXMsIDkyMTYwIEFudG9ueSwgRnJhbmNlIhoSGAoUChIJz45vUeJ25kcRcg_T5N4D3-EQDg",
         "types" : [ "street_address" ]
      },
      {
         "address_components" : [
            {
               "long_name" : "Antony",
               "short_name" : "Antony",
               "types" : [ "locality", "political" ]
            },
            {
               "long_name" : "Hauts-de-Seine",
               "short_name" : "Hauts-de-Seine",
               "types" : [ "administrative_area_level_2", "political" ]
            },
            {
               "long_name" : "Île-de-France",
               "short_name" : "Île-de-France",
               "types" : [ "administrative_area_level_1", "political" ]
            },
            {
               "long_name" : "France",
               "short_name" : "FR",
               "types" : [ "country", "political" ]
            }
         ],
         "formatted_address" : "Antony, France",
         "geometry" : {
            "bounds" : {
               "northeast" : {
                  "lat" : 48.7721339,
                  "lng" : 2.3206201
               },
               "southwest" : {
                  "lat" : 48.729351,
                  "lng" : 2.274536
               }
            },
            "location" : {
               "lat" : 48.759255,
               "lng" : 2.302553
            },
            "location_type" : "APPROXIMATE",
            "viewport" : {
               "northeast" : {
                  "lat" : 48.7721339,
                  "lng" : 2.3206201
               },
               "southwest" : {
                  "lat" : 48.729351,
                  "lng" : 2.274536
               }
            }
         },
         "place_id" : "ChIJf8cFRhF35kcR0D6LaMOCCwQ",
         "types" : [ "locality", "political" ]
      },
      {
         "address_components" : [
            {
               "long_name" : "92160",
               "short_name" : "92160",
               "types" : [ "postal_code" ]
            },
            {
               "long_name" : "Antony",
               "short_name" : "Antony",
               "types" : [ "locality", "political" ]
            },
            {
               "long_name" : "Hauts-de-Seine",
               "short_name" : "Hauts-de-Seine",
               "types" : [ "administrative_area_level_2", "political" ]
            },
            {
               "long_name" : "Île-de-France",
               "short_name" : "Île-de-France",
               "types" : [ "administrative_area_level_1", "political" ]
            },
            {
               "long_name" : "France",
               "short_name" : "FR",
               "types" : [ "country", "political" ]
            }
         ],
         "formatted_address" : "92160 Antony, France",
         "geometry" : {
            "bounds" : {
               "northeast" : {
                  "lat" : 48.7724119,
                  "lng" : 2.3207371
               },
               "southwest" : {
                  "lat" : 48.72934919999999,
                  "lng" : 2.2746
               }
            },
            "location" : {
               "lat" : 48.7515616,
               "lng" : 2.2966475
            },
            "location_type" : "APPROXIMATE",
            "viewport" : {
               "northeast" : {
                  "lat" : 48.7724119,
                  "lng" : 2.3207371
               },
               "southwest" : {
                  "lat" : 48.72934919999999,
                  "lng" : 2.2746
               }
            }
         },
         "place_id" : "ChIJf8cFRhF35kcRUH_Y4caCCxw",
         "types" : [ "postal_code" ]
      },
      {
         "address_components" : [
            {
               "long_name" : "Hauts-de-Seine",
               "short_name" : "Hauts-de-Seine",
               "types" : [ "administrative_area_level_2", "political" ]
            },
            {
               "long_name" : "Île-de-France",
               "short_name" : "Île-de-France",
               "types" : [ "administrative_area_level_1", "political" ]
            },
            {
               "long_name" : "France",
               "short_name" : "FR",
               "types" : [ "country", "political" ]
            }
         ],
         "formatted_address" : "Hauts-de-Seine, France",
         "geometry" : {
            "bounds" : {
               "northeast" : {
                  "lat" : 48.9509619,
                  "lng" : 2.336941
               },
               "southwest" : {
                  "lat" : 48.729351,
                  "lng" : 2.145702
               }
            },
            "location" : {
               "lat" : 48.828508,
               "lng" : 2.2188068
            },
            "location_type" : "APPROXIMATE",
            "viewport" : {
               "northeast" : {
                  "lat" : 48.9509619,
                  "lng" : 2.336941
               },
               "southwest" : {
                  "lat" : 48.729351,
                  "lng" : 2.145702
               }
            }
         },
         "place_id" : "ChIJIX9UJN165kcRQCuLaMOCCwM",
         "types" : [ "administrative_area_level_2", "political" ]
      },
      {
         "address_components" : [
            {
               "long_name" : "Île-de-France",
               "short_name" : "Île-de-France",
               "types" : [ "administrative_area_level_1", "political" ]
            },
            {
               "long_name" : "France",
               "short_name" : "FR",
               "types" : [ "country", "political" ]
            }
         ],
         "formatted_address" : "Île-de-France, France",
         "geometry" : {
            "bounds" : {
               "northeast" : {
                  "lat" : 49.241504,
                  "lng" : 3.5590069
               },
               "southwest" : {
                  "lat" : 48.1200811,
                  "lng" : 1.44617
               }
            },
            "location" : {
               "lat" : 48.8499198,
               "lng" : 2.6370411
            },
            "location_type" : "APPROXIMATE",
            "viewport" : {
               "northeast" : {
                  "lat" : 49.241504,
                  "lng" : 3.5590069
               },
               "southwest" : {
                  "lat" : 48.1200811,
                  "lng" : 1.44617
               }
            }
         },
         "place_id" : "ChIJF4ymA8Th5UcRcCWLaMOCCwE",
         "types" : [ "administrative_area_level_1", "political" ]
      },
      {
         "address_components" : [
            {
               "long_name" : "France",
               "short_name" : "FR",
               "types" : [ "country", "political" ]
            }
         ],
         "formatted_address" : "France",
         "geometry" : {
            "bounds" : {
               "northeast" : {
                  "lat" : 51.1241999,
                  "lng" : 9.6624999
               },
               "southwest" : {
                  "lat" : 41.31433,
                  "lng" : -5.5591
               }
            },
            "location" : {
               "lat" : 46.227638,
               "lng" : 2.213749
            },
            "location_type" : "APPROXIMATE",
            "viewport" : {
               "northeast" : {
                  "lat" : 51.1241999,
                  "lng" : 9.6624999
               },
               "southwest" : {
                  "lat" : 41.31433,
                  "lng" : -5.5591
               }
            }
         },
         "place_id" : "ChIJMVd4MymgVA0R99lHx5Y__Ws",
         "types" : [ "country", "political" ]
      }
   ],
   "status" : "OK"
}
