{
   "plus_code" : {
      "compound_code" : "3C8C+VW Prague, Czechia",
      "global_code" : "9F2P3C8C+VW"
   },
   "results" : [
      {
         "address_components" : [
            {
               "long_name" : "4",
               "short_name" : "4",
               "types" : [ "street_number" ]
            },
            {
               "long_name" : "450",
               "short_name" : "450",
               "types" : [ "premise" ]
            },
            {
               "long_name" : "Na Slupi",
               "short_name" : "Na Slupi",
               "types" : [ "route" ]
            },
            {
               "long_name" : "Nové Město",
               "short_name" : "Nové Město",
               "types" : [ "neighborhood", "political" ]
            },
            {
               "long_name" : "Hlavní město Praha",
               "short_name" : "Hlavní město Praha",
               "types" : [ "administrative_area_level_2", "political" ]
            },
            {
               "long_name" : "Hlavní město Praha",
               "short_name" : "Hlavní město Praha",
               "types" : [ "administrative_area_level_1", "political" ]
            },
            {
               "long_name" : "Czechia",
               "short_name" : "CZ",
               "types" : [ "country", "political" ]
            },
            {
               "long_name" : "128 00",
               "short_name" : "128 00",
               "types" : [ "postal_code" ]
            }
         ],
         "formatted_address" : "Na Slupi 450/4, 128 00 Nové Město, Czechia",
         "geometry" : {
            "location" : {
               "lat" : 50.067234,
               "lng" : 14.422348
            },
            "location_type" : "ROOFTOP",
            "viewport" : {
               "northeast" : {
                  "lat" : 50.0685829802915,
                  "lng" : 14.4236969802915
               },
               "southwest" : {
                  "lat" : 50.0658850197085,
                  "lng" : 14.4209990197085
               }
            }
         },
         "place_id" : "ChIJIcNCYmCUC0cRcmfq0oK7ElA",
         "plus_code" : {
            "compound_code" : "3C8C+VW Prague, Czechia",
            "global_code" : "9F2P3C8C+VW"
         },
         "types" : [ "doctor", "establishment", "health", "hospital", "point_of_interest" ]
      },
      {
         "address_components" : [
            {
               "long_name" : "1",
               "short_name" : "1",
               "types" : [ "street_number" ]
            },
            {
               "long_name" : "451",
               "short_name" : "451",
               "types" : [ "premise" ]
            },
            {
               "long_name" : "Horská",
               "short_name" : "Horská",
               "types" : [ "route" ]
            },
            {
               "long_name" : "Nové Město",
               "short_name" : "Nové Město",
               "types" : [ "neighborhood", "political" ]
            },
            {
               "long_name" : "Hlavní město Praha",
               "short_name" : "Hlavní město Praha",
               "types" : [ "administrative_area_level_2", "political" ]
            },
            {
               "long_name" : "Hlavní město Praha",
               "short_name" : "Hlavní město Praha",
               "types" : [ "administrative_area_level_1", "political" ]
            },
            {
               "long_name" : "Czechia",
               "short_name" : "CZ",
               "types" : [ "country", "political" ]
            },
            {
               "long_name" : "128 00",
               "short_name" : "128 00",
               "types" : [ "postal_code" ]
            }
         ],
         "formatted_address" : "Horská 451/1, 128 00 Praha-Nové Město, Czechia",
         "geometry" : {
            "location" : {
               "lat" : 50.0671046,
               "lng" : 14.4227278
            },
            "location_type" : "ROOFTOP",
            "viewport" : {
               "northeast" : {
                  "lat" : 50.0684535802915,
                  "lng" : 14.4240767802915
               },
               "southwest" : {
                  "lat" : 50.0657556197085,
                  "lng" : 14.4213788197085
               }
            }
         },
         "place_id" : "ChIJk3AE-2CUC0cRfeTTR5-ixlE",
         "plus_code" : {
            "compound_code" : "3C8F+R3 Prague, Czechia",
            "global_code" : "9F2P3C8F+R3"
         },
         "types" : [ "street_address" ]
      },
      {
         "address_components" : [
            {
               "long_name" : "1",
               "short_name" : "1",
               "types" : [ "street_number" ]
            },
            {
               "long_name" : "Horská",
               "short_name" : "Horská",
               "types" : [ "route" ]
            },
            {
               "long_name" : "Nové Město",
               "short_name" : "Nové Město",
               "types" : [ "neighborhood", "political" ]
            },
            {
               "long_name" : "Czechia",
               "short_name" : "CZ",
               "types" : [ "country", "political" ]
            },
            {
               "long_name" : "128 00",
               "short_name" : "128 00",
               "types" : [ "postal_code" ]
            }
         ],
         "formatted_address" : "Horská 1, 128 00 Nové Město, Czechia",
         "geometry" : {
            "location" : {
               "lat" : 50.0670204,
               "lng" : 14.4225961
            },
            "location_type" : "RANGE_INTERPOLATED",
            "viewport" : {
               "northeast" : {
                  "lat" : 50.0683693802915,
                  "lng" : 14.4239450802915
               },
               "southwest" : {
                  "lat" : 50.0656714197085,
                  "lng" : 14.4212471197085
               }
            }
         },
         "place_id" : "EiZIb3Jza8OhIDEsIDEyOCAwMCBOb3bDqSBNxJtzdG8sIMSMZXNrbyIaEhgKFAoSCYHam-9glAtHEUTFzVyLhKqFEAE",
         "types" : [ "street_address" ]
      },
      {
         "address_components" : [
            {
               "long_name" : "128 00",
               "short_name" : "128 00",
               "types" : [ "postal_code" ]
            },
            {
               "long_name" : "Prague 2",
               "short_name" : "Prague 2",
               "types" : [ "political", "sublocality", "sublocality_level_1" ]
            },
            {
               "long_name" : "Hlavní město Praha",
               "short_name" : "Hlavní město Praha",
               "types" : [ "administrative_area_level_2", "political" ]
            },
            {
               "long_name" : "Prague",
               "short_name" : "Prague",
               "types" : [ "administrative_area_level_1", "political" ]
            },
            {
               "long_name" : "Czechia",
               "short_name" : "CZ",
               "types" : [ "country", "political" ]
            }
         ],
         "formatted_address" : "128 00 Prague-Prague 2, Czechia",
         "geometry" : {
            "bounds" : {
               "northeast" : {
                  "lat" : 50.0745039,
                  "lng" : 14.4342982
               },
               "southwest" : {
                  "lat" : 50.06097399999999,
                  "lng" : 14.4122042
               }
            },
            "location" : {
               "lat" : 50.0678564,
               "lng" : 14.4201625
            },
            "location_type" : "APPROXIMATE",
            "viewport" : {
               "northeast" : {
                  "lat" : 50.0745039,
                  "lng" : 14.4342982
               },
               "southwest" : {
                  "lat" : 50.06097399999999,
                  "lng" : 14.4122042
               }
            }
         },
         "place_id" : "ChIJFUunVmCUC0cRkC1kmBKvABw",
         "types" : [ "postal_code" ]
      },
      {
         "address_components" : [
            {
               "long_name" : "Praha 28",
               "short_name" : "Praha 28",
               "types" : [ "postal_town" ]
            },
            {
               "long_name" : "Praha 2",
               "short_name" : "Praha 2",
               "types" : [ "political", "sublocality", "sublocality_level_1" ]
            },
            {
               "long_name" : "Hlavní město Praha",
               "short_name" : "Hlavní město Praha",
               "types" : [ "administrative_area_level_2", "political" ]
            },
            {
               "long_name" : "Hlavní město Praha",
               "short_name" : "Hlavní město Praha",
               "types" : [ "administrative_area_level_1", "political" ]
            },
            {
               "long_name" : "Czechia",
               "short_name" : "CZ",
               "types" : [ "country", "political" ]
            },
            {
               "long_name" : "128 00",
               "short_name" : "128 00",
               "types" : [ "postal_code" ]
            }
         ],
         "formatted_address" : "Praha 28, 128 00 Praha-Praha 2, Czechia",
         "geometry" : {
            "bounds" : {
               "northeast" : {
                  "lat" : 50.0745039,
                  "lng" : 14.4342982
               },
               "southwest" : {
                  "lat" : 50.06097399999999,
                  "lng" : 14.4122042
               }
            },
            "location" : {
               "lat" : 50.06896,
               "lng" : 14.4225135
            },
            "location_type" : "APPROXIMATE",
            "viewport" : {
               "northeast" : {
                  "lat" : 50.0745039,
                  "lng" : 14.4342982
               },
               "southwest" : {
                  "lat" : 50.06097399999999,
                  "lng" : 14.4122042
               }
            }
         },
         "place_id" : "ChIJkROXf12UC0cRv7rHWvKBFO0",
         "types" : [ "postal_town" ]
      },
      {
         "address_components" : [
            {
               "long_name" : "New Town",
               "short_name" : "New Town",
               "types" : [ "neighborhood", "political" ]
            },
            {
               "long_name" : "Prague",
               "short_name" : "Prague",
               "types" : [ "locality", "political" ]
            },
            {
               "long_name" : "Hlavní město Praha",
               "short_name" : "Hlavní město Praha",
               "types" : [ "administrative_area_level_2", "political" ]
            },
            {
               "long_name" : "Prague",
               "short_name" : "Prague",
               "types" : [ "administrative_area_level_1", "political" ]
            },
            {
               "long_name" : "Czechia",
               "short_name" : "CZ",
               "types" : [ "country", "political" ]
            }
         ],
         "formatted_address" : "New Town, Prague, Czechia",
         "geometry" : {
            "bounds" : {
               "northeast" : {
                  "lat" : 50.0943881,
                  "lng" : 14.443376
               },
               "southwest" : {
                  "lat" : 50.0657806,
                  "lng" : 14.4112806
               }
            },
            "location" : {
               "lat" : 50.0758425,
               "lng" : 14.419064
            },
            "location_type" : "APPROXIMATE",
            "viewport" : {
               "northeast" : {
                  "lat" : 50.0943881,
                  "lng" : 14.443376
               },
               "southwest" : {
                  "lat" : 50.0657806,
                  "lng" : 14.4112806
               }
            }
         },
         "place_id" : "ChIJ76gR9r2UC0cRGMR8fB_c1S0",
         "types" : [ "neighborhood", "political" ]
      },
      {
         "address_components" : [
            {
               "long_name" : "Prague 2",
               "short_name" : "Prague 2",
               "types" : [ "political", "sublocality", "sublocality_level_1" ]
            },
            {
               "long_name" : "Hlavní město Praha",
               "short_name" : "Hlavní město Praha",
               "types" : [ "administrative_area_level_2", "political" ]
            },
            {
               "long_name" : "Prague",
               "short_name" : "Prague",
               "types" : [ "administrative_area_level_1", "political" ]
            },
            {
               "long_name" : "Czechia",
               "short_name" : "CZ",
               "types" : [ "country", "political" ]
            }
         ],
         "formatted_address" : "Prague 2, Czechia",
         "geometry" : {
            "bounds" : {
               "northeast" : {
                  "lat" : 50.08661009999999,
                  "lng" : 14.4493208
               },
               "southwest" : {
                  "lat" : 50.0609377,
                  "lng" : 14.4115195
               }
            },
            "location" : {
               "lat" : 50.0750689,
               "lng" : 14.4350772
            },
            "location_type" : "APPROXIMATE",
            "viewport" : {
               "northeast" : {
                  "lat" : 50.08661009999999,
                  "lng" : 14.4493208
               },
               "southwest" : {
                  "lat" : 50.0609377,
                  "lng" : 14.4115195
               }
            }
         },
         "place_id" : "ChIJlZ3t4ouUC0cRALMVZg-vAAU",
         "types" : [ "political", "sublocality", "sublocality_level_1" ]
      },
      {
         "address_components" : [
            {
               "long_name" : "Prague",
               "short_name" : "Prague",
               "types" : [ "administrative_area_level_1", "political" ]
            },
            {
               "long_name" : "Prague",
               "short_name" : "Prague",
               "types" : [ "locality", "political" ]
            },
            {
               "long_name" : "Hlavní město Praha",
               "short_name" : "Hlavní město Praha",
               "types" : [ "administrative_area_level_2", "political" ]
            },
            {
               "long_name" : "Czechia",
               "short_name" : "CZ",
               "types" : [ "country", "political" ]
            }
         ],
         "formatted_address" : "Prague, Czechia",
         "geometry" : {
            "bounds" : {
               "northeast" : {
                  "lat" : 50.177403,
                  "lng" : 14.7067945
               },
               "southwest" : {
                  "lat" : 49.94193629999999,
                  "lng" : 14.2244533
               }
            },
            "location" : {
               "lat" : 50.0599268,
               "lng" : 14.5039935
            },
            "location_type" : "APPROXIMATE",
            "viewport" : {
               "northeast" : {
                  "lat" : 50.177403,
                  "lng" : 14.7067945
               },
               "southwest" : {
                  "lat" : 49.94193629999999,
                  "lng" : 14.2244533
               }
            }
         },
         "place_id" : "ChIJi3lwCZyTC0cRIKgUZg-vAAE",
         "types" : [ "administrative_area_level_1", "political" ]
      },
      {
         "address_components" : [
            {
               "long_name" : "Hlavní město Praha",
               "short_name" : "Hlavní město Praha",
               "types" : [ "administrative_area_level_2", "political" ]
            },
            {
               "long_name" : "Praha",
               "short_name" : "Praha",
               "types" : [ "locality", "political" ]
            },
            {
               "long_name" : "Hlavní město Praha",
               "short_name" : "Hlavní město Praha",
               "types" : [ "administrative_area_level_1", "political" ]
            },
            {
               "long_name" : "Czechia",
               "short_name" : "CZ",
               "types" : [ "country", "political" ]
            }
         ],
         "formatted_address" : "Hlavní město Praha, Praha, Czechia",
         "geometry" : {
            "bounds" : {
               "northeast" : {
                  "lat" : 50.177403,
                  "lng" : 14.7067945
               },
               "southwest" : {
                  "lat" : 49.94193629999999,
                  "lng" : 14.2244533
               }
            },
            "location" : {
               "lat" : 50.0599268,
               "lng" : 14.5039935
            },
            "location_type" : "APPROXIMATE",
            "viewport" : {
               "northeast" : {
                  "lat" : 50.177403,
                  "lng" : 14.7067945
               },
               "southwest" : {
                  "lat" : 49.94193629999999,
                  "lng" : 14.2244533
               }
            }
         },
         "place_id" : "ChIJi3lwCZyTC0cRAKkUZg-vAAM",
         "types" : [ "administrative_area_level_2", "political" ]
      },
      {
         "address_components" : [
            {
               "long_name" : "Prague",
               "short_name" : "Prague",
               "types" : [ "locality", "political" ]
            },
            {
               "long_name" : "Hlavní město Praha",
               "short_name" : "Hlavní město Praha",
               "types" : [ "administrative_area_level_2", "political" ]
            },
            {
               "long_name" : "Prague",
               "short_name" : "Prague",
               "types" : [ "administrative_area_level_1", "political" ]
            },
            {
               "long_name" : "Czechia",
               "short_name" : "CZ",
               "types" : [ "country", "political" ]
            }
         ],
         "formatted_address" : "Prague, Czechia",
         "geometry" : {
            "bounds" : {
               "northeast" : {
                  "lat" : 50.177403,
                  "lng" : 14.7067945
               },
               "southwest" : {
                  "lat" : 49.94193629999999,
                  "lng" : 14.2244533
               }
            },
            "location" : {
               "lat" : 50.0755381,
               "lng" : 14.4378005
            },
            "location_type" : "APPROXIMATE",
            "viewport" : {
               "northeast" : {
                  "lat" : 50.177403,
                  "lng" : 14.7067945
               },
               "southwest" : {
                  "lat" : 49.94193629999999,
                  "lng" : 14.2244533
               }
            }
         },
         "place_id" : "ChIJi3lwCZyTC0cRkEAWZg-vAAQ",
         "types" : [ "locality", "political" ]
      },
      {
         "address_components" : [
            {
               "long_name" : "Czechia",
               "short_name" : "CZ",
               "types" : [ "country", "political" ]
            }
         ],
         "formatted_address" : "Czechia",
         "geometry" : {
            "bounds" : {
               "northeast" : {
                  "lat" : 51.0557185,
                  "lng" : 18.8592361
               },
               "southwest" : {
                  "lat" : 48.5518081,
                  "lng" : 12.090589
               }
            },
            "location" : {
               "lat" : 49.81749199999999,
               "lng" : 15.472962
            },
            "location_type" : "APPROXIMATE",
            "viewport" : {
               "northeast" : {
                  "lat" : 51.0557185,
                  "lng" : 18.8592361
               },
               "southwest" : {
                  "lat" : 48.5518081,
                  "lng" : 12.090589
               }
            }
         },
         "place_id" : "ChIJQ4Ld14-UC0cRb1jb03UcZvg",
         "types" : [ "country", "political" ]
      }
   ],
   "status" : "OK"
}
