{
   "plus_code" : {
      "compound_code" : "9QRG+6M Dublin, County Dublin, Ireland",
      "global_code" : "9C5M9QRG+6M"
   },
   "results" : [
      {
         "address_components" : [
            {
               "long_name" : "Beaumont Road",
               "short_name" : "Beaumont Rd",
               "types" : [ "route" ]
            },
            {
               "long_name" : "Beaumont",
               "short_name" : "Beaumont",
               "types" : [ "political", "sublocality", "sublocality_level_1" ]
            },
            {
               "long_name" : "Dublin",
               "short_name" : "Dublin",
               "types" : [ "locality", "political" ]
            },
            {
               "long_name" : "County Dublin",
               "short_name" : "County Dublin",
               "types" : [ "administrative_area_level_1", "political" ]
            },
            {
               "long_name" : "Ireland",
               "short_name" : "IE",
               "types" : [ "country", "political" ]
            }
         ],
         "formatted_address" : "Beaumont Rd, Beaumont, Dublin, Ireland",
         "geometry" : {
            "location" : {
               "lat" : 53.3905385,
               "lng" : -6.2233396
            },
            "location_type" : "GEOMETRIC_CENTER",
            "viewport" : {
               "northeast" : {
                  "lat" : 53.39188748029149,
                  "lng" : -6.221990619708498
               },
               "southwest" : {
                  "lat" : 53.3891895197085,
                  "lng" : -6.224688580291502
               }
            }
         },
         "place_id" : "ChIJVQxAqzIOZ0gRGFkMJHmjWzE",
         "plus_code" : {
            "compound_code" : "9QRG+6M Dublin, County Dublin, Ireland",
            "global_code" : "9C5M9QRG+6M"
         },
         "types" : [ "establishment", "hospital", "point_of_interest" ]
      },
      {
         "address_components" : [
            {
               "long_name" : "24",
               "short_name" : "24",
               "types" : [ "street_number" ]
            },
            {
               "long_name" : "Montrose Drive",
               "short_name" : "Montrose Dr",
               "types" : [ "route" ]
            },
            {
               "long_name" : "Beaumont",
               "short_name" : "Beaumont",
               "types" : [ "political", "sublocality", "sublocality_level_1" ]
            },
            {
               "long_name" : "Dublin 5",
               "short_name" : "Dublin 5",
               "types" : [ "postal_town" ]
            },
            {
               "long_name" : "County Dublin",
               "short_name" : "County Dublin",
               "types" : [ "administrative_area_level_1", "political" ]
            },
            {
               "long_name" : "Ireland",
               "short_name" : "IE",
               "types" : [ "country", "political" ]
            },
            {
               "long_name" : "D05 H527",
               "short_name" : "D05 H527",
               "types" : [ "postal_code" ]
            }
         ],
         "formatted_address" : "24 Montrose Dr, Beaumont, Dublin 5, D05 H527, Ireland",
         "geometry" : {
            "location" : {
               "lat" : 53.3898385,
               "lng" : -6.222957800000001
            },
            "location_type" : "ROOFTOP",
            "viewport" : {
               "northeast" : {
                  "lat" : 53.3911874802915,
                  "lng" : -6.221608819708499
               },
               "southwest" : {
                  "lat" : 53.3884895197085,
                  "lng" : -6.224306780291503
               }
            }
         },
         "place_id" : "ChIJ91jBsDIOZ0gR6JK-IbP_fgw",
         "plus_code" : {
            "compound_code" : "9QQG+WR Dublin, County Dublin, Ireland",
            "global_code" : "9C5M9QQG+WR"
         },
         "types" : [ "street_address" ]
      },
      {
         "address_components" : [
            {
               "long_name" : "20",
               "short_name" : "20",
               "types" : [ "street_number" ]
            },
            {
               "long_name" : "Montrose Drive",
               "short_name" : "Montrose Dr",
               "types" : [ "route" ]
            },
            {
               "long_name" : "Beaumont",
               "short_name" : "Beaumont",
               "types" : [ "political", "sublocality", "sublocality_level_1" ]
            },
            {
               "long_name" : "Dublin",
               "short_name" : "Dublin",
               "types" : [ "locality", "political" ]
            },
            {
               "long_name" : "County Dublin",
               "short_name" : "County Dublin",
               "types" : [ "administrative_area_level_1", "political" ]
            },
            {
               "long_name" : "Ireland",
               "short_name" : "IE",
               "types" : [ "country", "political" ]
            }
         ],
         "formatted_address" : "20 Montrose Dr, Beaumont, Dublin, Ireland",
         "geometry" : {
            "location" : {
               "lat" : 53.3896986,
               "lng" : -6.2229427
            },
            "location_type" : "RANGE_INTERPOLATED",
            "viewport" : {
               "northeast" : {
                  "lat" : 53.39104758029149,
                  "lng" : -6.221593719708498
               },
               "southwest" : {
                  "lat" : 53.38834961970849,
                  "lng" : -6.224291680291502
               }
            }
         },
         "place_id" : "EikyMCBNb250cm9zZSBEciwgQmVhdW1vbnQsIER1YmxpbiwgSXJlbGFuZCIaEhgKFAoSCQl-rbUyDmdIEYUhSGyUYAHDEBQ",
         "types" : [ "street_address" ]
      },
      {
         "address_components" : [
            {
               "long_name" : "Beaumont",
               "short_name" : "Beaumont",
               "types" : [ "political", "sublocality", "sublocality_level_1" ]
            },
            {
               "long_name" : "Dublin",
               "short_name" : "Dublin",
               "types" : [ "locality", "political" ]
            },
            {
               "long_name" : "County Dublin",
               "short_name" : "County Dublin",
               "types" : [ "administrative_area_level_1", "political" ]
            },
            {
               "long_name" : "Ireland",
               "short_name" : "IE",
               "types" : [ "country", "political" ]
            }
         ],
         "formatted_address" : "Beaumont, Dublin, Ireland",
         "geometry" : {
            "bounds" : {
               "northeast" : {
                  "lat" : 53.394201,
                  "lng" : -6.201107899999999
               },
               "southwest" : {
                  "lat" : 53.3754818,
                  "lng" : -6.239197
               }
            },
            "location" : {
               "lat" : 53.38572019999999,
               "lng" : -6.228975699999999
            },
            "location_type" : "APPROXIMATE",
            "viewport" : {
               "northeast" : {
                  "lat" : 53.394201,
                  "lng" : -6.201107899999999
               },
               "southwest" : {
                  "lat" : 53.3754818,
                  "lng" : -6.239197
               }
            }
         },
         "place_id" : "ChIJz2gWozMOZ0gRoTC5GajHACY",
         "types" : [ "political", "sublocality", "sublocality_level_1" ]
      },
      {
         "address_components" : [
            {
               "long_name" : "Dublin City",
               "short_name" : "Dublin City",
               "types" : [ "administrative_area_level_2", "political" ]
            },
            {
               "long_name" : "County Dublin",
               "short_name" : "County Dublin",
               "types" : [ "administrative_area_level_1", "political" ]
            },
            {
               "long_name" : "Ireland",
               "short_name" : "IE",
               "types" : [ "country", "political" ]
            }
         ],
         "formatted_address" : "Dublin City, Co. Dublin, Ireland",
         "geometry" : {
            "bounds" : {
               "northeast" : {
                  "lat" : 53.4111566,
                  "lng" : -6.11309
               },
               "southwest" : {
                  "lat" : 53.2988569,
                  "lng" : -6.387080600000001
               }
            },
            "location" : {
               "lat" : 53.3603142,
               "lng" : -6.315054200000001
            },
            "location_type" : "APPROXIMATE",
            "viewport" : {
               "northeast" : {
                  "lat" : 53.4111566,
                  "lng" : -6.11309
               },
               "southwest" : {
                  "lat" : 53.2988569,
                  "lng" : -6.387080600000001
               }
            }
         },
         "place_id" : "ChIJv2RI7foRZ0gRwAKA8azHAAM",
         "types" : [ "administrative_area_level_2", "political" ]
      },
      {
         "address_components" : [
            {
               "long_name" : "Dublin",
               "short_name" : "Dublin",
               "types" : [ "locality", "political" ]
            },
            {
               "long_name" : "County Dublin",
               "short_name" : "County Dublin",
               "types" : [ "administrative_area_level_1", "political" ]
            },
            {
               "long_name" : "Ireland",
               "short_name" : "IE",
               "types" : [ "country", "political" ]
            }
         ],
         "formatted_address" : "Dublin, Ireland",
         "geometry" : {
            "bounds" : {
               "northeast" : {
                  "lat" : 53.42521010000001,
                  "lng" : -6.0439235
               },
               "southwest" : {
                  "lat" : 53.22343009999999,
                  "lng" : -6.4474847
               }
            },
            "location" : {
               "lat" : 53.3498053,
               "lng" : -6.2603097
            },
            "location_type" : "APPROXIMATE",
            "viewport" : {
               "northeast" : {
                  "lat" : 53.42521010000001,
                  "lng" : -6.0439235
               },
               "southwest" : {
                  "lat" : 53.22343009999999,
                  "lng" : -6.4474847
               }
            }
         },
         "place_id" : "ChIJL6wn6oAOZ0gRoHExl6nHAAo",
         "types" : [ "locality", "political" ]
      },
      {
         "address_components" : [
            {
               "long_name" : "County Dublin",
               "short_name" : "County Dublin",
               "types" : [ "administrative_area_level_1", "political" ]
            },
            {
               "long_name" : "Ireland",
               "short_name" : "IE",
               "types" : [ "country", "political" ]
            }
         ],
         "formatted_address" : "Co. Dublin, Ireland",
         "geometry" : {
            "bounds" : {
               "northeast" : {
                  "lat" : 53.6347257,
                  "lng" : -5.9962748
               },
               "southwest" : {
                  "lat" : 53.1781971,
                  "lng" : -6.5468798
               }
            },
            "location" : {
               "lat" : 53.3302033,
               "lng" : -6.3105655
            },
            "location_type" : "APPROXIMATE",
            "viewport" : {
               "northeast" : {
                  "lat" : 53.6347257,
                  "lng" : -5.9962748
               },
               "southwest" : {
                  "lat" : 53.1781971,
                  "lng" : -6.5468798
               }
            }
         },
         "place_id" : "ChIJv2RI7foRZ0gRwAKA8azHABg",
         "types" : [ "administrative_area_level_1", "political" ]
      },
      {
         "address_components" : [
            {
               "long_name" : "Ireland",
               "short_name" : "IE",
               "types" : [ "country", "political" ]
            }
         ],
         "formatted_address" : "Ireland",
         "geometry" : {
            "bounds" : {
               "northeast" : {
                  "lat" : 55.4602,
                  "lng" : -5.668900100000001
               },
               "southwest" : {
                  "lat" : 51.3066,
                  "lng" : -10.7666001
               }
            },
            "location" : {
               "lat" : 53.41291,
               "lng" : -8.24389
            },
            "location_type" : "APPROXIMATE",
            "viewport" : {
               "northeast" : {
                  "lat" : 55.4602,
                  "lng" : -5.668900100000001
               },
               "southwest" : {
                  "lat" : 51.3066,
                  "lng" : -10.7666001
               }
            }
         },
         "place_id" : "ChIJ-ydAXOS6WUgRCPTbzjQSfM8",
         "types" : [ "country", "political" ]
      }
   ],
   "status" : "OK"
}
