{
   "plus_code" : {
      "compound_code" : "PH8W+JX South Central Houston, Houston, TX, USA",
      "global_code" : "76X6PH8W+JX"
   },
   "results" : [
      {
         "address_components" : [
            {
               "long_name" : "6100",
               "short_name" : "6100",
               "types" : [ "street_number" ]
            },
            {
               "long_name" : "Main Street",
               "short_name" : "Main St",
               "types" : [ "route" ]
            },
            {
               "long_name" : "South Central Houston",
               "short_name" : "South Central Houston",
               "types" : [ "neighborhood", "political" ]
            },
            {
               "long_name" : "Houston",
               "short_name" : "Houston",
               "types" : [ "locality", "political" ]
            },
            {
               "long_name" : "Harris County",
               "short_name" : "Harris County",
               "types" : [ "administrative_area_level_2", "political" ]
            },
            {
               "long_name" : "Texas",
               "short_name" : "TX",
               "types" : [ "administrative_area_level_1", "political" ]
            },
            {
               "long_name" : "United States",
               "short_name" : "US",
               "types" : [ "country", "political" ]
            },
            {
               "long_name" : "77005",
               "short_name" : "77005",
               "types" : [ "postal_code" ]
            },
            {
               "long_name" : "1827",
               "short_name" : "1827",
               "types" : [ "postal_code_suffix" ]
            }
         ],
         "formatted_address" : "6100 Main St, Houston, TX 77005, USA",
         "geometry" : {
            "location" : {
               "lat" : 29.71661,
               "lng" : -95.4026193
            },
            "location_type" : "ROOFTOP",
            "viewport" : {
               "northeast" : {
                  "lat" : 29.7179589802915,
                  "lng" : -95.4012703197085
               },
               "southwest" : {
                  "lat" : 29.7152610197085,
                  "lng" : -95.40396828029151
               }
            }
         },
         "place_id" : "ChIJibGB4nrAQIYRRNPYuHsVLwI",
         "plus_code" : {
            "compound_code" : "PH8W+JX South Central Houston, Houston, TX, United States",
            "global_code" : "76X6PH8W+JX"
         },
         "types" : [ "establishment", "point_of_interest", "university" ]
      },
      {
         "address_components" : [
            {
               "long_name" : "6100",
               "short_name" : "6100",
               "types" : [ "street_number" ]
            },
            {
               "long_name" : "Main street",
               "short_name" : "Main St",
               "types" : [ "route" ]
            },
            {
               "long_name" : "South Central Houston",
               "short_name" : "South Central Houston",
               "types" : [ "neighborhood", "political" ]
            },
            {
               "long_name" : "Houston",
               "short_name" : "Houston",
               "types" : [ "locality", "political" ]
            },
            {
               "long_name" : "Harris County",
               "short_name" : "Harris County",
               "types" : [ "administrative_area_level_2", "political" ]
            },
            {
               "long_name" : "Texas",
               "short_name" : "TX",
               "types" : [ "administrative_area_level_1", "political" ]
            },
            {
               "long_name" : "United States",
               "short_name" : "US",
               "types" : [ "country", "political" ]
            },
            {
               "long_name" : "77005",
               "short_name" : "77005",
               "types" : [ "postal_code" ]
            },
            {
               "long_name" : "1827",
               "short_name" : "1827",
               "types" : [ "postal_code_suffix" ]
            }
         ],
         "formatted_address" : "6100 Main St, Houston, TX 77005, USA",
         "geometry" : {
            "location" : {
               "lat" : 29.71661,
               "lng" : -95.4026193
            },
            "location_type" : "ROOFTOP",
            "viewport" : {
               "northeast" : {
                  "lat" : 29.7179589802915,
                  "lng" : -95.4012703197085
               },
               "southwest" : {
                  "lat" : 29.7152610197085,
                  "lng" : -95.40396828029151
               }
            }
         },
         "place_id" : "ChIJSV2LSXrAQIYRwQUWaO4S2Co",
         "plus_code" : {
            "compound_code" : "PH8W+JX South Central Houston, Houston, TX, United States",
            "global_code" : "76X6PH8W+JX"
         },
         "types" : [ "street_address" ]
      },
      {
         "address_components" : [
            {
               "long_name" : "Alumni Drive",
               "short_name" : "Alumni Dr",
               "types" : [ "route" ]
            },
            {
               "long_name" : "South Central Houston",
               "short_name" : "South Central Houston",
               "types" : [ "neighborhood", "political" ]
            },
            {
               "long_name" : "Houston",
               "short_name" : "Houston",
               "types" : [ "locality", "political" ]
            },
            {
               "long_name" : "Harris County",
               "short_name" : "Harris County",
               "types" : [ "administrative_area_level_2", "political" ]
            },
            {
               "long_name" : "Texas",
               "short_name" : "TX",
               "types" : [ "administrative_area_level_1", "political" ]
            },
            {
               "long_name" : "United States",
               "short_name" : "US",
               "types" : [ "country", "political" ]
            },
            {
               "long_name" : "77005",
               "short_name" : "77005",
               "types" : [ "postal_code" ]
            }
         ],
         "formatted_address" : "Alumni Dr, Houston, TX 77005, USA",
         "geometry" : {
            "bounds" : {
               "northeast" : {
                  "lat" : 29.7170417,
                  "lng" : -95.4020161
               },
               "southwest" : {
                  "lat" : 29.7163717,
                  "lng" : -95.4023644
               }
            },
            "location" : {
               "lat" : 29.7167067,
               "lng" : -95.40219019999999
            },
            "location_type" : "GEOMETRIC_CENTER",
            "viewport" : {
               "northeast" : {
                  "lat" : 29.7180556802915,
                  "lng" : -95.40084126970849
               },
               "southwest" : {
                  "lat" : 29.7153577197085,
                  "lng" : -95.4035392302915
               }
            }
         },
         "place_id" : "ChIJKTo9AnvAQIYR0Kf8oq8vLgo",
         "types" : [ "route" ]
      },
      {
         "address_components" : [
            {
               "long_name" : "University Place",
               "short_name" : "University Place",
               "types" : [ "neighborhood", "political" ]
            },
            {
               "long_name" : "Gridiron",
               "short_name" : "Gridiron",
               "types" : [ "political", "sublocality", "sublocality_level_1" ]
            },
            {
               "long_name" : "Houston",
               "short_name" : "Houston",
               "types" : [ "locality", "political" ]
            },
            {
               "long_name" : "Harris County",
               "short_name" : "Harris County",
               "types" : [ "administrative_area_level_2", "political" ]
            },
            {
               "long_name" : "Texas",
               "short_name" : "TX",
               "types" : [ "administrative_area_level_1", "political" ]
            },
            {
               "long_name" : "United States",
               "short_name" : "US",
               "types" : [ "country", "political" ]
            }
         ],
         "formatted_address" : "University Place, Houston, TX, USA",
         "geometry" : {
            "bounds" : {
               "northeast" : {
                  "lat" : 29.7321861,
                  "lng" : -95.3845302
               },
               "southwest" : {
                  "lat" : 29.69643,
                  "lng" : -95.4186019
               }
            },
            "location" : {
               "lat" : 29.7192025,
               "lng" : -95.40966329999999
            },
            "location_type" : "APPROXIMATE",
            "viewport" : {
               "northeast" : {
                  "lat" : 29.7321861,
                  "lng" : -95.3845302
               },
               "southwest" : {
                  "lat" : 29.69643,
                  "lng" : -95.4186019
               }
            }
         },
         "place_id" : "ChIJkWg2iWTAQIYRheOLHGzbchw",
         "types" : [ "neighborhood", "political" ]
      },
      {
         "address_components" : [
            {
               "long_name" : "77005",
               "short_name" : "77005",
               "types" : [ "postal_code" ]
            },
            {
               "long_name" : "Houston",
               "short_name" : "Houston",
               "types" : [ "locality", "political" ]
            },
            {
               "long_name" : "Harris County",
               "short_name" : "Harris County",
               "types" : [ "administrative_area_level_2", "political" ]
            },
            {
               "long_name" : "Texas",
               "short_name" : "TX",
               "types" : [ "administrative_area_level_1", "political" ]
            },
            {
               "long_name" : "United States",
               "short_name" : "US",
               "types" : [ "country", "political" ]
            }
         ],
         "formatted_address" : "Houston, TX 77005, USA",
         "geometry" : {
            "bounds" : {
               "northeast" : {
                  "lat" : 29.728834,
                  "lng" : -95.389358
               },
               "southwest" : {
                  "lat" : 29.7037171,
                  "lng" : -95.447818
               }
            },
            "location" : {
               "lat" : 29.7183467,
               "lng" : -95.4306141
            },
            "location_type" : "APPROXIMATE",
            "viewport" : {
               "northeast" : {
                  "lat" : 29.728834,
                  "lng" : -95.389358
               },
               "southwest" : {
                  "lat" : 29.7037171,
                  "lng" : -95.447818
               }
            }
         },
         "place_id" : "ChIJJ0H3IVrAQIYRPlNng2ol4N0",
         "postcode_localities" : [ "Houston", "West University Place" ],
         "types" : [ "postal_code" ]
      },
      {
         "address_components" : [
            {
               "long_name" : "Houston",
               "short_name" : "Houston",
               "types" : [ "locality", "political" ]
            },
            {
               "long_name" : "Harris County",
               "short_name" : "Harris County",
               "types" : [ "administrative_area_level_2", "political" ]
            },
            {
               "long_name" : "Texas",
               "short_name" : "TX",
               "types" : [ "administrative_area_level_1", "political" ]
            },
            {
               "long_name" : "United States",
               "short_name" : "US",
               "types" : [ "country", "political" ]
            }
         ],
         "formatted_address" : "Houston, TX, USA",
         "geometry" : {
            "bounds" : {
               "northeast" : {
                  "lat" : 30.1107319,
                  "lng" : -95.01449599999999
               },
               "southwest" : {
                  "lat" : 29.523624,
                  "lng" : -95.78808690000001
               }
            },
            "location" : {
               "lat" : 29.7604267,
               "lng" : -95.3698028
            },
            "location_type" : "APPROXIMATE",
            "viewport" : {
               "northeast" : {
                  "lat" : 30.1107319,
                  "lng" : -95.01449599999999
               },
               "southwest" : {
                  "lat" : 29.523624,
                  "lng" : -95.78808690000001
               }
            }
         },
         "place_id" : "ChIJAYWNSLS4QIYROwVl894CDco",
         "types" : [ "locality", "political" ]
      },
      {
         "address_components" : [
            {
               "long_name" : "Harris County",
               "short_name" : "Harris County",
               "types" : [ "administrative_area_level_2", "political" ]
            },
            {
               "long_name" : "Texas",
               "short_name" : "TX",
               "types" : [ "administrative_area_level_1", "political" ]
            },
            {
               "long_name" : "United States",
               "short_name" : "US",
               "types" : [ "country", "political" ]
            }
         ],
         "formatted_address" : "Harris County, TX, USA",
         "geometry" : {
            "bounds" : {
               "northeast" : {
                  "lat" : 30.1706059,
                  "lng" : -94.90849209999999
               },
               "southwest" : {
                  "lat" : 29.497339,
                  "lng" : -95.96076509999999
               }
            },
            "location" : {
               "lat" : 29.7751825,
               "lng" : -95.3102505
            },
            "location_type" : "APPROXIMATE",
            "viewport" : {
               "northeast" : {
                  "lat" : 30.1706059,
                  "lng" : -94.90849209999999
               },
               "southwest" : {
                  "lat" : 29.497339,
                  "lng" : -95.96076509999999
               }
            }
         },
         "place_id" : "ChIJ9TB__YrMQIYR2tK7sndSry4",
         "types" : [ "administrative_area_level_2", "political" ]
      },
      {
         "address_components" : [
            {
               "long_name" : "Texas",
               "short_name" : "Texas",
               "types" : [ "administrative_area_level_1", "political" ]
            },
            {
               "long_name" : "United States",
               "short_name" : "US",
               "types" : [ "country", "political" ]
            }
         ],
         "formatted_address" : "Texas, USA",
         "geometry" : {
            "bounds" : {
               "northeast" : {
                  "lat" : 36.5007041,
                  "lng" : -93.5080389
               },
               "southwest" : {
                  "lat" : 25.8371638,
                  "lng" : -106.6456461
               }
            },
            "location" : {
               "lat" : 31.9685988,
               "lng" : -99.9018131
            },
            "location_type" : "APPROXIMATE",
            "viewport" : {
               "northeast" : {
                  "lat" : 36.5007041,
                  "lng" : -93.5080389
               },
               "southwest" : {
                  "lat" : 25.8371638,
                  "lng" : -106.6456461
               }
            }
         },
         "place_id" : "ChIJSTKCCzZwQIYRPN4IGI8c6xY",
         "types" : [ "administrative_area_level_1", "political" ]
      },
      {
         "address_components" : [
            {
               "long_name" : "United States",
               "short_name" : "US",
               "types" : [ "country", "political" ]
            }
         ],
         "formatted_address" : "United States",
         "geometry" : {
            "bounds" : {
               "northeast" : {
                  "lat" : 71.5388001,
                  "lng" : -66.885417
               },
               "southwest" : {
                  "lat" : 18.7763,
                  "lng" : 170.5957
               }
            },
            "location" : {
               "lat" : 37.09024,
               "lng" : -95.712891
            },
            "location_type" : "APPROXIMATE",
            "viewport" : {
               "northeast" : {
                  "lat" : 71.5388001,
                  "lng" : -66.885417
               },
               "southwest" : {
                  "lat" : 18.7763,
                  "lng" : 170.5957
               }
            }
         },
         "place_id" : "ChIJCzYy5IS16lQRQrfeQ5K5Oxw",
         "types" : [ "country", "political" ]
      }
   ],
   "status" : "OK"
}
