{
   "results" : [
      {
         "address_components" : [
            {
               "long_name" : "974",
               "short_name" : "974",
               "types" : [ "street_number" ]
            },
            {
               "long_name" : "Rua Igarapé Tucunduba",
               "short_name" : "R. Igarapé Tucunduba",
               "types" : [ "route" ]
            },
            {
               "long_name" : "Guamá",
               "short_name" : "Guamá",
               "types" : [ "political", "sublocality", "sublocality_level_1" ]
            },
            {
               "long_name" : "Belém",
               "short_name" : "Belém",
               "types" : [ "locality", "political" ]
            },
            {
               "long_name" : "Belém",
               "short_name" : "Belém",
               "types" : [ "administrative_area_level_2", "political" ]
            },
            {
               "long_name" : "Pará",
               "short_name" : "PA",
               "types" : [ "administrative_area_level_1", "political" ]
            },
            {
               "long_name" : "Brazil",
               "short_name" : "BR",
               "types" : [ "country", "political" ]
            },
            {
               "long_name" : "66075-123",
               "short_name" : "66075-123",
               "types" : [ "postal_code" ]
            }
         ],
         "formatted_address" : "R. Igarapé Tucunduba, 974 - Guamá, Belém - PA, 66075-123, Brazil",
         "geometry" : {
            "location" : {
               "lat" : -1.473334,
               "lng" : -48.4536232
            },
            "location_type" : "RANGE_INTERPOLATED",
            "viewport" : {
               "northeast" : {
                  "lat" : -1.471985019708498,
                  "lng" : -48.4522742197085
               },
               "southwest" : {
                  "lat" : -1.474682980291502,
                  "lng" : -48.4549721802915
               }
            }
         },
         "place_id" : "EkNSLiBJZ2FyYXDDqSBUdWN1bmR1YmEsIDk3NCAtIEd1YW3DoSwgQmVsw6ltIC0gUEEsIDY2MDc1LTEyMywgQnJhc2lsIhsSGQoUChIJk6GxA76NpJIRYhkcm7RvVI4Qzgc",
         "types" : [ "street_address" ]
      },
      {
         "address_components" : [
            {
               "long_name" : "Universitário",
               "short_name" : "Universitário",
               "types" : [ "political", "sublocality", "sublocality_level_1" ]
            },
            {
               "long_name" : "Belém",
               "short_name" : "Belém",
               "types" : [ "locality", "political" ]
            },
            {
               "long_name" : "Belém",
               "short_name" : "Belém",
               "types" : [ "administrative_area_level_2", "political" ]
            },
            {
               "long_name" : "Pará",
               "short_name" : "PA",
               "types" : [ "administrative_area_level_1", "political" ]
            },
            {
               "long_name" : "Brazil",
               "short_name" : "BR",
               "types" : [ "country", "political" ]
            }
         ],
         "formatted_address" : "Universitário, Belém - PA, Brazil",
         "geometry" : {
            "bounds" : {
               "northeast" : {
                  "lat" : -1.4474058,
                  "lng" : -48.4271398
               },
               "southwest" : {
                  "lat" : -1.4806045,
                  "lng" : -48.45987119999999
               }
            },
            "location" : {
               "lat" : -1.4641442,
               "lng" : -48.4412549
            },
            "location_type" : "APPROXIMATE",
            "viewport" : {
               "northeast" : {
                  "lat" : -1.4474058,
                  "lng" : -48.4271398
               },
               "southwest" : {
                  "lat" : -1.4806045,
                  "lng" : -48.45987119999999
               }
            }
         },
         "place_id" : "ChIJ-Wdo-6uNpJIRt9EmXRlC5yA",
         "types" : [ "political", "sublocality", "sublocality_level_1" ]
      },
      {
         "address_components" : [
            {
               "long_name" : "Belém",
               "short_name" : "Belém",
               "types" : [ "locality", "political" ]
            },
            {
               "long_name" : "Belém",
               "short_name" : "Belém",
               "types" : [ "administrative_area_level_2", "political" ]
            },
            {
               "long_name" : "State of Pará",
               "short_name" : "PA",
               "types" : [ "administrative_area_level_1", "political" ]
            },
            {
               "long_name" : "Brazil",
               "short_name" : "BR",
               "types" : [ "country", "political" ]
            }
         ],
         "formatted_address" : "Belém, State of Pará, Brazil",
         "geometry" : {
            "bounds" : {
               "northeast" : {
                  "lat" : -1.2024803,
                  "lng" : -48.3905628
               },
               "southwest" : {
                  "lat" : -1.4802236,
                  "lng" : -48.5102002
               }
            },
            "location" : {
               "lat" : -1.4557549,
               "lng" : -48.4901799
            },
            "location_type" : "APPROXIMATE",
            "viewport" : {
               "northeast" : {
                  "lat" : -1.2024803,
                  "lng" : -48.3905628
               },
               "southwest" : {
                  "lat" : -1.4802236,
                  "lng" : -48.5102002
               }
            }
         },
         "place_id" : "ChIJ4Wx1hK9hpJIRNUyGFQJUDVc",
         "types" : [ "locality", "political" ]
      },
      {
         "address_components" : [
            {
               "long_name" : "66079",
               "short_name" : "66079",
               "types" : [ "postal_code", "postal_code_prefix" ]
            },
            {
               "long_name" : "Universitário",
               "short_name" : "Universitário",
               "types" : [ "political", "sublocality", "sublocality_level_1" ]
            },
            {
               "long_name" : "Belém",
               "short_name" : "Belém",
               "types" : [ "locality", "political" ]
            },
            {
               "long_name" : "Belém",
               "short_name" : "Belém",
               "types" : [ "administrative_area_level_2", "political" ]
            },
            {
               "long_name" : "Pará",
               "short_name" : "PA",
               "types" : [ "administrative_area_level_1", "political" ]
            },
            {
               "long_name" : "Brazil",
               "short_name" : "BR",
               "types" : [ "country", "political" ]
            }
         ],
         "formatted_address" : "Universitário, Belém - PA, Brazil",
         "geometry" : {
            "bounds" : {
               "northeast" : {
                  "lat" : -1.4641922,
                  "lng" : -48.440923
               },
               "southwest" : {
                  "lat" : -1.4775098,
                  "lng" : -48.4616881
               }
            },
            "location" : {
               "lat" : -1.4716944,
               "lng" : -48.4512446
            },
            "location_type" : "APPROXIMATE",
            "viewport" : {
               "northeast" : {
                  "lat" : -1.4641922,
                  "lng" : -48.440923
               },
               "southwest" : {
                  "lat" : -1.4775098,
                  "lng" : -48.4616881
               }
            }
         },
         "place_id" : "ChIJTwOUX7yNpJIRhKEQZJTka-Q",
         "types" : [ "postal_code", "postal_code_prefix" ]
      },
      {
         "address_components" : [
            {
               "long_name" : "66075-110",
               "short_name" : "66075-110",
               "types" : [ "postal_code" ]
            },
            {
               "long_name" : "Guamá",
               "short_name" : "Guamá",
               "types" : [ "political", "sublocality", "sublocality_level_1" ]
            },
            {
               "long_name" : "Belém",
               "short_name" : "Belém",
               "types" : [ "locality", "political" ]
            },
            {
               "long_name" : "Belém",
               "short_name" : "Belém",
               "types" : [ "administrative_area_level_2", "political" ]
            },
            {
               "long_name" : "Pará",
               "short_name" : "PA",
               "types" : [ "administrative_area_level_1", "political" ]
            },
            {
               "long_name" : "Brazil",
               "short_name" : "BR",
               "types" : [ "country", "political" ]
            }
         ],
         "formatted_address" : "Guamá, Belém - PA, 66075-110, Brazil",
         "geometry" : {
            "bounds" : {
               "northeast" : {
                  "lat" : -1.4350354,
                  "lng" : -48.4462495
               },
               "southwest" : {
                  "lat" : -1.4782755,
                  "lng" : -48.45998729999999
               }
            },
            "location" : {
               "lat" : -1.4667669,
               "lng" : -48.4576425
            },
            "location_type" : "APPROXIMATE",
            "viewport" : {
               "northeast" : {
                  "lat" : -1.4350354,
                  "lng" : -48.4462495
               },
               "southwest" : {
                  "lat" : -1.4782755,
                  "lng" : -48.45998729999999
               }
            }
         },
         "place_id" : "ChIJA_voDbiNpJIRrCUySAeESlY",
         "types" : [ "postal_code" ]
      },
      {
         "address_components" : [
            {
               "long_name" : "Belém",
               "short_name" : "Belém",
               "types" : [ "administrative_area_level_2", "locality", "political" ]
            },
            {
               "long_name" : "State of Pará",
               "short_name" : "PA",
               "types" : [ "administrative_area_level_1", "political" ]
            },
            {
               "long_name" : "Brazil",
               "short_name" : "BR",
               "types" : [ "country", "political" ]
            }
         ],
         "formatted_address" : "Belém - State of Pará, Brazil",
         "geometry" : {
            "bounds" : {
               "northeast" : {
                  "lat" : -1.0194267,
                  "lng" : -48.2961243
               },
               "southwest" : {
                  "lat" : -1.5265847,
                  "lng" : -48.6244082
               }
            },
            "location" : {
               "lat" : -1.4557292,
               "lng" : -48.4901785
            },
            "location_type" : "APPROXIMATE",
            "viewport" : {
               "northeast" : {
                  "lat" : -1.0194267,
                  "lng" : -48.2961243
               },
               "southwest" : {
                  "lat" : -1.5265847,
                  "lng" : -48.6244082
               }
            }
         },
         "place_id" : "ChIJX26Y9WlmpJIRzImxai3bNuM",
         "types" : [ "administrative_area_level_2", "locality", "political" ]
      },
      {
         "address_components" : [
            {
               "long_name" : "State of Pará",
               "short_name" : "PA",
               "types" : [ "administrative_area_level_1", "political" ]
            },
            {
               "long_name" : "Brazil",
               "short_name" : "BR",
               "types" : [ "country", "political" ]
            }
         ],
         "formatted_address" : "State of Pará, Brazil",
         "geometry" : {
            "bounds" : {
               "northeast" : {
                  "lat" : 2.5910246,
                  "lng" : -46.0643195
               },
               "southwest" : {
                  "lat" : -9.8411565,
                  "lng" : -58.89827700000001
               }
            },
            "location" : {
               "lat" : -1.9981271,
               "lng" : -54.9306152
            },
            "location_type" : "APPROXIMATE",
            "viewport" : {
               "northeast" : {
                  "lat" : 2.5910246,
                  "lng" : -46.0643195
               },
               "southwest" : {
                  "lat" : -9.8411565,
                  "lng" : -58.89827700000001
               }
            }
         },
         "place_id" : "ChIJlwksrJn5iJIRCvNV5z7IXjE",
         "types" : [ "administrative_area_level_1", "political" ]
      },
      {
         "address_components" : [
            {
               "long_name" : "Brazil",
               "short_name" : "BR",
               "types" : [ "country", "political" ]
            }
         ],
         "formatted_address" : "Brazil",
         "geometry" : {
            "bounds" : {
               "northeast" : {
                  "lat" : 5.2717863,
                  "lng" : -28.650543
               },
               "southwest" : {
                  "lat" : -34.0891,
                  "lng" : -73.9828169
               }
            },
            "location" : {
               "lat" : -14.235004,
               "lng" : -51.92528
            },
            "location_type" : "APPROXIMATE",
            "viewport" : {
               "northeast" : {
                  "lat" : 5.2717863,
                  "lng" : -28.650543
               },
               "southwest" : {
                  "lat" : -34.0891,
                  "lng" : -73.9828169
               }
            }
         },
         "place_id" : "ChIJzyjM68dZnAARYz4p8gYVWik",
         "types" : [ "country", "political" ]
      }
   ],
   "status" : "OK"
}
