{
   "plus_code" : {
      "compound_code" : "W969+QJ Xicheng, Beijing, China",
      "global_code" : "8PFRW969+QJ"
   },
   "results" : [
      {
         "address_components" : [
            {
               "long_name" : "37",
               "short_name" : "37",
               "types" : [ "street_number" ]
            },
            {
               "long_name" : "Damucang Hutong",
               "short_name" : "Damucang Hutong",
               "types" : [ "route" ]
            },
            {
               "long_name" : "Xicheng Qu",
               "short_name" : "Xicheng Qu",
               "types" : [ "political", "sublocality", "sublocality_level_1" ]
            },
            {
               "long_name" : "Beijing Shi",
               "short_name" : "Beijing Shi",
               "types" : [ "administrative_area_level_1", "political" ]
            },
            {
               "long_name" : "China",
               "short_name" : "CN",
               "types" : [ "country", "political" ]
            },
            {
               "long_name" : "100032",
               "short_name" : "100032",
               "types" : [ "postal_code" ]
            }
         ],
         "formatted_address" : "37 Damucang Hutong, Xicheng Qu, Beijing Shi, China, 100032",
         "geometry" : {
            "location" : {
               "lat" : 39.911984,
               "lng" : 116.36912
            },
            "location_type" : "ROOFTOP",
            "viewport" : {
               "northeast" : {
                  "lat" : 39.9133329802915,
                  "lng" : 116.3704689802915
               },
               "southwest" : {
                  "lat" : 39.9106350197085,
                  "lng" : 116.3677710197085
               }
            }
         },
         "place_id" : "ChIJiaTdf2FS8DURzADXHPzh09M",
         "plus_code" : {
            "compound_code" : "W969+QJ Xicheng, Beijing, China",
            "global_code" : "8PFRW969+QJ"
         },
         "types" : [ "street_address" ]
      },
      {
         "address_components" : [
            {
               "long_name" : "Xicheng",
               "short_name" : "Xicheng",
               "types" : [ "political", "sublocality", "sublocality_level_1" ]
            },
            {
               "long_name" : "Beijing",
               "short_name" : "Beijing",
               "types" : [ "locality", "political" ]
            },
            {
               "long_name" : "China",
               "short_name" : "CN",
               "types" : [ "country", "political" ]
            }
         ],
         "formatted_address" : "China, Beijing, Xicheng, 大木仓胡同5号",
         "geometry" : {
            "location" : {
               "lat" : 39.912109,
               "lng" : 116.369113
            },
            "location_type" : "GEOMETRIC_CENTER",
            "viewport" : {
               "northeast" : {
                  "lat" : 39.9134579802915,
                  "lng" : 116.3704619802915
               },
               "southwest" : {
                  "lat" : 39.9107600197085,
                  "lng" : 116.3677640197085
               }
            }
         },
         "place_id" : "ChIJU52gf2FS8DURNtz3-kj_ISE",
         "plus_code" : {
            "compound_code" : "W969+RJ Xicheng, Beijing, China",
            "global_code" : "8PFRW969+RJ"
         },
         "types" : [ "establishment", "health", "point_of_interest" ]
      },
      {
         "address_components" : [
            {
               "long_name" : "39号",
               "short_name" : "39号",
               "types" : [ "street_number" ]
            },
            {
               "long_name" : "Damucang Hutong",
               "short_name" : "Damucang Hutong",
               "types" : [ "route" ]
            },
            {
               "long_name" : "Xicheng Qu",
               "short_name" : "Xicheng Qu",
               "types" : [ "political", "sublocality", "sublocality_level_1" ]
            },
            {
               "long_name" : "Beijing Shi",
               "short_name" : "Beijing Shi",
               "types" : [ "administrative_area_level_1", "political" ]
            },
            {
               "long_name" : "China",
               "short_name" : "CN",
               "types" : [ "country", "political" ]
            }
         ],
         "formatted_address" : "39 Damucang Hutong, Xicheng Qu, Beijing Shi, China",
         "geometry" : {
            "location" : {
               "lat" : 39.9118822,
               "lng" : 116.3683458
            },
            "location_type" : "RANGE_INTERPOLATED",
            "viewport" : {
               "northeast" : {
                  "lat" : 39.9132311802915,
                  "lng" : 116.3696947802915
               },
               "southwest" : {
                  "lat" : 39.9105332197085,
                  "lng" : 116.3669968197085
               }
            }
         },
         "place_id" : "EizkuK3lm73ljJfkuqzluILopb_ln47ljLrlpKfmnKjku5Pog6HlkIwzOeWPtyIaEhgKFAoSCa-U69RjUvA1EcoYhqxy70B1ECc",
         "types" : [ "street_address" ]
      },
      {
         "address_components" : [
            {
               "long_name" : "100032",
               "short_name" : "100032",
               "types" : [ "postal_code" ]
            },
            {
               "long_name" : "Xicheng",
               "short_name" : "Xicheng",
               "types" : [ "political", "sublocality", "sublocality_level_1" ]
            },
            {
               "long_name" : "Beijing",
               "short_name" : "Beijing",
               "types" : [ "administrative_area_level_1", "political" ]
            },
            {
               "long_name" : "China",
               "short_name" : "CN",
               "types" : [ "country", "political" ]
            }
         ],
         "formatted_address" : "Xicheng, Beijing, China, 100032",
         "geometry" : {
            "bounds" : {
               "northeast" : {
                  "lat" : 39.9203184,
                  "lng" : 116.3751226
               },
               "southwest" : {
                  "lat" : 39.9064214,
                  "lng" : 116.3588895
               }
            },
            "location" : {
               "lat" : 39.9151763,
               "lng" : 116.3743126
            },
            "location_type" : "APPROXIMATE",
            "viewport" : {
               "northeast" : {
                  "lat" : 39.9203184,
                  "lng" : 116.3751226
               },
               "southwest" : {
                  "lat" : 39.9064214,
                  "lng" : 116.3588895
               }
            }
         },
         "place_id" : "ChIJ2yQKzopS8DURgu8d0G0AcBo",
         "types" : [ "postal_code" ]
      },
      {
         "address_components" : [
            {
               "long_name" : "Xicheng",
               "short_name" : "Xicheng",
               "types" : [ "political", "sublocality", "sublocality_level_1" ]
            },
            {
               "long_name" : "Beijing",
               "short_name" : "Beijing",
               "types" : [ "administrative_area_level_1", "political" ]
            },
            {
               "long_name" : "China",
               "short_name" : "CN",
               "types" : [ "country", "political" ]
            }
         ],
         "formatted_address" : "Xicheng, Beijing, China",
         "geometry" : {
            "bounds" : {
               "northeast" : {
                  "lat" : 39.9728643,
                  "lng" : 116.3994637
               },
               "southwest" : {
                  "lat" : 39.8686959,
                  "lng" : 116.3213427
               }
            },
            "location" : {
               "lat" : 39.912288,
               "lng" : 116.365867
            },
            "location_type" : "APPROXIMATE",
            "viewport" : {
               "northeast" : {
                  "lat" : 39.9728643,
                  "lng" : 116.3994637
               },
               "southwest" : {
                  "lat" : 39.8686959,
                  "lng" : 116.3213427
               }
            }
         },
         "place_id" : "ChIJUwHxA1NS8DURoKQ7BSoqd2s",
         "types" : [ "political", "sublocality", "sublocality_level_1" ]
      },
      {
         "address_components" : [
            {
               "long_name" : "Beijing",
               "short_name" : "Beijing",
               "types" : [ "locality", "political" ]
            },
            {
               "long_name" : "Beijing",
               "short_name" : "Beijing",
               "types" : [ "administrative_area_level_1", "political" ]
            },
            {
               "long_name" : "China",
               "short_name" : "CN",
               "types" : [ "country", "political" ]
            }
         ],
         "formatted_address" : "Beijing, China",
         "geometry" : {
            "bounds" : {
               "northeast" : {
                  "lat" : 41.0608157,
                  "lng" : 117.514625
               },
               "southwest" : {
                  "lat" : 39.442758,
                  "lng" : 115.4234112
               }
            },
            "location" : {
               "lat" : 39.90419989999999,
               "lng" : 116.4073963
            },
            "location_type" : "APPROXIMATE",
            "viewport" : {
               "northeast" : {
                  "lat" : 41.0608157,
                  "lng" : 117.514625
               },
               "southwest" : {
                  "lat" : 39.442758,
                  "lng" : 115.4234112
               }
            }
         },
         "place_id" : "ChIJuSwU55ZS8DURiqkPryBWYrk",
         "types" : [ "locality", "political" ]
      },
      {
         "address_components" : [
            {
               "long_name" : "Beijing",
               "short_name" : "Beijing",
               "types" : [ "administrative_area_level_1", "political" ]
            },
            {
               "long_name" : "China",
               "short_name" : "CN",
               "types" : [ "country", "political" ]
            }
         ],
         "formatted_address" : "Beijing, China",
         "geometry" : {
            "bounds" : {
               "northeast" : {
                  "lat" : 41.0608157,
                  "lng" : 117.514625
               },
               "southwest" : {
                  "lat" : 39.442758,
                  "lng" : 115.4234112
               }
            },
            "location" : {
               "lat" : 40.2373519,
               "lng" : 116.2304616
            },
            "location_type" : "APPROXIMATE",
            "viewport" : {
               "northeast" : {
                  "lat" : 41.0608157,
                  "lng" : 117.514625
               },
               "southwest" : {
                  "lat" : 39.442758,
                  "lng" : 115.4234112
               }
            }
         },
         "place_id" : "ChIJuSwU55ZS8DURp8_dOLuVd8A",
         "types" : [ "administrative_area_level_1", "political" ]
      },
      {
         "address_components" : [
            {
               "long_name" : "China",
               "short_name" : "CN",
               "types" : [ "country", "political" ]
            }
         ],
         "formatted_address" : "China",
         "geometry" : {
            "bounds" : {
               "northeast" : {
                  "lat" : 53.5609739,
                  "lng" : 134.7754563
               },
               "southwest" : {
                  "lat" : 17.9996,
                  "lng" : 73.4994136
               }
            },
            "location" : {
               "lat" : 35.86166,
               "lng" : 104.195397
            },
            "location_type" : "APPROXIMATE",
            "viewport" : {
               "northeast" : {
                  "lat" : 53.5609739,
                  "lng" : 134.7754563
               },
               "southwest" : {
                  "lat" : 17.9996,
                  "lng" : 73.4994136
               }
            }
         },
         "place_id" : "ChIJwULG5WSOUDERbzafNHyqHZU",
         "types" : [ "country", "political" ]
      }
   ],
   "status" : "OK"
}
