{
   "plus_code" : {
      "compound_code" : "H73F+GR New Delhi, Delhi, India",
      "global_code" : "7JWVH73F+GR"
   },
   "results" : [
      {
         "address_components" : [
            {
               "long_name" : "New Delhi",
               "short_name" : "New Delhi",
               "types" : [ "locality", "political" ]
            },
            {
               "long_name" : "Delhi",
               "short_name" : "DL",
               "types" : [ "administrative_area_level_1", "political" ]
            },
            {
               "long_name" : "India",
               "short_name" : "IN",
               "types" : [ "country", "political" ]
            },
            {
               "long_name" : "110025",
               "short_name" : "110025",
               "types" : [ "postal_code" ]
            }
         ],
         "formatted_address" : "Mathura Road, Opp Sukhdev Vihar Bus Depot, New Delhi, Delhi 110025, India",
         "geometry" : {
            "location" : {
               "lat" : 28.5538358,
               "lng" : 77.2745276
            },
            "location_type" : "GEOMETRIC_CENTER",
            "viewport" : {
               "northeast" : {
                  "lat" : 28.5551847802915,
                  "lng" : 77.27587658029151
               },
               "southwest" : {
                  "lat" : 28.5524868197085,
                  "lng" : 77.2731786197085
               }
            }
         },
         "place_id" : "ChIJETIqc-7jDDkRICvShIPETg8",
         "plus_code" : {
            "compound_code" : "H73F+GR New Delhi, Delhi, India",
            "global_code" : "7JWVH73F+GR"
         },
         "types" : [ "establishment", "point_of_interest" ]
      },
      {
         "address_components" : [
            {
               "long_name" : "Unnamed Road",
               "short_name" : "Unnamed Road",
               "types" : [ "route" ]
            },
            {
               "long_name" : "Pocket B",
               "short_name" : "Pocket B",
               "types" : [ "political", "sublocality", "sublocality_level_3" ]
            },
            {
               "long_name" : "Sukhdev Vihar",
               "short_name" : "Sukhdev Vihar",
               "types" : [ "political", "sublocality", "sublocality_level_2" ]
            },
            {
               "long_name" : "Okhla",
               "short_name" : "Okhla",
               "types" : [ "political", "sublocality", "sublocality_level_1" ]
            },
            {
               "long_name" : "New Delhi",
               "short_name" : "New Delhi",
               "types" : [ "locality", "political" ]
            },
            {
               "long_name" : "South East Delhi",
               "short_name" : "South East Delhi",
               "types" : [ "administrative_area_level_2", "political" ]
            },
            {
               "long_name" : "Delhi",
               "short_name" : "DL",
               "types" : [ "administrative_area_level_1", "political" ]
            },
            {
               "long_name" : "India",
               "short_name" : "IN",
               "types" : [ "country", "political" ]
            },
            {
               "long_name" : "110025",
               "short_name" : "110025",
               "types" : [ "postal_code" ]
            }
         ],
         "formatted_address" : "Unnamed Road, Pocket B, Sukhdev Vihar, Okhla, New Delhi, Delhi 110025, India",
         "geometry" : {
            "bounds" : {
               "northeast" : {
                  "lat" : 28.554846,
                  "lng" : 77.2753154
               },
               "southwest" : {
                  "lat" : 28.554034,
                  "lng" : 77.27349869999999
               }
            },
            "location" : {
               "lat" : 28.55444,
               "lng" : 77.274407
            },
            "location_type" : "GEOMETRIC_CENTER",
            "viewport" : {
               "northeast" : {
                  "lat" : 28.5557889802915,
                  "lng" : 77.2757560302915
               },
               "southwest" : {
                  "lat" : 28.5530910197085,
                  "lng" : 77.2730580697085
               }
            }
         },
         "place_id" : "ChIJ805U4-3jDDkRbuBc9fMhs9k",
         "types" : [ "route" ]
      },
      {
         "address_components" : [
            {
               "long_name" : "Sukhdev Vihar",
               "short_name" : "Sukhdev Vihar",
               "types" : [ "political", "sublocality", "sublocality_level_2" ]
            },
            {
               "long_name" : "Okhla",
               "short_name" : "Okhla",
               "types" : [ "political", "sublocality", "sublocality_level_1" ]
            },
            {
               "long_name" : "New Delhi",
               "short_name" : "New Delhi",
               "types" : [ "locality", "political" ]
            },
            {
               "long_name" : "South Delhi",
               "short_name" : "South Delhi",
               "types" : [ "administrative_area_level_2", "political" ]
            },
            {
               "long_name" : "Delhi",
               "short_name" : "DL",
               "types" : [ "administrative_area_level_1", "political" ]
            },
            {
               "long_name" : "India",
               "short_name" : "IN",
               "types" : [ "country", "political" ]
            }
         ],
         "formatted_address" : "Sukhdev Vihar, Okhla, New Delhi, Delhi, India",
         "geometry" : {
            "bounds" : {
               "northeast" : {
                  "lat" : 28.5583032,
                  "lng" : 77.28004609999999
               },
               "southwest" : {
                  "lat" : 28.5495121,
                  "lng" : 77.268151
               }
            },
            "location" : {
               "lat" : 28.5570172,
               "lng" : 77.2762863
            },
            "location_type" : "APPROXIMATE",
            "viewport" : {
               "northeast" : {
                  "lat" : 28.5583032,
                  "lng" : 77.28004609999999
               },
               "southwest" : {
                  "lat" : 28.5495121,
                  "lng" : 77.268151
               }
            }
         },
         "place_id" : "ChIJ4wt0efLjDDkRhgQnd2UuOgA",
         "types" : [ "political", "sublocality", "sublocality_level_2" ]
      },
      {
         "address_components" : [
            {
               "long_name" : "Pocket B",
               "short_name" : "Pocket B",
               "types" : [ "political", "sublocality", "sublocality_level_3" ]
            },
            {
               "long_name" : "Sukhdev Vihar",
               "short_name" : "Sukhdev Vihar",
               "types" : [ "political", "sublocality", "sublocality_level_2" ]
            },
            {
               "long_name" : "Okhla",
               "short_name" : "Okhla",
               "types" : [ "political", "sublocality", "sublocality_level_1" ]
            },
            {
               "long_name" : "New Delhi",
               "short_name" : "New Delhi",
               "types" : [ "locality", "political" ]
            },
            {
               "long_name" : "South Delhi",
               "short_name" : "South Delhi",
               "types" : [ "administrative_area_level_2", "political" ]
            },
            {
               "long_name" : "Delhi",
               "short_name" : "DL",
               "types" : [ "administrative_area_level_1", "political" ]
            },
            {
               "long_name" : "India",
               "short_name" : "IN",
               "types" : [ "country", "political" ]
            },
            {
               "long_name" : "110025",
               "short_name" : "110025",
               "types" : [ "postal_code" ]
            }
         ],
         "formatted_address" : "Pocket B, Sukhdev Vihar, Okhla, New Delhi, Delhi 110025, India",
         "geometry" : {
            "bounds" : {
               "northeast" : {
                  "lat" : 28.5567282,
                  "lng" : 77.27802910000001
               },
               "southwest" : {
                  "lat" : 28.5531504,
                  "lng" : 77.2710806
               }
            },
            "location" : {
               "lat" : 28.5547363,
               "lng" : 77.27607379999999
            },
            "location_type" : "APPROXIMATE",
            "viewport" : {
               "northeast" : {
                  "lat" : 28.5567282,
                  "lng" : 77.27802910000001
               },
               "southwest" : {
                  "lat" : 28.5531504,
                  "lng" : 77.2710806
               }
            }
         },
         "place_id" : "ChIJGRd59fHjDDkRTLrCBi85dFo",
         "types" : [ "political", "sublocality", "sublocality_level_3" ]
      },
      {
         "address_components" : [
            {
               "long_name" : "110025",
               "short_name" : "110025",
               "types" : [ "postal_code" ]
            },
            {
               "long_name" : "New Delhi",
               "short_name" : "New Delhi",
               "types" : [ "locality", "political" ]
            },
            {
               "long_name" : "Delhi",
               "short_name" : "DL",
               "types" : [ "administrative_area_level_1", "political" ]
            },
            {
               "long_name" : "India",
               "short_name" : "IN",
               "types" : [ "country", "political" ]
            }
         ],
         "formatted_address" : "New Delhi, Delhi 110025, India",
         "geometry" : {
            "bounds" : {
               "northeast" : {
                  "lat" : 28.5774548,
                  "lng" : 77.3115997
               },
               "southwest" : {
                  "lat" : 28.5343101,
                  "lng" : 77.26589509999999
               }
            },
            "location" : {
               "lat" : 28.562147,
               "lng" : 77.285702
            },
            "location_type" : "APPROXIMATE",
            "viewport" : {
               "northeast" : {
                  "lat" : 28.5774548,
                  "lng" : 77.3115997
               },
               "southwest" : {
                  "lat" : 28.5343101,
                  "lng" : 77.26589509999999
               }
            }
         },
         "place_id" : "ChIJkSsp1onjDDkRTS_gbhVQRvE",
         "types" : [ "postal_code" ]
      },
      {
         "address_components" : [
            {
               "long_name" : "Okhla",
               "short_name" : "Okhla",
               "types" : [ "political", "sublocality", "sublocality_level_1" ]
            },
            {
               "long_name" : "New Delhi",
               "short_name" : "New Delhi",
               "types" : [ "locality", "political" ]
            },
            {
               "long_name" : "South Delhi",
               "short_name" : "South Delhi",
               "types" : [ "administrative_area_level_2", "political" ]
            },
            {
               "long_name" : "Delhi",
               "short_name" : "DL",
               "types" : [ "administrative_area_level_1", "political" ]
            },
            {
               "long_name" : "India",
               "short_name" : "IN",
               "types" : [ "country", "political" ]
            }
         ],
         "formatted_address" : "Okhla, New Delhi, Delhi, India",
         "geometry" : {
            "bounds" : {
               "northeast" : {
                  "lat" : 28.5797789,
                  "lng" : 77.316627
               },
               "southwest" : {
                  "lat" : 28.5421346,
                  "lng" : 77.268151
               }
            },
            "location" : {
               "lat" : 28.56028,
               "lng" : 77.2913315
            },
            "location_type" : "APPROXIMATE",
            "viewport" : {
               "northeast" : {
                  "lat" : 28.5797789,
                  "lng" : 77.316627
               },
               "southwest" : {
                  "lat" : 28.5421346,
                  "lng" : 77.268151
               }
            }
         },
         "place_id" : "ChIJn_OjGnXkDDkRfZyj60ftEFw",
         "types" : [ "political", "sublocality", "sublocality_level_1" ]
      },
      {
         "address_components" : [
            {
               "long_name" : "South East Delhi",
               "short_name" : "South East Delhi",
               "types" : [ "administrative_area_level_2", "political" ]
            },
            {
               "long_name" : "New Delhi",
               "short_name" : "New Delhi",
               "types" : [ "locality", "political" ]
            },
            {
               "long_name" : "Delhi",
               "short_name" : "DL",
               "types" : [ "administrative_area_level_1", "political" ]
            },
            {
               "long_name" : "India",
               "short_name" : "IN",
               "types" : [ "country", "political" ]
            }
         ],
         "formatted_address" : "South East Delhi, New Delhi, Delhi, India",
         "geometry" : {
            "bounds" : {
               "northeast" : {
                  "lat" : 28.6118999,
                  "lng" : 77.34496009999999
               },
               "southwest" : {
                  "lat" : 28.4843699,
                  "lng" : 77.2018399
               }
            },
            "location" : {
               "lat" : 28.5630291,
               "lng" : 77.261088
            },
            "location_type" : "APPROXIMATE",
            "viewport" : {
               "northeast" : {
                  "lat" : 28.6118999,
                  "lng" : 77.34496009999999
               },
               "southwest" : {
                  "lat" : 28.4843699,
                  "lng" : 77.2018399
               }
            }
         },
         "place_id" : "ChIJS4hIU-HjDDkRXIlXK_BYZAs",
         "types" : [ "administrative_area_level_2", "political" ]
      },
      {
         "address_components" : [
            {
               "long_name" : "New Delhi",
               "short_name" : "New Delhi",
               "types" : [ "locality", "political" ]
            },
            {
               "long_name" : "Delhi",
               "short_name" : "DL",
               "types" : [ "administrative_area_level_1", "political" ]
            },
            {
               "long_name" : "India",
               "short_name" : "IN",
               "types" : [ "country", "political" ]
            }
         ],
         "formatted_address" : "New Delhi, Delhi, India",
         "geometry" : {
            "bounds" : {
               "northeast" : {
                  "lat" : 28.65048,
                  "lng" : 77.34496009999999
               },
               "southwest" : {
                  "lat" : 28.4041,
                  "lng" : 77.07301009999999
               }
            },
            "location" : {
               "lat" : 28.6139391,
               "lng" : 77.2090212
            },
            "location_type" : "APPROXIMATE",
            "viewport" : {
               "northeast" : {
                  "lat" : 28.65048,
                  "lng" : 77.34496009999999
               },
               "southwest" : {
                  "lat" : 28.4041,
                  "lng" : 77.07301009999999
               }
            }
         },
         "place_id" : "ChIJLbZ-NFv9DDkRzk0gTkm3wlI",
         "types" : [ "locality", "political" ]
      },
      {
         "address_components" : [
            {
               "long_name" : "Delhi",
               "short_name" : "Delhi",
               "types" : [ "administrative_area_level_1", "locality", "political" ]
            },
            {
               "long_name" : "India",
               "short_name" : "IN",
               "types" : [ "country", "political" ]
            }
         ],
         "formatted_address" : "Delhi, India",
         "geometry" : {
            "bounds" : {
               "northeast" : {
                  "lat" : 28.881338,
                  "lng" : 77.34845780000001
               },
               "southwest" : {
                  "lat" : 28.412593,
                  "lng" : 76.83806899999999
               }
            },
            "location" : {
               "lat" : 28.7040592,
               "lng" : 77.10249019999999
            },
            "location_type" : "APPROXIMATE",
            "viewport" : {
               "northeast" : {
                  "lat" : 28.881338,
                  "lng" : 77.34845780000001
               },
               "southwest" : {
                  "lat" : 28.412593,
                  "lng" : 76.83806899999999
               }
            }
         },
         "place_id" : "ChIJLbZ-NFv9DDkRQJY4FbcFcgM",
         "types" : [ "administrative_area_level_1", "locality", "political" ]
      },
      {
         "address_components" : [
            {
               "long_name" : "India",
               "short_name" : "IN",
               "types" : [ "country", "political" ]
            }
         ],
         "formatted_address" : "India",
         "geometry" : {
            "bounds" : {
               "northeast" : {
                  "lat" : 35.513327,
                  "lng" : 97.39535869999999
               },
               "southwest" : {
                  "lat" : 6.4626999,
                  "lng" : 68.1097
               }
            },
            "location" : {
               "lat" : 20.593684,
               "lng" : 78.96288
            },
            "location_type" : "APPROXIMATE",
            "viewport" : {
               "northeast" : {
                  "lat" : 35.513327,
                  "lng" : 97.39535869999999
               },
               "southwest" : {
                  "lat" : 6.4626999,
                  "lng" : 68.1097
               }
            }
         },
         "place_id" : "ChIJkbeSa_BfYzARphNChaFPjNc",
         "types" : [ "country", "political" ]
      }
   ],
   "status" : "OK"
}
