{
   "plus_code" : {
      "compound_code" : "72CV+GP Osnabrück, Germany",
      "global_code" : "9F4C72CV+GP"
   },
   "results" : [
      {
         "address_components" : [
            {
               "long_name" : "29",
               "short_name" : "29",
               "types" : [ "street_number" ]
            },
            {
               "long_name" : "Neuer Graben",
               "short_name" : "Neuer Graben",
               "types" : [ "route" ]
            },
            {
               "long_name" : "Innenstadt",
               "short_name" : "Innenstadt",
               "types" : [ "political", "sublocality", "sublocality_level_1" ]
            },
            {
               "long_name" : "Osnabrück",
               "short_name" : "Osnabrück",
               "types" : [ "locality", "political" ]
            },
            {
               "long_name" : "Niedersachsen",
               "short_name" : "NDS",
               "types" : [ "administrative_area_level_1", "political" ]
            },
            {
               "long_name" : "Germany",
               "short_name" : "DE",
               "types" : [ "country", "political" ]
            },
            {
               "long_name" : "49074",
               "short_name" : "49074",
               "types" : [ "postal_code" ]
            }
         ],
         "formatted_address" : "Neuer Graben 29, 49074 Osnabrück, Germany",
         "geometry" : {
            "location" : {
               "lat" : 52.2713012,
               "lng" : 8.044326399999999
            },
            "location_type" : "ROOFTOP",
            "viewport" : {
               "northeast" : {
                  "lat" : 52.2726501802915,
                  "lng" : 8.045675380291501
               },
               "southwest" : {
                  "lat" : 52.2699522197085,
                  "lng" : 8.042977419708496
               }
            }
         },
         "place_id" : "ChIJsWEigJHluUcRi16-8S4enoE",
         "plus_code" : {
            "compound_code" : "72CV+GP Osnabrück, Germany",
            "global_code" : "9F4C72CV+GP"
         },
         "types" : [ "establishment", "point_of_interest", "university" ]
      },
      {
         "address_components" : [
            {
               "long_name" : "29",
               "short_name" : "29",
               "types" : [ "street_number" ]
            },
            {
               "long_name" : "Neuer Graben",
               "short_name" : "Neuer Graben",
               "types" : [ "route" ]
            },
            {
               "long_name" : "Innenstadt",
               "short_name" : "Innenstadt",
               "types" : [ "political", "sublocality", "sublocality_level_1" ]
            },
            {
               "long_name" : "Osnabrück",
               "short_name" : "Osnabrück",
               "types" : [ "locality", "political" ]
            },
            {
               "long_name" : "Niedersachsen",
               "short_name" : "NDS",
               "types" : [ "administrative_area_level_1", "political" ]
            },
            {
               "long_name" : "Germany",
               "short_name" : "DE",
               "types" : [ "country", "political" ]
            },
            {
               "long_name" : "49074",
               "short_name" : "49074",
               "types" : [ "postal_code" ]
            }
         ],
         "formatted_address" : "Neuer Graben 29, 49074 Osnabrück, Germany",
         "geometry" : {
            "location" : {
               "lat" : 52.2713446,
               "lng" : 8.044226799999999
            },
            "location_type" : "ROOFTOP",
            "viewport" : {
               "northeast" : {
                  "lat" : 52.2726935802915,
                  "lng" : 8.0455757802915
               },
               "southwest" : {
                  "lat" : 52.2699956197085,
                  "lng" : 8.042877819708496
               }
            }
         },
         "place_id" : "ChIJuxILK5LluUcRLLIICwPh0xI",
         "plus_code" : {
            "compound_code" : "72CV+GM Osnabrück, Germany",
            "global_code" : "9F4C72CV+GM"
         },
         "types" : [ "street_address" ]
      },
      {
         "address_components" : [
            {
               "long_name" : "Grüner Brink",
               "short_name" : "Grüner Brink",
               "types" : [ "route" ]
            },
            {
               "long_name" : "Innenstadt",
               "short_name" : "Innenstadt",
               "types" : [ "political", "sublocality", "sublocality_level_1" ]
            },
            {
               "long_name" : "Osnabrück",
               "short_name" : "Osnabrück",
               "types" : [ "locality", "political" ]
            },
            {
               "long_name" : "Niedersachsen",
               "short_name" : "NDS",
               "types" : [ "administrative_area_level_1", "political" ]
            },
            {
               "long_name" : "Germany",
               "short_name" : "DE",
               "types" : [ "country", "political" ]
            },
            {
               "long_name" : "49074",
               "short_name" : "49074",
               "types" : [ "postal_code" ]
            }
         ],
         "formatted_address" : "Grüner Brink, 49074 Osnabrück, Germany",
         "geometry" : {
            "bounds" : {
               "northeast" : {
                  "lat" : 52.2713784,
                  "lng" : 8.0448664
               },
               "southwest" : {
                  "lat" : 52.2710683,
                  "lng" : 8.044735599999999
               }
            },
            "location" : {
               "lat" : 52.2712234,
               "lng" : 8.044801
            },
            "location_type" : "GEOMETRIC_CENTER",
            "viewport" : {
               "northeast" : {
                  "lat" : 52.2725723302915,
                  "lng" : 8.046149980291501
               },
               "southwest" : {
                  "lat" : 52.2698743697085,
                  "lng" : 8.043452019708496
               }
            }
         },
         "place_id" : "ChIJI6VngpHluUcRVhwWz5ch1Ac",
         "types" : [ "route" ]
      },
      {
         "address_components" : [
            {
               "long_name" : "Innenstadt",
               "short_name" : "Innenstadt",
               "types" : [ "political", "sublocality", "sublocality_level_1" ]
            },
            {
               "long_name" : "Osnabrück",
               "short_name" : "Osnabrück",
               "types" : [ "locality", "political" ]
            },
            {
               "long_name" : "Lower Saxony",
               "short_name" : "NDS",
               "types" : [ "administrative_area_level_1", "political" ]
            },
            {
               "long_name" : "Germany",
               "short_name" : "DE",
               "types" : [ "country", "political" ]
            },
            {
               "long_name" : "49074",
               "short_name" : "49074",
               "types" : [ "postal_code" ]
            }
         ],
         "formatted_address" : "Innenstadt, 49074 Osnabrück, Germany",
         "geometry" : {
            "bounds" : {
               "northeast" : {
                  "lat" : 52.2821291,
                  "lng" : 8.0613261
               },
               "southwest" : {
                  "lat" : 52.2633157,
                  "lng" : 8.038224099999999
               }
            },
            "location" : {
               "lat" : 52.2706341,
               "lng" : 8.054525399999999
            },
            "location_type" : "APPROXIMATE",
            "viewport" : {
               "northeast" : {
                  "lat" : 52.2821291,
                  "lng" : 8.0613261
               },
               "southwest" : {
                  "lat" : 52.2633157,
                  "lng" : 8.038224099999999
               }
            }
         },
         "place_id" : "ChIJCz9gs5DluUcRm7Tunz6snww",
         "types" : [ "political", "sublocality", "sublocality_level_1" ]
      },
      {
         "address_components" : [
            {
               "long_name" : "49074",
               "short_name" : "49074",
               "types" : [ "postal_code" ]
            },
            {
               "long_name" : "Osnabrück",
               "short_name" : "Osnabrück",
               "types" : [ "locality", "political" ]
            },
            {
               "long_name" : "Lower Saxony",
               "short_name" : "NDS",
               "types" : [ "administrative_area_level_1", "political" ]
            },
            {
               "long_name" : "Germany",
               "short_name" : "DE",
               "types" : [ "country", "political" ]
            }
         ],
         "formatted_address" : "49074 Osnabrück, Germany",
         "geometry" : {
            "bounds" : {
               "northeast" : {
                  "lat" : 52.28790790000001,
                  "lng" : 8.069789
               },
               "southwest" : {
                  "lat" : 52.263285,
                  "lng" : 8.038224099999999
               }
            },
            "location" : {
               "lat" : 52.2758791,
               "lng" : 8.056059099999999
            },
            "location_type" : "APPROXIMATE",
            "viewport" : {
               "northeast" : {
                  "lat" : 52.28790790000001,
                  "lng" : 8.069789
               },
               "southwest" : {
                  "lat" : 52.263285,
                  "lng" : 8.038224099999999
               }
            }
         },
         "place_id" : "ChIJJVNlyZnluUcRUMI7qnrPJhw",
         "types" : [ "postal_code" ]
      },
      {
         "address_components" : [
            {
               "long_name" : "Osnabrück",
               "short_name" : "Osnabrück",
               "types" : [ "locality", "political" ]
            },
            {
               "long_name" : "Münster",
               "short_name" : "MS",
               "types" : [ "administrative_area_level_2", "political" ]
            },
            {
               "long_name" : "Lower Saxony",
               "short_name" : "NDS",
               "types" : [ "administrative_area_level_1", "political" ]
            },
            {
               "long_name" : "Germany",
               "short_name" : "DE",
               "types" : [ "country", "political" ]
            }
         ],
         "formatted_address" : "Osnabrück, Germany",
         "geometry" : {
            "bounds" : {
               "northeast" : {
                  "lat" : 52.33738469999999,
                  "lng" : 8.180900099999999
               },
               "southwest" : {
                  "lat" : 52.2185885,
                  "lng" : 7.929959
               }
            },
            "location" : {
               "lat" : 52.2799112,
               "lng" : 8.047178799999999
            },
            "location_type" : "APPROXIMATE",
            "viewport" : {
               "northeast" : {
                  "lat" : 52.33738469999999,
                  "lng" : 8.180900099999999
               },
               "southwest" : {
                  "lat" : 52.2185885,
                  "lng" : 7.929959
               }
            }
         },
         "place_id" : "ChIJTV17aZjluUcRYFwAY3fPJgQ",
         "types" : [ "locality", "political" ]
      },
      {
         "address_components" : [
            {
               "long_name" : "Lower Saxony",
               "short_name" : "Lower Saxony",
               "types" : [ "administrative_area_level_1", "political" ]
            },
            {
               "long_name" : "Germany",
               "short_name" : "DE",
               "types" : [ "country", "political" ]
            }
         ],
         "formatted_address" : "Lower Saxony, Germany",
         "geometry" : {
            "bounds" : {
               "northeast" : {
                  "lat" : 53.8922841,
                  "lng" : 11.5982056
               },
               "southwest" : {
                  "lat" : 51.29506740000001,
                  "lng" : 6.6538789
               }
            },
            "location" : {
               "lat" : 52.6367036,
               "lng" : 9.845076600000001
            },
            "location_type" : "APPROXIMATE",
            "viewport" : {
               "northeast" : {
                  "lat" : 53.8922841,
                  "lng" : 11.5982056
               },
               "southwest" : {
                  "lat" : 51.29506740000001,
                  "lng" : 6.6538789
               }
            }
         },
         "place_id" : "ChIJZTST8-ORsEcRAHkCY3fPJgE",
         "types" : [ "administrative_area_level_1", "political" ]
      },
      {
         "address_components" : [
            {
               "long_name" : "Germany",
               "short_name" : "DE",
               "types" : [ "country", "political" ]
            }
         ],
         "formatted_address" : "Germany",
         "geometry" : {
            "bounds" : {
               "northeast" : {
                  "lat" : 55.0815,
                  "lng" : 15.0418962
               },
               "southwest" : {
                  "lat" : 47.2701115,
                  "lng" : 5.8663425
               }
            },
            "location" : {
               "lat" : 51.165691,
               "lng" : 10.451526
            },
            "location_type" : "APPROXIMATE",
            "viewport" : {
               "northeast" : {
                  "lat" : 55.0815,
                  "lng" : 15.0418962
               },
               "southwest" : {
                  "lat" : 47.2701115,
                  "lng" : 5.8663425
               }
            }
         },
         "place_id" : "ChIJa76xwh5ymkcRW-WRjmtd6HU",
         "types" : [ "country", "political" ]
      }
   ],
   "status" : "OK"
}
