{
   "plus_code" : {
      "compound_code" : "3JH4+QF Adelaide SA, Australia",
      "global_code" : "4QQW3JH4+QF"
   },
   "results" : [
      {
         "address_components" : [
            {
               "long_name" : "Adelaide",
               "short_name" : "Adelaide",
               "types" : [ "locality", "political" ]
            },
            {
               "long_name" : "South Australia",
               "short_name" : "SA",
               "types" : [ "administrative_area_level_1", "political" ]
            },
            {
               "long_name" : "Australia",
               "short_name" : "AU",
               "types" : [ "country", "political" ]
            },
            {
               "long_name" : "5000",
               "short_name" : "5000",
               "types" : [ "postal_code" ]
            }
         ],
         "formatted_address" : "University of, Adelaide, Adelaide SA 5000, Australia",
         "geometry" : {
            "location" : {
               "lat" : -34.920603,
               "lng" : 138.6062277
            },
            "location_type" : "GEOMETRIC_CENTER",
            "viewport" : {
               "northeast" : {
                  "lat" : -34.9192540197085,
                  "lng" : 138.6075766802915
               },
               "southwest" : {
                  "lat" : -34.9219519802915,
                  "lng" : 138.6048787197085
               }
            }
         },
         "place_id" : "ChIJA69rKNPOsGoRKhA_SgxW_mw",
         "types" : [ "establishment", "point_of_interest" ]
      },
      {
         "address_components" : [
            {
               "long_name" : "The University of Adelaide",
               "short_name" : "The University of Adelaide",
               "types" : [ "premise" ]
            },
            {
               "long_name" : "178",
               "short_name" : "178",
               "types" : [ "street_number" ]
            },
            {
               "long_name" : "North Terrace",
               "short_name" : "North Terrace",
               "types" : [ "route" ]
            },
            {
               "long_name" : "Adelaide",
               "short_name" : "Adelaide",
               "types" : [ "locality", "political" ]
            },
            {
               "long_name" : "Adelaide City Council",
               "short_name" : "Adelaide",
               "types" : [ "administrative_area_level_2", "political" ]
            },
            {
               "long_name" : "South Australia",
               "short_name" : "SA",
               "types" : [ "administrative_area_level_1", "political" ]
            },
            {
               "long_name" : "Australia",
               "short_name" : "AU",
               "types" : [ "country", "political" ]
            },
            {
               "long_name" : "5005",
               "short_name" : "5005",
               "types" : [ "postal_code" ]
            }
         ],
         "formatted_address" : "The University of Adelaide, 178 North Terrace, Adelaide SA 5005, Australia",
         "geometry" : {
            "location" : {
               "lat" : -34.9204736,
               "lng" : 138.6062001
            },
            "location_type" : "ROOFTOP",
            "viewport" : {
               "northeast" : {
                  "lat" : -34.91912461970851,
                  "lng" : 138.6075490802915
               },
               "southwest" : {
                  "lat" : -34.9218225802915,
                  "lng" : 138.6048511197085
               }
            }
         },
         "place_id" : "ChIJAQCwKdPOsGoRqRTL-wupsMo",
         "types" : [ "street_address" ]
      },
      {
         "address_components" : [
            {
               "long_name" : "Unnamed Road",
               "short_name" : "Unnamed Road",
               "types" : [ "route" ]
            },
            {
               "long_name" : "Adelaide",
               "short_name" : "Adelaide",
               "types" : [ "locality", "political" ]
            },
            {
               "long_name" : "Adelaide City Council",
               "short_name" : "Adelaide",
               "types" : [ "administrative_area_level_2", "political" ]
            },
            {
               "long_name" : "South Australia",
               "short_name" : "SA",
               "types" : [ "administrative_area_level_1", "political" ]
            },
            {
               "long_name" : "Australia",
               "short_name" : "AU",
               "types" : [ "country", "political" ]
            },
            {
               "long_name" : "5000",
               "short_name" : "5000",
               "types" : [ "postal_code" ]
            }
         ],
         "formatted_address" : "Unnamed Road, Adelaide SA 5000, Australia",
         "geometry" : {
            "bounds" : {
               "northeast" : {
                  "lat" : -34.92002920000001,
                  "lng" : 138.6063264
               },
               "southwest" : {
                  "lat" : -34.9207935,
                  "lng" : 138.6062614
               }
            },
            "location" : {
               "lat" : -34.9204114,
               "lng" : 138.6062939
            },
            "location_type" : "GEOMETRIC_CENTER",
            "viewport" : {
               "northeast" : {
                  "lat" : -34.91906236970851,
                  "lng" : 138.6076428802915
               },
               "southwest" : {
                  "lat" : -34.92176033029151,
                  "lng" : 138.6049449197085
               }
            }
         },
         "place_id" : "ChIJ4YjdKdPOsGoRdHoxFJoVm88",
         "types" : [ "route" ]
      },
      {
         "address_components" : [
            {
               "long_name" : "5000",
               "short_name" : "5000",
               "types" : [ "postal_code" ]
            },
            {
               "long_name" : "Adelaide",
               "short_name" : "Adelaide",
               "types" : [ "locality", "political" ]
            },
            {
               "long_name" : "South Australia",
               "short_name" : "SA",
               "types" : [ "administrative_area_level_1", "political" ]
            },
            {
               "long_name" : "Australia",
               "short_name" : "AU",
               "types" : [ "country", "political" ]
            }
         ],
         "formatted_address" : "Adelaide SA 5000, Australia",
         "geometry" : {
            "bounds" : {
               "northeast" : {
                  "lat" : -34.9091178,
                  "lng" : 138.6244769
               },
               "southwest" : {
                  "lat" : -34.9421596,
                  "lng" : 138.5770602
               }
            },
            "location" : {
               "lat" : -34.9328294,
               "lng" : 138.6038129
            },
            "location_type" : "APPROXIMATE",
            "viewport" : {
               "northeast" : {
                  "lat" : -34.9091178,
                  "lng" : 138.6244769
               },
               "southwest" : {
                  "lat" : -34.9421596,
                  "lng" : 138.5770602
               }
            }
         },
         "place_id" : "ChIJBWeScDvJsGoR8ARRo1c2Axw",
         "types" : [ "postal_code" ]
      },
      {
         "address_components" : [
            {
               "long_name" : "Adelaide",
               "short_name" : "Adelaide",
               "types" : [ "locality", "political" ]
            },
            {
               "long_name" : "South Australia",
               "short_name" : "SA",
               "types" : [ "administrative_area_level_1", "political" ]
            },
            {
               "long_name" : "Australia",
               "short_name" : "AU",
               "types" : [ "country", "political" ]
            },
            {
               "long_name" : "5000",
               "short_name" : "5000",
               "types" : [ "postal_code" ]
            }
         ],
         "formatted_address" : "Adelaide SA 5000, Australia",
         "geometry" : {
            "bounds" : {
               "northeast" : {
                  "lat" : -34.9091178,
                  "lng" : 138.6244769
               },
               "southwest" : {
                  "lat" : -34.9421596,
                  "lng" : 138.5770602
               }
            },
            "location" : {
               "lat" : -34.9284989,
               "lng" : 138.6007456
            },
            "location_type" : "APPROXIMATE",
            "viewport" : {
               "northeast" : {
                  "lat" : -34.9091178,
                  "lng" : 138.6244769
               },
               "southwest" : {
                  "lat" : -34.9421596,
                  "lng" : 138.5770602
               }
            }
         },
         "place_id" : "ChIJ56QDo9fOsGoRUz4cTlhwjbM",
         "types" : [ "locality", "political" ]
      },
      {
         "address_components" : [
            {
               "long_name" : "Adelaide City Council",
               "short_name" : "Adelaide",
               "types" : [ "administrative_area_level_2", "political" ]
            },
            {
               "long_name" : "South Australia",
               "short_name" : "SA",
               "types" : [ "administrative_area_level_1", "political" ]
            },
            {
               "long_name" : "Australia",
               "short_name" : "AU",
               "types" : [ "country", "political" ]
            }
         ],
         "formatted_address" : "Adelaide, SA, Australia",
         "geometry" : {
            "bounds" : {
               "northeast" : {
                  "lat" : -34.8987775,
                  "lng" : 138.6242166
               },
               "southwest" : {
                  "lat" : -34.9419789,
                  "lng" : 138.5772193
               }
            },
            "location" : {
               "lat" : -34.92367160000001,
               "lng" : 138.6038129
            },
            "location_type" : "APPROXIMATE",
            "viewport" : {
               "northeast" : {
                  "lat" : -34.8987775,
                  "lng" : 138.6242166
               },
               "southwest" : {
                  "lat" : -34.9419789,
                  "lng" : 138.5772193
               }
            }
         },
         "place_id" : "ChIJy52tqNXOsGoRtg5Tl_YDi68",
         "types" : [ "administrative_area_level_2", "political" ]
      },
      {
         "address_components" : [
            {
               "long_name" : "Adelaide",
               "short_name" : "Adelaide",
               "types" : [ "colloquial_area", "locality", "political" ]
            },
            {
               "long_name" : "South Australia",
               "short_name" : "SA",
               "types" : [ "administrative_area_level_1", "political" ]
            },
            {
               "long_name" : "Australia",
               "short_name" : "AU",
               "types" : [ "country", "political" ]
            }
         ],
         "formatted_address" : "Adelaide SA, Australia",
         "geometry" : {
            "bounds" : {
               "northeast" : {
                  "lat" : -34.652564,
                  "lng" : 138.7801898
               },
               "southwest" : {
                  "lat" : -35.3489699,
                  "lng" : 138.4421299
               }
            },
            "location" : {
               "lat" : -34.9284989,
               "lng" : 138.6007456
            },
            "location_type" : "APPROXIMATE",
            "viewport" : {
               "northeast" : {
                  "lat" : -34.652564,
                  "lng" : 138.7801898
               },
               "southwest" : {
                  "lat" : -35.3489699,
                  "lng" : 138.4421299
               }
            }
         },
         "place_id" : "ChIJP7Mmxcc1t2oRQMaOYlQ2AwQ",
         "types" : [ "colloquial_area", "locality", "political" ]
      },
      {
         "address_components" : [
            {
               "long_name" : "South Australia",
               "short_name" : "South Australia",
               "types" : [ "administrative_area_level_1", "political" ]
            },
            {
               "long_name" : "Australia",
               "short_name" : "AU",
               "types" : [ "country", "political" ]
            }
         ],
         "formatted_address" : "South Australia, Australia",
         "geometry" : {
            "bounds" : {
               "northeast" : {
                  "lat" : -25.9963765,
                  "lng" : 141.0029556
               },
               "southwest" : {
                  "lat" : -38.1345913,
                  "lng" : 129.00134
               }
            },
            "location" : {
               "lat" : -30.0002315,
               "lng" : 136.2091547
            },
            "location_type" : "APPROXIMATE",
            "viewport" : {
               "northeast" : {
                  "lat" : -25.9963765,
                  "lng" : 141.0029556
               },
               "southwest" : {
                  "lat" : -38.1345913,
                  "lng" : 129.00134
               }
            }
         },
         "place_id" : "ChIJ88foW55Yp2oR2ND6PZl5fts",
         "types" : [ "administrative_area_level_1", "political" ]
      },
      {
         "address_components" : [
            {
               "long_name" : "Australia",
               "short_name" : "AU",
               "types" : [ "country", "political" ]
            }
         ],
         "formatted_address" : "Australia",
         "geometry" : {
            "bounds" : {
               "northeast" : {
                  "lat" : -9.187026399999999,
                  "lng" : 159.2872223
               },
               "southwest" : {
                  "lat" : -54.83376579999999,
                  "lng" : 110.9510339
               }
            },
            "location" : {
               "lat" : -25.274398,
               "lng" : 133.775136
            },
            "location_type" : "APPROXIMATE",
            "viewport" : {
               "northeast" : {
                  "lat" : -9.187026399999999,
                  "lng" : 159.2872223
               },
               "southwest" : {
                  "lat" : -54.83376579999999,
                  "lng" : 110.9510339
               }
            }
         },
         "place_id" : "ChIJ38WHZwf9KysRUhNblaFnglM",
         "types" : [ "country", "political" ]
      }
   ],
   "status" : "OK"
}
