{
   "plus_code" : {
      "compound_code" : "4PR7+M6 Blue Bell, PA, USA",
      "global_code" : "87G64PR7+M6"
   },
   "results" : [
      {
         "address_components" : [
            {
               "long_name" : "801",
               "short_name" : "801",
               "types" : [ "street_number" ]
            },
            {
               "long_name" : "Lakeview Drive",
               "short_name" : "Lakeview Dr",
               "types" : [ "route" ]
            },
            {
               "long_name" : "Blue Bell",
               "short_name" : "Blue Bell",
               "types" : [ "locality", "political" ]
            },
            {
               "long_name" : "Whitpain Township",
               "short_name" : "Whitpain Township",
               "types" : [ "administrative_area_level_3", "political" ]
            },
            {
               "long_name" : "Montgomery County",
               "short_name" : "Montgomery County",
               "types" : [ "administrative_area_level_2", "political" ]
            },
            {
               "long_name" : "Pennsylvania",
               "short_name" : "PA",
               "types" : [ "administrative_area_level_1", "political" ]
            },
            {
               "long_name" : "United States",
               "short_name" : "US",
               "types" : [ "country", "political" ]
            },
            {
               "long_name" : "19422",
               "short_name" : "19422",
               "types" : [ "postal_code" ]
            }
         ],
         "formatted_address" : "801 Lakeview Dr, Blue Bell, PA 19422, USA",
         "geometry" : {
            "location" : {
               "lat" : 40.1416877,
               "lng" : -75.2869704
            },
            "location_type" : "ROOFTOP",
            "viewport" : {
               "northeast" : {
                  "lat" : 40.14303668029149,
                  "lng" : -75.28562141970851
               },
               "southwest" : {
                  "lat" : 40.1403387197085,
                  "lng" : -75.28831938029151
               }
            }
         },
         "place_id" : "ChIJK70kqfu8xokRhO7CEN0XiXU",
         "plus_code" : {
            "compound_code" : "4PR7+M6 Blue Bell, Whitpain Township, PA, United States",
            "global_code" : "87G64PR7+M6"
         },
         "types" : [ "establishment", "point_of_interest" ]
      },
      {
         "address_components" : [
            {
               "long_name" : "760",
               "short_name" : "760",
               "types" : [ "street_number" ]
            },
            {
               "long_name" : "Jolly Road",
               "short_name" : "Jolly Rd",
               "types" : [ "route" ]
            },
            {
               "long_name" : "Blue Bell",
               "short_name" : "Blue Bell",
               "types" : [ "locality", "political" ]
            },
            {
               "long_name" : "Whitpain Township",
               "short_name" : "Whitpain Township",
               "types" : [ "administrative_area_level_3", "political" ]
            },
            {
               "long_name" : "Montgomery County",
               "short_name" : "Montgomery County",
               "types" : [ "administrative_area_level_2", "political" ]
            },
            {
               "long_name" : "Pennsylvania",
               "short_name" : "PA",
               "types" : [ "administrative_area_level_1", "political" ]
            },
            {
               "long_name" : "United States",
               "short_name" : "US",
               "types" : [ "country", "political" ]
            },
            {
               "long_name" : "19422",
               "short_name" : "19422",
               "types" : [ "postal_code" ]
            }
         ],
         "formatted_address" : "760 Jolly Rd, Blue Bell, PA 19422, USA",
         "geometry" : {
            "location" : {
               "lat" : 40.1418243,
               "lng" : -75.2868969
            },
            "location_type" : "ROOFTOP",
            "viewport" : {
               "northeast" : {
                  "lat" : 40.14317328029149,
                  "lng" : -75.28554791970851
               },
               "southwest" : {
                  "lat" : 40.14047531970849,
                  "lng" : -75.28824588029151
               }
            }
         },
         "place_id" : "ChIJUcdbuvu8xokRtI9jLuZFHis",
         "plus_code" : {
            "compound_code" : "4PR7+P6 Blue Bell, Whitpain Township, PA, United States",
            "global_code" : "87G64PR7+P6"
         },
         "types" : [ "street_address" ]
      },
      {
         "address_components" : [
            {
               "long_name" : "390",
               "short_name" : "390",
               "types" : [ "street_number" ]
            },
            {
               "long_name" : "Arbor Way",
               "short_name" : "Arbor Way",
               "types" : [ "route" ]
            },
            {
               "long_name" : "Blue Bell",
               "short_name" : "Blue Bell",
               "types" : [ "locality", "political" ]
            },
            {
               "long_name" : "Pennsylvania",
               "short_name" : "PA",
               "types" : [ "administrative_area_level_1", "political" ]
            },
            {
               "long_name" : "United States",
               "short_name" : "US",
               "types" : [ "country", "political" ]
            },
            {
               "long_name" : "19422",
               "short_name" : "19422",
               "types" : [ "postal_code" ]
            }
         ],
         "formatted_address" : "390 Arbor Way, Blue Bell, PA 19422, USA",
         "geometry" : {
            "location" : {
               "lat" : 40.1412009,
               "lng" : -75.28626480000001
            },
            "location_type" : "RANGE_INTERPOLATED",
            "viewport" : {
               "northeast" : {
                  "lat" : 40.1425498802915,
                  "lng" : -75.28491581970852
               },
               "southwest" : {
                  "lat" : 40.13985191970851,
                  "lng" : -75.28761378029152
               }
            }
         },
         "place_id" : "EiczOTAgQXJib3IgV2F5LCBCbHVlIEJlbGwsIFBBIDE5NDIyLCBVU0EiGxIZChQKEgmZbyTS-7zGiRGSu3W67oFMCRCGAw",
         "types" : [ "street_address" ]
      },
      {
         "address_components" : [
            {
               "long_name" : "Blue Bell",
               "short_name" : "Blue Bell",
               "types" : [ "locality", "political" ]
            },
            {
               "long_name" : "Whitpain Township",
               "short_name" : "Whitpain Township",
               "types" : [ "administrative_area_level_3", "political" ]
            },
            {
               "long_name" : "Montgomery County",
               "short_name" : "Montgomery County",
               "types" : [ "administrative_area_level_2", "political" ]
            },
            {
               "long_name" : "Pennsylvania",
               "short_name" : "PA",
               "types" : [ "administrative_area_level_1", "political" ]
            },
            {
               "long_name" : "United States",
               "short_name" : "US",
               "types" : [ "country", "political" ]
            }
         ],
         "formatted_address" : "Blue Bell, PA, USA",
         "geometry" : {
            "bounds" : {
               "northeast" : {
                  "lat" : 40.1738081,
                  "lng" : -75.2400209
               },
               "southwest" : {
                  "lat" : 40.1218091,
                  "lng" : -75.29333889999999
               }
            },
            "location" : {
               "lat" : 40.1523309,
               "lng" : -75.26628900000001
            },
            "location_type" : "APPROXIMATE",
            "viewport" : {
               "northeast" : {
                  "lat" : 40.1738081,
                  "lng" : -75.2400209
               },
               "southwest" : {
                  "lat" : 40.1218091,
                  "lng" : -75.29333889999999
               }
            }
         },
         "place_id" : "ChIJbcCJUpK8xokRdKPvoqTzf6Y",
         "types" : [ "locality", "political" ]
      },
      {
         "address_components" : [
            {
               "long_name" : "19422",
               "short_name" : "19422",
               "types" : [ "postal_code" ]
            },
            {
               "long_name" : "Penllyn",
               "short_name" : "Penllyn",
               "types" : [ "locality", "political" ]
            },
            {
               "long_name" : "Montgomery County",
               "short_name" : "Montgomery County",
               "types" : [ "administrative_area_level_2", "political" ]
            },
            {
               "long_name" : "Pennsylvania",
               "short_name" : "PA",
               "types" : [ "administrative_area_level_1", "political" ]
            },
            {
               "long_name" : "United States",
               "short_name" : "US",
               "types" : [ "country", "political" ]
            }
         ],
         "formatted_address" : "Penllyn, PA 19422, USA",
         "geometry" : {
            "bounds" : {
               "northeast" : {
                  "lat" : 40.1935918,
                  "lng" : -75.230642
               },
               "southwest" : {
                  "lat" : 40.1222008,
                  "lng" : -75.3269341
               }
            },
            "location" : {
               "lat" : 40.1653934,
               "lng" : -75.28290459999999
            },
            "location_type" : "APPROXIMATE",
            "viewport" : {
               "northeast" : {
                  "lat" : 40.1935918,
                  "lng" : -75.230642
               },
               "southwest" : {
                  "lat" : 40.1222008,
                  "lng" : -75.3269341
               }
            }
         },
         "place_id" : "ChIJrxqbcsG8xokR1O7wnQzjLn4",
         "postcode_localities" : [ "Blue Bell", "Center Square", "Penllyn" ],
         "types" : [ "postal_code" ]
      },
      {
         "address_components" : [
            {
               "long_name" : "Whitpain Township",
               "short_name" : "Whitpain Township",
               "types" : [ "administrative_area_level_3", "political" ]
            },
            {
               "long_name" : "Montgomery County",
               "short_name" : "Montgomery County",
               "types" : [ "administrative_area_level_2", "political" ]
            },
            {
               "long_name" : "Pennsylvania",
               "short_name" : "PA",
               "types" : [ "administrative_area_level_1", "political" ]
            },
            {
               "long_name" : "United States",
               "short_name" : "US",
               "types" : [ "country", "political" ]
            }
         ],
         "formatted_address" : "Whitpain Township, PA, USA",
         "geometry" : {
            "bounds" : {
               "northeast" : {
                  "lat" : 40.1933409,
                  "lng" : -75.22712009999999
               },
               "southwest" : {
                  "lat" : 40.1218091,
                  "lng" : -75.3266239
               }
            },
            "location" : {
               "lat" : 40.1653934,
               "lng" : -75.28290459999999
            },
            "location_type" : "APPROXIMATE",
            "viewport" : {
               "northeast" : {
                  "lat" : 40.1933409,
                  "lng" : -75.22712009999999
               },
               "southwest" : {
                  "lat" : 40.1218091,
                  "lng" : -75.3266239
               }
            }
         },
         "place_id" : "ChIJB-n1EcG8xokR9uUC-AZ437c",
         "types" : [ "administrative_area_level_3", "political" ]
      },
      {
         "address_components" : [
            {
               "long_name" : "Montgomery County",
               "short_name" : "Montgomery County",
               "types" : [ "administrative_area_level_2", "political" ]
            },
            {
               "long_name" : "Pennsylvania",
               "short_name" : "PA",
               "types" : [ "administrative_area_level_1", "political" ]
            },
            {
               "long_name" : "United States",
               "short_name" : "US",
               "types" : [ "country", "political" ]
            }
         ],
         "formatted_address" : "Montgomery County, PA, USA",
         "geometry" : {
            "bounds" : {
               "northeast" : {
                  "lat" : 40.44708199999999,
                  "lng" : -75.0150659
               },
               "southwest" : {
                  "lat" : 39.9769549,
                  "lng" : -75.69678189999999
               }
            },
            "location" : {
               "lat" : 40.2290075,
               "lng" : -75.38785249999999
            },
            "location_type" : "APPROXIMATE",
            "viewport" : {
               "northeast" : {
                  "lat" : 40.44708199999999,
                  "lng" : -75.0150659
               },
               "southwest" : {
                  "lat" : 39.9769549,
                  "lng" : -75.69678189999999
               }
            }
         },
         "place_id" : "ChIJ6yayVjmcxokRvV1Q-SKqC0s",
         "types" : [ "administrative_area_level_2", "political" ]
      },
      {
         "address_components" : [
            {
               "long_name" : "Pennsylvania",
               "short_name" : "Pennsylvania",
               "types" : [ "administrative_area_level_1", "political" ]
            },
            {
               "long_name" : "United States",
               "short_name" : "US",
               "types" : [ "country", "political" ]
            }
         ],
         "formatted_address" : "Pennsylvania, USA",
         "geometry" : {
            "bounds" : {
               "northeast" : {
                  "lat" : 42.516072,
                  "lng" : -74.6895018
               },
               "southwest" : {
                  "lat" : 39.7197989,
                  "lng" : -80.51989499999999
               }
            },
            "location" : {
               "lat" : 41.2033216,
               "lng" : -77.1945247
            },
            "location_type" : "APPROXIMATE",
            "viewport" : {
               "northeast" : {
                  "lat" : 42.516072,
                  "lng" : -74.6895018
               },
               "southwest" : {
                  "lat" : 39.7197989,
                  "lng" : -80.51989499999999
               }
            }
         },
         "place_id" : "ChIJieUyHiaALYgRPbQiUEchRsI",
         "types" : [ "administrative_area_level_1", "political" ]
      },
      {
         "address_components" : [
            {
               "long_name" : "United States",
               "short_name" : "US",
               "types" : [ "country", "political" ]
            }
         ],
         "formatted_address" : "United States",
         "geometry" : {
            "bounds" : {
               "northeast" : {
                  "lat" : 71.5388001,
                  "lng" : -66.885417
               },
               "southwest" : {
                  "lat" : 18.7763,
                  "lng" : 170.5957
               }
            },
            "location" : {
               "lat" : 37.09024,
               "lng" : -95.712891
            },
            "location_type" : "APPROXIMATE",
            "viewport" : {
               "northeast" : {
                  "lat" : 71.5388001,
                  "lng" : -66.885417
               },
               "southwest" : {
                  "lat" : 18.7763,
                  "lng" : 170.5957
               }
            }
         },
         "place_id" : "ChIJCzYy5IS16lQRQrfeQ5K5Oxw",
         "types" : [ "country", "political" ]
      }
   ],
   "status" : "OK"
}
