{
   "results" : [
      {
         "address_components" : [
            {
               "long_name" : "3",
               "short_name" : "3",
               "types" : [ "street_number" ]
            },
            {
               "long_name" : "Rue Michel Ange",
               "short_name" : "Rue Michel Ange",
               "types" : [ "route" ]
            },
            {
               "long_name" : "Paris",
               "short_name" : "Paris",
               "types" : [ "locality", "political" ]
            },
            {
               "long_name" : "Paris",
               "short_name" : "Paris",
               "types" : [ "administrative_area_level_2", "political" ]
            },
            {
               "long_name" : "Île-de-France",
               "short_name" : "Île-de-France",
               "types" : [ "administrative_area_level_1", "political" ]
            },
            {
               "long_name" : "France",
               "short_name" : "FR",
               "types" : [ "country", "political" ]
            },
            {
               "long_name" : "75016",
               "short_name" : "75016",
               "types" : [ "postal_code" ]
            }
         ],
         "formatted_address" : "3 Rue Michel Ange, 75016 Paris, France",
         "geometry" : {
            "location" : {
               "lat" : 48.8476037,
               "lng" : 2.2639934
            },
            "location_type" : "ROOFTOP",
            "viewport" : {
               "northeast" : {
                  "lat" : 48.8489526802915,
                  "lng" : 2.265342380291502
               },
               "southwest" : {
                  "lat" : 48.8462547197085,
                  "lng" : 2.262644419708498
               }
            }
         },
         "place_id" : "ChIJDUDooLp65kcRuAWmIf7AI6w",
         "types" : [ "street_address" ]
      },
      {
         "address_components" : [
            {
               "long_name" : "Auteuil",
               "short_name" : "Auteuil",
               "types" : [ "neighborhood", "political" ]
            },
            {
               "long_name" : "16th arrondissement",
               "short_name" : "16th arrondissement",
               "types" : [ "political", "sublocality", "sublocality_level_1" ]
            },
            {
               "long_name" : "Paris",
               "short_name" : "Paris",
               "types" : [ "locality", "political" ]
            },
            {
               "long_name" : "Paris",
               "short_name" : "Paris",
               "types" : [ "administrative_area_level_2", "political" ]
            },
            {
               "long_name" : "Île-de-France",
               "short_name" : "Île-de-France",
               "types" : [ "administrative_area_level_1", "political" ]
            },
            {
               "long_name" : "France",
               "short_name" : "FR",
               "types" : [ "country", "political" ]
            }
         ],
         "formatted_address" : "Auteuil, Paris, France",
         "geometry" : {
            "bounds" : {
               "northeast" : {
                  "lat" : 48.8662909,
                  "lng" : 2.281856
               },
               "southwest" : {
                  "lat" : 48.835344,
                  "lng" : 2.2262959
               }
            },
            "location" : {
               "lat" : 48.8554427,
               "lng" : 2.2573626
            },
            "location_type" : "APPROXIMATE",
            "viewport" : {
               "northeast" : {
                  "lat" : 48.8662909,
                  "lng" : 2.281856
               },
               "southwest" : {
                  "lat" : 48.835344,
                  "lng" : 2.2262959
               }
            }
         },
         "place_id" : "ChIJs9qItbd65kcRL265mdg5UAA",
         "types" : [ "neighborhood", "political" ]
      },
      {
         "address_components" : [
            {
               "long_name" : "16th arrondissement",
               "short_name" : "16th arrondissement",
               "types" : [ "political", "sublocality", "sublocality_level_1" ]
            },
            {
               "long_name" : "Paris",
               "short_name" : "Paris",
               "types" : [ "locality", "political" ]
            },
            {
               "long_name" : "Paris",
               "short_name" : "Paris",
               "types" : [ "administrative_area_level_2", "political" ]
            },
            {
               "long_name" : "Île-de-France",
               "short_name" : "Île-de-France",
               "types" : [ "administrative_area_level_1", "political" ]
            },
            {
               "long_name" : "France",
               "short_name" : "FR",
               "types" : [ "country", "political" ]
            }
         ],
         "formatted_address" : "16th arrondissement, Paris, France",
         "geometry" : {
            "bounds" : {
               "northeast" : {
                  "lat" : 48.8803319,
                  "lng" : 2.301587
               },
               "southwest" : {
                  "lat" : 48.8338419,
                  "lng" : 2.2241989
               }
            },
            "location" : {
               "lat" : 48.8585799,
               "lng" : 2.2847017
            },
            "location_type" : "APPROXIMATE",
            "viewport" : {
               "northeast" : {
                  "lat" : 48.8803319,
                  "lng" : 2.301587
               },
               "southwest" : {
                  "lat" : 48.8338419,
                  "lng" : 2.2241989
               }
            }
         },
         "place_id" : "ChIJ6VVDJrN65kcRQBuUaMOCCwU",
         "types" : [ "political", "sublocality", "sublocality_level_1" ]
      },
      {
         "address_components" : [
            {
               "long_name" : "Paris",
               "short_name" : "Paris",
               "types" : [ "locality", "political" ]
            },
            {
               "long_name" : "Paris",
               "short_name" : "Paris",
               "types" : [ "administrative_area_level_2", "political" ]
            },
            {
               "long_name" : "Île-de-France",
               "short_name" : "Île-de-France",
               "types" : [ "administrative_area_level_1", "political" ]
            },
            {
               "long_name" : "France",
               "short_name" : "FR",
               "types" : [ "country", "political" ]
            }
         ],
         "formatted_address" : "Paris, France",
         "geometry" : {
            "bounds" : {
               "northeast" : {
                  "lat" : 48.9021449,
                  "lng" : 2.4699208
               },
               "southwest" : {
                  "lat" : 48.815573,
                  "lng" : 2.224199
               }
            },
            "location" : {
               "lat" : 48.856614,
               "lng" : 2.3522219
            },
            "location_type" : "APPROXIMATE",
            "viewport" : {
               "northeast" : {
                  "lat" : 48.9021449,
                  "lng" : 2.4699208
               },
               "southwest" : {
                  "lat" : 48.815573,
                  "lng" : 2.224199
               }
            }
         },
         "place_id" : "ChIJD7fiBh9u5kcRYJSMaMOCCwQ",
         "types" : [ "locality", "political" ]
      },
      {
         "address_components" : [
            {
               "long_name" : "75016",
               "short_name" : "75016",
               "types" : [ "postal_code" ]
            },
            {
               "long_name" : "Paris",
               "short_name" : "Paris",
               "types" : [ "locality", "political" ]
            },
            {
               "long_name" : "Paris",
               "short_name" : "Paris",
               "types" : [ "administrative_area_level_2", "political" ]
            },
            {
               "long_name" : "Île-de-France",
               "short_name" : "Île-de-France",
               "types" : [ "administrative_area_level_1", "political" ]
            },
            {
               "long_name" : "France",
               "short_name" : "FR",
               "types" : [ "country", "political" ]
            }
         ],
         "formatted_address" : "75016 Paris, France",
         "geometry" : {
            "bounds" : {
               "northeast" : {
                  "lat" : 48.9023866,
                  "lng" : 2.373043
               },
               "southwest" : {
                  "lat" : 48.8338739,
                  "lng" : 2.2241006
               }
            },
            "location" : {
               "lat" : 48.8530933,
               "lng" : 2.2487626
            },
            "location_type" : "APPROXIMATE",
            "viewport" : {
               "northeast" : {
                  "lat" : 48.9023866,
                  "lng" : 2.373043
               },
               "southwest" : {
                  "lat" : 48.8338739,
                  "lng" : 2.2241006
               }
            }
         },
         "place_id" : "ChIJ2ew0UbR65kcR8FHY4caCCxw",
         "types" : [ "postal_code" ]
      },
      {
         "address_components" : [
            {
               "long_name" : "Paris",
               "short_name" : "Paris",
               "types" : [ "administrative_area_level_2", "political" ]
            },
            {
               "long_name" : "Paris",
               "short_name" : "Paris",
               "types" : [ "locality", "political" ]
            },
            {
               "long_name" : "Île-de-France",
               "short_name" : "Île-de-France",
               "types" : [ "administrative_area_level_1", "political" ]
            },
            {
               "long_name" : "France",
               "short_name" : "FR",
               "types" : [ "country", "political" ]
            }
         ],
         "formatted_address" : "Paris, France",
         "geometry" : {
            "bounds" : {
               "northeast" : {
                  "lat" : 48.9021449,
                  "lng" : 2.4699208
               },
               "southwest" : {
                  "lat" : 48.815573,
                  "lng" : 2.224199
               }
            },
            "location" : {
               "lat" : 48.8565823,
               "lng" : 2.3522148
            },
            "location_type" : "APPROXIMATE",
            "viewport" : {
               "northeast" : {
                  "lat" : 48.9021449,
                  "lng" : 2.4699208
               },
               "southwest" : {
                  "lat" : 48.815573,
                  "lng" : 2.224199
               }
            }
         },
         "place_id" : "ChIJD7fiBh9u5kcRMCqLaMOCCwM",
         "types" : [ "administrative_area_level_2", "political" ]
      },
      {
         "address_components" : [
            {
               "long_name" : "Île-de-France",
               "short_name" : "Île-de-France",
               "types" : [ "administrative_area_level_1", "political" ]
            },
            {
               "long_name" : "France",
               "short_name" : "FR",
               "types" : [ "country", "political" ]
            }
         ],
         "formatted_address" : "Île-de-France, France",
         "geometry" : {
            "bounds" : {
               "northeast" : {
                  "lat" : 49.241504,
                  "lng" : 3.5590069
               },
               "southwest" : {
                  "lat" : 48.1200811,
                  "lng" : 1.44617
               }
            },
            "location" : {
               "lat" : 48.8499198,
               "lng" : 2.6370411
            },
            "location_type" : "APPROXIMATE",
            "viewport" : {
               "northeast" : {
                  "lat" : 49.241504,
                  "lng" : 3.5590069
               },
               "southwest" : {
                  "lat" : 48.1200811,
                  "lng" : 1.44617
               }
            }
         },
         "place_id" : "ChIJF4ymA8Th5UcRcCWLaMOCCwE",
         "types" : [ "administrative_area_level_1", "political" ]
      },
      {
         "address_components" : [
            {
               "long_name" : "Paris Metropolitan Area",
               "short_name" : "Paris Metropolitan Area",
               "types" : [ "political" ]
            },
            {
               "long_name" : "France",
               "short_name" : "FR",
               "types" : [ "country", "political" ]
            }
         ],
         "formatted_address" : "Paris Metropolitan Area, France",
         "geometry" : {
            "bounds" : {
               "northeast" : {
                  "lat" : 49.44956,
                  "lng" : 3.5590339
               },
               "southwest" : {
                  "lat" : 48.065382,
                  "lng" : 1.3557489
               }
            },
            "location" : {
               "lat" : 48.8575712,
               "lng" : 2.2771715
            },
            "location_type" : "APPROXIMATE",
            "viewport" : {
               "northeast" : {
                  "lat" : 49.44956,
                  "lng" : 3.5590339
               },
               "southwest" : {
                  "lat" : 48.065382,
                  "lng" : 1.3557489
               }
            }
         },
         "place_id" : "ChIJW36m20gL5kcRiMnAEpHgyq8",
         "types" : [ "political" ]
      },
      {
         "address_components" : [
            {
               "long_name" : "France",
               "short_name" : "FR",
               "types" : [ "country", "political" ]
            }
         ],
         "formatted_address" : "France",
         "geometry" : {
            "bounds" : {
               "northeast" : {
                  "lat" : 51.1241999,
                  "lng" : 9.6624999
               },
               "southwest" : {
                  "lat" : 41.31433,
                  "lng" : -5.5591
               }
            },
            "location" : {
               "lat" : 46.227638,
               "lng" : 2.213749
            },
            "location_type" : "APPROXIMATE",
            "viewport" : {
               "northeast" : {
                  "lat" : 51.1241999,
                  "lng" : 9.6624999
               },
               "southwest" : {
                  "lat" : 41.31433,
                  "lng" : -5.5591
               }
            }
         },
         "place_id" : "ChIJMVd4MymgVA0R99lHx5Y__Ws",
         "types" : [ "country", "political" ]
      }
   ],
   "status" : "OK"
}
