{
   "results" : [
      {
         "address_components" : [
            {
               "long_name" : "133",
               "short_name" : "133",
               "types" : [ "premise" ]
            },
            {
               "long_name" : "Ojeong-dong",
               "short_name" : "Ojeong-dong",
               "types" : [ "political", "sublocality", "sublocality_level_2" ]
            },
            {
               "long_name" : "Daedeok-gu",
               "short_name" : "Daedeok-gu",
               "types" : [ "political", "sublocality", "sublocality_level_1" ]
            },
            {
               "long_name" : "Daejeon",
               "short_name" : "Daejeon",
               "types" : [ "locality", "political" ]
            },
            {
               "long_name" : "Daejeon",
               "short_name" : "Daejeon",
               "types" : [ "administrative_area_level_1", "political" ]
            },
            {
               "long_name" : "South Korea",
               "short_name" : "KR",
               "types" : [ "country", "political" ]
            },
            {
               "long_name" : "306-010",
               "short_name" : "306-010",
               "types" : [ "postal_code" ]
            }
         ],
         "formatted_address" : "133 Ojeong-dong, Daedeok-gu, Daejeon, South Korea",
         "geometry" : {
            "location" : {
               "lat" : 36.3544294,
               "lng" : 127.4227297
            },
            "location_type" : "ROOFTOP",
            "viewport" : {
               "northeast" : {
                  "lat" : 36.3557783802915,
                  "lng" : 127.4240786802915
               },
               "southwest" : {
                  "lat" : 36.3530804197085,
                  "lng" : 127.4213807197085
               }
            }
         },
         "place_id" : "ChIJbe7vhwBJZTUR0oaWDzIozno",
         "types" : [ "street_address" ]
      },
      {
         "address_components" : [
            {
               "long_name" : "한남대학교 본관",
               "short_name" : "한남대학교 본관",
               "types" : [ "establishment", "point_of_interest", "premise" ]
            },
            {
               "long_name" : "Ojeong-dong",
               "short_name" : "Ojeong-dong",
               "types" : [ "political", "sublocality", "sublocality_level_2" ]
            },
            {
               "long_name" : "Daejeon",
               "short_name" : "Daejeon",
               "types" : [ "locality", "political" ]
            },
            {
               "long_name" : "Daejeon",
               "short_name" : "Daejeon",
               "types" : [ "administrative_area_level_1", "political" ]
            },
            {
               "long_name" : "South Korea",
               "short_name" : "KR",
               "types" : [ "country", "political" ]
            },
            {
               "long_name" : "306-010",
               "short_name" : "306-010",
               "types" : [ "postal_code" ]
            }
         ],
         "formatted_address" : "South Korea, Daejeon, Ojeong-dong, 한남대학교 본관",
         "geometry" : {
            "location" : {
               "lat" : 36.3554675,
               "lng" : 127.4208214
            },
            "location_type" : "ROOFTOP",
            "viewport" : {
               "northeast" : {
                  "lat" : 36.35681648029149,
                  "lng" : 127.4221703802915
               },
               "southwest" : {
                  "lat" : 36.35411851970849,
                  "lng" : 127.4194724197085
               }
            }
         },
         "place_id" : "ChIJL5E8pgBJZTURt4GMKEbR46M",
         "types" : [ "establishment", "point_of_interest", "premise" ]
      },
      {
         "address_components" : [
            {
               "long_name" : "Ojeong-dong",
               "short_name" : "Ojeong-dong",
               "types" : [ "political", "sublocality", "sublocality_level_2" ]
            },
            {
               "long_name" : "Daedeok-gu",
               "short_name" : "Daedeok-gu",
               "types" : [ "political", "sublocality", "sublocality_level_1" ]
            },
            {
               "long_name" : "Daejeon",
               "short_name" : "Daejeon",
               "types" : [ "locality", "political" ]
            },
            {
               "long_name" : "Daejeon",
               "short_name" : "Daejeon",
               "types" : [ "administrative_area_level_1", "political" ]
            },
            {
               "long_name" : "South Korea",
               "short_name" : "KR",
               "types" : [ "country", "political" ]
            },
            {
               "long_name" : "306-010",
               "short_name" : "306-010",
               "types" : [ "postal_code" ]
            }
         ],
         "formatted_address" : "Ojeong-dong, Daedeok-gu, Daejeon, South Korea",
         "geometry" : {
            "bounds" : {
               "northeast" : {
                  "lat" : 36.3633951,
                  "lng" : 127.4285021
               },
               "southwest" : {
                  "lat" : 36.3415977,
                  "lng" : 127.4010788
               }
            },
            "location" : {
               "lat" : 36.353773,
               "lng" : 127.40985
            },
            "location_type" : "APPROXIMATE",
            "viewport" : {
               "northeast" : {
                  "lat" : 36.3633951,
                  "lng" : 127.4285021
               },
               "southwest" : {
                  "lat" : 36.3415977,
                  "lng" : 127.4010788
               }
            }
         },
         "place_id" : "ChIJX62PWA9JZTURfZW_c4NjKVA",
         "types" : [ "political", "sublocality", "sublocality_level_2" ]
      },
      {
         "address_components" : [
            {
               "long_name" : "Ojeong-dong",
               "short_name" : "Ojeong-dong",
               "types" : [ "political", "sublocality", "sublocality_level_2" ]
            },
            {
               "long_name" : "Daedeok-gu",
               "short_name" : "Daedeok-gu",
               "types" : [ "political", "sublocality", "sublocality_level_1" ]
            },
            {
               "long_name" : "Daejeon",
               "short_name" : "Daejeon",
               "types" : [ "locality", "political" ]
            },
            {
               "long_name" : "Daejeon",
               "short_name" : "Daejeon",
               "types" : [ "administrative_area_level_1", "political" ]
            },
            {
               "long_name" : "South Korea",
               "short_name" : "KR",
               "types" : [ "country", "political" ]
            },
            {
               "long_name" : "306-010",
               "short_name" : "306-010",
               "types" : [ "postal_code" ]
            }
         ],
         "formatted_address" : "Ojeong-dong, Daedeok-gu, Daejeon, South Korea",
         "geometry" : {
            "bounds" : {
               "northeast" : {
                  "lat" : 36.3633951,
                  "lng" : 127.4285021
               },
               "southwest" : {
                  "lat" : 36.3415977,
                  "lng" : 127.4010788
               }
            },
            "location" : {
               "lat" : 36.3531066,
               "lng" : 127.4131202
            },
            "location_type" : "APPROXIMATE",
            "viewport" : {
               "northeast" : {
                  "lat" : 36.3633951,
                  "lng" : 127.4285021
               },
               "southwest" : {
                  "lat" : 36.3415977,
                  "lng" : 127.4010788
               }
            }
         },
         "place_id" : "ChIJX62PWA9JZTUR3kXUVkGO6X4",
         "types" : [ "political", "sublocality", "sublocality_level_2" ]
      },
      {
         "address_components" : [
            {
               "long_name" : "Daedeok-gu",
               "short_name" : "Daedeok-gu",
               "types" : [ "political", "sublocality", "sublocality_level_1" ]
            },
            {
               "long_name" : "Daejeon",
               "short_name" : "Daejeon",
               "types" : [ "locality", "political" ]
            },
            {
               "long_name" : "Daejeon",
               "short_name" : "Daejeon",
               "types" : [ "administrative_area_level_1", "political" ]
            },
            {
               "long_name" : "South Korea",
               "short_name" : "KR",
               "types" : [ "country", "political" ]
            }
         ],
         "formatted_address" : "Daedeok-gu, Daejeon, South Korea",
         "geometry" : {
            "bounds" : {
               "northeast" : {
                  "lat" : 36.4772432,
                  "lng" : 127.5048726
               },
               "southwest" : {
                  "lat" : 36.3415977,
                  "lng" : 127.3890559
               }
            },
            "location" : {
               "lat" : 36.3467189,
               "lng" : 127.4155717
            },
            "location_type" : "APPROXIMATE",
            "viewport" : {
               "northeast" : {
                  "lat" : 36.4772432,
                  "lng" : 127.5048726
               },
               "southwest" : {
                  "lat" : 36.3415977,
                  "lng" : 127.3890559
               }
            }
         },
         "place_id" : "ChIJt_Mvnb03ZTURK2uPazBXm8s",
         "types" : [ "political", "sublocality", "sublocality_level_1" ]
      },
      {
         "address_components" : [
            {
               "long_name" : "Daejeon",
               "short_name" : "Daejeon",
               "types" : [ "locality", "political" ]
            },
            {
               "long_name" : "Daejeon",
               "short_name" : "Daejeon",
               "types" : [ "administrative_area_level_1", "political" ]
            },
            {
               "long_name" : "South Korea",
               "short_name" : "KR",
               "types" : [ "country", "political" ]
            }
         ],
         "formatted_address" : "Daejeon, South Korea",
         "geometry" : {
            "bounds" : {
               "northeast" : {
                  "lat" : 36.4999476,
                  "lng" : 127.5590436
               },
               "southwest" : {
                  "lat" : 36.1833708,
                  "lng" : 127.2464501
               }
            },
            "location" : {
               "lat" : 36.3504119,
               "lng" : 127.3845475
            },
            "location_type" : "APPROXIMATE",
            "viewport" : {
               "northeast" : {
                  "lat" : 36.4563,
                  "lng" : 127.4643
               },
               "southwest" : {
                  "lat" : 36.2899,
                  "lng" : 127.3133
               }
            }
         },
         "place_id" : "ChIJAWZKutdIZTURtdOKmJ3WltE",
         "types" : [ "locality", "political" ]
      },
      {
         "address_components" : [
            {
               "long_name" : "306-010",
               "short_name" : "306-010",
               "types" : [ "postal_code" ]
            },
            {
               "long_name" : "Ojeong-dong",
               "short_name" : "Ojeong-dong",
               "types" : [ "political", "sublocality", "sublocality_level_2" ]
            },
            {
               "long_name" : "Daedeok-gu",
               "short_name" : "Daedeok-gu",
               "types" : [ "political", "sublocality", "sublocality_level_1" ]
            },
            {
               "long_name" : "Daejeon",
               "short_name" : "Daejeon",
               "types" : [ "locality", "political" ]
            },
            {
               "long_name" : "Daejeon",
               "short_name" : "Daejeon",
               "types" : [ "administrative_area_level_1", "political" ]
            },
            {
               "long_name" : "South Korea",
               "short_name" : "KR",
               "types" : [ "country", "political" ]
            }
         ],
         "formatted_address" : "Ojeong-dong, Daedeok-gu, Daejeon, South Korea",
         "geometry" : {
            "bounds" : {
               "northeast" : {
                  "lat" : 36.3633951,
                  "lng" : 127.4285021
               },
               "southwest" : {
                  "lat" : 36.3415977,
                  "lng" : 127.4010788
               }
            },
            "location" : {
               "lat" : 36.3518521,
               "lng" : 127.4120969
            },
            "location_type" : "APPROXIMATE",
            "viewport" : {
               "northeast" : {
                  "lat" : 36.3633951,
                  "lng" : 127.4285021
               },
               "southwest" : {
                  "lat" : 36.3415977,
                  "lng" : 127.4010788
               }
            }
         },
         "place_id" : "ChIJuyedVw9JZTURHByORNjWEuk",
         "types" : [ "postal_code" ]
      },
      {
         "address_components" : [
            {
               "long_name" : "Daejeon",
               "short_name" : "Daejeon",
               "types" : [ "administrative_area_level_1", "political" ]
            },
            {
               "long_name" : "Daejeon",
               "short_name" : "Daejeon",
               "types" : [ "locality", "political" ]
            },
            {
               "long_name" : "South Korea",
               "short_name" : "KR",
               "types" : [ "country", "political" ]
            }
         ],
         "formatted_address" : "Daejeon, South Korea",
         "geometry" : {
            "bounds" : {
               "northeast" : {
                  "lat" : 36.4999476,
                  "lng" : 127.5590436
               },
               "southwest" : {
                  "lat" : 36.1833708,
                  "lng" : 127.2464501
               }
            },
            "location" : {
               "lat" : 36.3504119,
               "lng" : 127.3845475
            },
            "location_type" : "APPROXIMATE",
            "viewport" : {
               "northeast" : {
                  "lat" : 36.4999476,
                  "lng" : 127.5590436
               },
               "southwest" : {
                  "lat" : 36.1833708,
                  "lng" : 127.2464501
               }
            }
         },
         "place_id" : "ChIJX68n79pIZTURumMwWMdDLI0",
         "types" : [ "administrative_area_level_1", "political" ]
      },
      {
         "address_components" : [
            {
               "long_name" : "South Korea",
               "short_name" : "KR",
               "types" : [ "country", "political" ]
            }
         ],
         "formatted_address" : "South Korea",
         "geometry" : {
            "bounds" : {
               "northeast" : {
                  "lat" : 38.63400000000001,
                  "lng" : 131.1603
               },
               "southwest" : {
                  "lat" : 33.0041,
                  "lng" : 124.5863
               }
            },
            "location" : {
               "lat" : 35.907757,
               "lng" : 127.766922
            },
            "location_type" : "APPROXIMATE",
            "viewport" : {
               "northeast" : {
                  "lat" : 38.63400000000001,
                  "lng" : 131.1603
               },
               "southwest" : {
                  "lat" : 33.0041,
                  "lng" : 124.5863
               }
            }
         },
         "place_id" : "ChIJm7oRy-tVZDURS9uIugCbJJE",
         "types" : [ "country", "political" ]
      }
   ],
   "status" : "OK"
}
