{
   "plus_code" : {
      "compound_code" : "PH9M+XH Málaga, Spain",
      "global_code" : "8C8QPH9M+XH"
   },
   "results" : [
      {
         "address_components" : [
            {
               "long_name" : "Rectorado",
               "short_name" : "Rectorado",
               "types" : [ "premise" ]
            },
            {
               "long_name" : "2",
               "short_name" : "2",
               "types" : [ "street_number" ]
            },
            {
               "long_name" : "Avenida de Cervantes",
               "short_name" : "Av. de Cervantes",
               "types" : [ "route" ]
            },
            {
               "long_name" : "Málaga",
               "short_name" : "Málaga",
               "types" : [ "locality", "political" ]
            },
            {
               "long_name" : "Málaga",
               "short_name" : "Málaga",
               "types" : [ "administrative_area_level_2", "political" ]
            },
            {
               "long_name" : "Andalucía",
               "short_name" : "AL",
               "types" : [ "administrative_area_level_1", "political" ]
            },
            {
               "long_name" : "Spain",
               "short_name" : "ES",
               "types" : [ "country", "political" ]
            },
            {
               "long_name" : "29016",
               "short_name" : "29016",
               "types" : [ "postal_code" ]
            }
         ],
         "formatted_address" : "Rectorado, Av. de Cervantes, 2, 29016 Málaga, Spain",
         "geometry" : {
            "bounds" : {
               "northeast" : {
                  "lat" : 36.7202664,
                  "lng" : -4.4158849
               },
               "southwest" : {
                  "lat" : 36.7198038,
                  "lng" : -4.4164427
               }
            },
            "location" : {
               "lat" : 36.7200048,
               "lng" : -4.4160789
            },
            "location_type" : "ROOFTOP",
            "viewport" : {
               "northeast" : {
                  "lat" : 36.7213840802915,
                  "lng" : -4.414814819708498
               },
               "southwest" : {
                  "lat" : 36.7186861197085,
                  "lng" : -4.417512780291503
               }
            }
         },
         "place_id" : "ChIJ4XG98er3cg0RCPlTNdljzrA",
         "types" : [ "premise" ]
      },
      {
         "address_components" : [
            {
               "long_name" : "Radio Taxi Libre - Málaga",
               "short_name" : "Radio Taxi Libre - Málaga",
               "types" : [
                  "airport",
                  "establishment",
                  "lodging",
                  "point_of_interest",
                  "taxi_stand"
               ]
            },
            {
               "long_name" : "Málaga.",
               "short_name" : "Málaga.",
               "types" : [ "locality", "political" ]
            },
            {
               "long_name" : "Málaga",
               "short_name" : "Málaga",
               "types" : [ "administrative_area_level_2", "political" ]
            },
            {
               "long_name" : "Spain",
               "short_name" : "ES",
               "types" : [ "country", "political" ]
            },
            {
               "long_name" : "29016",
               "short_name" : "29016",
               "types" : [ "postal_code" ]
            }
         ],
         "formatted_address" : "Radio Taxi Libre - Málaga, Avenida de Cervantes, 2, Málaga., 29016 Málaga., Málaga, Spain",
         "geometry" : {
            "location" : {
               "lat" : 36.719873,
               "lng" : -4.416043999999999
            },
            "location_type" : "GEOMETRIC_CENTER",
            "viewport" : {
               "northeast" : {
                  "lat" : 36.7212219802915,
                  "lng" : -4.414695019708497
               },
               "southwest" : {
                  "lat" : 36.7185240197085,
                  "lng" : -4.417392980291502
               }
            }
         },
         "place_id" : "ChIJvwqS2r_3cg0RBaiXj7Au1OM",
         "plus_code" : {
            "compound_code" : "PH9M+WH Málaga, Spain",
            "global_code" : "8C8QPH9M+WH"
         },
         "types" : [
            "airport",
            "establishment",
            "lodging",
            "point_of_interest",
            "taxi_stand"
         ]
      },
      {
         "address_components" : [
            {
               "long_name" : "2",
               "short_name" : "2",
               "types" : [ "street_number" ]
            },
            {
               "long_name" : "Calle Alcalde Pedro Luis Alonso",
               "short_name" : "Calle Alcalde Pedro Luis Alonso",
               "types" : [ "route" ]
            },
            {
               "long_name" : "Málaga",
               "short_name" : "Málaga",
               "types" : [ "locality", "political" ]
            },
            {
               "long_name" : "Málaga",
               "short_name" : "Málaga",
               "types" : [ "administrative_area_level_2", "political" ]
            },
            {
               "long_name" : "Andalucía",
               "short_name" : "AL",
               "types" : [ "administrative_area_level_1", "political" ]
            },
            {
               "long_name" : "Spain",
               "short_name" : "ES",
               "types" : [ "country", "political" ]
            },
            {
               "long_name" : "29016",
               "short_name" : "29016",
               "types" : [ "postal_code" ]
            }
         ],
         "formatted_address" : "Calle Alcalde Pedro Luis Alonso, 2, 29016 Málaga, Spain",
         "geometry" : {
            "location" : {
               "lat" : 36.7200483,
               "lng" : -4.4159655
            },
            "location_type" : "ROOFTOP",
            "viewport" : {
               "northeast" : {
                  "lat" : 36.72139728029151,
                  "lng" : -4.414616519708497
               },
               "southwest" : {
                  "lat" : 36.71869931970851,
                  "lng" : -4.417314480291502
               }
            }
         },
         "place_id" : "ChIJjW818er3cg0R14yzYX0AOO0",
         "plus_code" : {
            "compound_code" : "PHCM+2J Málaga, Spain",
            "global_code" : "8C8QPHCM+2J"
         },
         "types" : [ "street_address" ]
      },
      {
         "address_components" : [
            {
               "long_name" : "1",
               "short_name" : "1",
               "types" : [ "street_number" ]
            },
            {
               "long_name" : "Avenida de Cervantes",
               "short_name" : "Av. de Cervantes",
               "types" : [ "route" ]
            },
            {
               "long_name" : "Málaga",
               "short_name" : "Málaga",
               "types" : [ "locality", "political" ]
            },
            {
               "long_name" : "Málaga",
               "short_name" : "Málaga",
               "types" : [ "administrative_area_level_2", "political" ]
            },
            {
               "long_name" : "Spain",
               "short_name" : "ES",
               "types" : [ "country", "political" ]
            }
         ],
         "formatted_address" : "Av. de Cervantes, 1, Málaga, Spain",
         "geometry" : {
            "location" : {
               "lat" : 36.7197412,
               "lng" : -4.4161528
            },
            "location_type" : "RANGE_INTERPOLATED",
            "viewport" : {
               "northeast" : {
                  "lat" : 36.7210901802915,
                  "lng" : -4.414803819708498
               },
               "southwest" : {
                  "lat" : 36.71839221970851,
                  "lng" : -4.417501780291502
               }
            }
         },
         "place_id" : "EiVBdi4gZGUgQ2VydmFudGVzLCAxLCBNw6FsYWdhLCBFc3Bhw7FhIhoSGAoUChIJM7HU5er3cg0RMKlnpACP5bgQAQ",
         "types" : [ "street_address" ]
      },
      {
         "address_components" : [
            {
               "long_name" : "El Parque de Málaga",
               "short_name" : "El Parque de Málaga",
               "types" : [ "neighborhood", "political" ]
            },
            {
               "long_name" : "Málaga",
               "short_name" : "Málaga",
               "types" : [ "locality", "political" ]
            },
            {
               "long_name" : "Málaga",
               "short_name" : "Málaga",
               "types" : [ "administrative_area_level_2", "political" ]
            },
            {
               "long_name" : "Andalucía",
               "short_name" : "AL",
               "types" : [ "administrative_area_level_1", "political" ]
            },
            {
               "long_name" : "Spain",
               "short_name" : "ES",
               "types" : [ "country", "political" ]
            }
         ],
         "formatted_address" : "El Parque de Málaga, Málaga, Spain",
         "geometry" : {
            "bounds" : {
               "northeast" : {
                  "lat" : 36.7211908,
                  "lng" : -4.4118799
               },
               "southwest" : {
                  "lat" : 36.7176591,
                  "lng" : -4.4197627
               }
            },
            "location" : {
               "lat" : 36.7198348,
               "lng" : -4.4149938
            },
            "location_type" : "APPROXIMATE",
            "viewport" : {
               "northeast" : {
                  "lat" : 36.7211908,
                  "lng" : -4.4118799
               },
               "southwest" : {
                  "lat" : 36.7176591,
                  "lng" : -4.4197627
               }
            }
         },
         "place_id" : "ChIJYQna_ur3cg0R9mk_qfesp_U",
         "types" : [ "neighborhood", "political" ]
      },
      {
         "address_components" : [
            {
               "long_name" : "29016",
               "short_name" : "29016",
               "types" : [ "postal_code" ]
            },
            {
               "long_name" : "Málaga",
               "short_name" : "Málaga",
               "types" : [ "locality", "political" ]
            },
            {
               "long_name" : "Málaga",
               "short_name" : "Málaga",
               "types" : [ "administrative_area_level_2", "political" ]
            },
            {
               "long_name" : "Andalusia",
               "short_name" : "AL",
               "types" : [ "administrative_area_level_1", "political" ]
            },
            {
               "long_name" : "Spain",
               "short_name" : "ES",
               "types" : [ "country", "political" ]
            }
         ],
         "formatted_address" : "29016 Málaga, Spain",
         "geometry" : {
            "bounds" : {
               "northeast" : {
                  "lat" : 36.7399338,
                  "lng" : -4.3855828
               },
               "southwest" : {
                  "lat" : 36.7069848,
                  "lng" : -4.4172038
               }
            },
            "location" : {
               "lat" : 36.7250886,
               "lng" : -4.4002069
            },
            "location_type" : "APPROXIMATE",
            "viewport" : {
               "northeast" : {
                  "lat" : 36.7399338,
                  "lng" : -4.3855828
               },
               "southwest" : {
                  "lat" : 36.7069848,
                  "lng" : -4.4172038
               }
            }
         },
         "place_id" : "ChIJV7Snvt73cg0RcEd94XvSAxw",
         "types" : [ "postal_code" ]
      },
      {
         "address_components" : [
            {
               "long_name" : "Centro",
               "short_name" : "Centro",
               "types" : [ "political", "sublocality", "sublocality_level_1" ]
            },
            {
               "long_name" : "Málaga",
               "short_name" : "Málaga",
               "types" : [ "locality", "political" ]
            },
            {
               "long_name" : "Málaga",
               "short_name" : "Málaga",
               "types" : [ "administrative_area_level_2", "political" ]
            },
            {
               "long_name" : "Andalusia",
               "short_name" : "AL",
               "types" : [ "administrative_area_level_1", "political" ]
            },
            {
               "long_name" : "Spain",
               "short_name" : "ES",
               "types" : [ "country", "political" ]
            }
         ],
         "formatted_address" : "Centro, Málaga, Spain",
         "geometry" : {
            "bounds" : {
               "northeast" : {
                  "lat" : 36.743191,
                  "lng" : -4.404425
               },
               "southwest" : {
                  "lat" : 36.698723,
                  "lng" : -4.4374341
               }
            },
            "location" : {
               "lat" : 36.7273036,
               "lng" : -4.4130648
            },
            "location_type" : "APPROXIMATE",
            "viewport" : {
               "northeast" : {
                  "lat" : 36.743191,
                  "lng" : -4.404425
               },
               "southwest" : {
                  "lat" : 36.698723,
                  "lng" : -4.4374341
               }
            }
         },
         "place_id" : "ChIJPSUrnZX3cg0RYmolMAj1SIU",
         "types" : [ "political", "sublocality", "sublocality_level_1" ]
      },
      {
         "address_components" : [
            {
               "long_name" : "Málaga",
               "short_name" : "Málaga",
               "types" : [ "locality", "political" ]
            },
            {
               "long_name" : "Málaga",
               "short_name" : "Málaga",
               "types" : [ "administrative_area_level_2", "political" ]
            },
            {
               "long_name" : "Andalusia",
               "short_name" : "AL",
               "types" : [ "administrative_area_level_1", "political" ]
            },
            {
               "long_name" : "Spain",
               "short_name" : "ES",
               "types" : [ "country", "political" ]
            }
         ],
         "formatted_address" : "Málaga, Spain",
         "geometry" : {
            "bounds" : {
               "northeast" : {
                  "lat" : 36.7575526,
                  "lng" : -4.3394965
               },
               "southwest" : {
                  "lat" : 36.6788914,
                  "lng" : -4.5590373
               }
            },
            "location" : {
               "lat" : 36.721261,
               "lng" : -4.4212655
            },
            "location_type" : "APPROXIMATE",
            "viewport" : {
               "northeast" : {
                  "lat" : 36.7575526,
                  "lng" : -4.3394965
               },
               "southwest" : {
                  "lat" : 36.6788914,
                  "lng" : -4.5590373
               }
            }
         },
         "place_id" : "ChIJLSHbT8RZcg0RzzLKyZLcJWA",
         "types" : [ "locality", "political" ]
      },
      {
         "address_components" : [
            {
               "long_name" : "Málaga",
               "short_name" : "Málaga",
               "types" : [ "administrative_area_level_4", "locality", "political" ]
            },
            {
               "long_name" : "Málaga",
               "short_name" : "Málaga",
               "types" : [ "administrative_area_level_2", "political" ]
            },
            {
               "long_name" : "Andalusia",
               "short_name" : "AL",
               "types" : [ "administrative_area_level_1", "political" ]
            },
            {
               "long_name" : "Spain",
               "short_name" : "ES",
               "types" : [ "country", "political" ]
            }
         ],
         "formatted_address" : "Málaga, Spain",
         "geometry" : {
            "bounds" : {
               "northeast" : {
                  "lat" : 36.8940412,
                  "lng" : -4.260489700000001
               },
               "southwest" : {
                  "lat" : 36.6356229,
                  "lng" : -4.587888599999999
               }
            },
            "location" : {
               "lat" : 36.7212737,
               "lng" : -4.4213988
            },
            "location_type" : "APPROXIMATE",
            "viewport" : {
               "northeast" : {
                  "lat" : 36.8940412,
                  "lng" : -4.260489700000001
               },
               "southwest" : {
                  "lat" : 36.6356229,
                  "lng" : -4.587888599999999
               }
            }
         },
         "place_id" : "ChIJUdEwjWn2cg0RgOZ2pXjSAwQ",
         "types" : [ "administrative_area_level_4", "locality", "political" ]
      },
      {
         "address_components" : [
            {
               "long_name" : "Málaga",
               "short_name" : "Málaga",
               "types" : [ "administrative_area_level_3", "political" ]
            },
            {
               "long_name" : "Málaga",
               "short_name" : "Málaga",
               "types" : [ "administrative_area_level_2", "political" ]
            },
            {
               "long_name" : "Andalucía",
               "short_name" : "AL",
               "types" : [ "administrative_area_level_1", "political" ]
            },
            {
               "long_name" : "Spain",
               "short_name" : "ES",
               "types" : [ "country", "political" ]
            }
         ],
         "formatted_address" : "Málaga, Spain",
         "geometry" : {
            "bounds" : {
               "northeast" : {
                  "lat" : 36.894041,
                  "lng" : -4.2604898
               },
               "southwest" : {
                  "lat" : 36.6345687,
                  "lng" : -4.587888599999999
               }
            },
            "location" : {
               "lat" : 36.7213069,
               "lng" : -4.4211503
            },
            "location_type" : "APPROXIMATE",
            "viewport" : {
               "northeast" : {
                  "lat" : 36.894041,
                  "lng" : -4.2604898
               },
               "southwest" : {
                  "lat" : 36.6345687,
                  "lng" : -4.587888599999999
               }
            }
         },
         "place_id" : "ChIJ0ZsZCUL2cg0RfLkFYbZzC04",
         "types" : [ "administrative_area_level_3", "political" ]
      },
      {
         "address_components" : [
            {
               "long_name" : "Málaga",
               "short_name" : "Málaga",
               "types" : [ "administrative_area_level_2", "political" ]
            },
            {
               "long_name" : "Andalusia",
               "short_name" : "AL",
               "types" : [ "administrative_area_level_1", "political" ]
            },
            {
               "long_name" : "Spain",
               "short_name" : "ES",
               "types" : [ "country", "political" ]
            }
         ],
         "formatted_address" : "Málaga, Spain",
         "geometry" : {
            "bounds" : {
               "northeast" : {
                  "lat" : 37.2824026,
                  "lng" : -3.765967
               },
               "southwest" : {
                  "lat" : 36.3102805,
                  "lng" : -5.6117767
               }
            },
            "location" : {
               "lat" : 36.7211113,
               "lng" : -4.4210306
            },
            "location_type" : "APPROXIMATE",
            "viewport" : {
               "northeast" : {
                  "lat" : 37.2824026,
                  "lng" : -3.765967
               },
               "southwest" : {
                  "lat" : 36.3102805,
                  "lng" : -5.6117767
               }
            }
         },
         "place_id" : "ChIJUyii_DXqcg0RAMt1pXjSAwM",
         "types" : [ "administrative_area_level_2", "political" ]
      },
      {
         "address_components" : [
            {
               "long_name" : "Andalusia",
               "short_name" : "Andalusia",
               "types" : [ "administrative_area_level_1", "political" ]
            },
            {
               "long_name" : "Spain",
               "short_name" : "ES",
               "types" : [ "country", "political" ]
            }
         ],
         "formatted_address" : "Andalusia, Spain",
         "geometry" : {
            "bounds" : {
               "northeast" : {
                  "lat" : 38.7290872,
                  "lng" : -1.6301238
               },
               "southwest" : {
                  "lat" : 35.9376148,
                  "lng" : -7.522877500000001
               }
            },
            "location" : {
               "lat" : 37.5442706,
               "lng" : -4.7277528
            },
            "location_type" : "APPROXIMATE",
            "viewport" : {
               "northeast" : {
                  "lat" : 38.7290872,
                  "lng" : -1.6301238
               },
               "southwest" : {
                  "lat" : 35.9376148,
                  "lng" : -7.522877500000001
               }
            }
         },
         "place_id" : "ChIJRcWdz7HZEQ0RD_Pxd01lycE",
         "types" : [ "administrative_area_level_1", "political" ]
      },
      {
         "address_components" : [
            {
               "long_name" : "Spain",
               "short_name" : "ES",
               "types" : [ "country", "political" ]
            }
         ],
         "formatted_address" : "Spain",
         "geometry" : {
            "bounds" : {
               "northeast" : {
                  "lat" : 43.8504,
                  "lng" : 4.6362
               },
               "southwest" : {
                  "lat" : 27.4985,
                  "lng" : -18.2648001
               }
            },
            "location" : {
               "lat" : 40.46366700000001,
               "lng" : -3.74922
            },
            "location_type" : "APPROXIMATE",
            "viewport" : {
               "northeast" : {
                  "lat" : 43.8504,
                  "lng" : 4.6362
               },
               "southwest" : {
                  "lat" : 27.4985,
                  "lng" : -18.2648001
               }
            }
         },
         "place_id" : "ChIJi7xhMnjjQgwR7KNoB5Qs7KY",
         "types" : [ "country", "political" ]
      }
   ],
   "status" : "OK"
}
