{
   "plus_code" : {
      "compound_code" : "3V87+VQ Stellenbosch, South Africa",
      "global_code" : "4FRW3V87+VQ"
   },
   "results" : [
      {
         "address_components" : [
            {
               "long_name" : "Stellenbosch University Tennis Courts",
               "short_name" : "Stellenbosch University Tennis Courts",
               "types" : [ "premise" ]
            },
            {
               "long_name" : "Victoria Street",
               "short_name" : "Victoria St",
               "types" : [ "route" ]
            },
            {
               "long_name" : "Stellenbosch Central",
               "short_name" : "Stellenbosch Central",
               "types" : [ "political", "sublocality", "sublocality_level_1" ]
            },
            {
               "long_name" : "Stellenbosch",
               "short_name" : "Stellenbosch",
               "types" : [ "locality", "political" ]
            },
            {
               "long_name" : "Cape Winelands",
               "short_name" : "Cape Winelands",
               "types" : [ "administrative_area_level_2", "political" ]
            },
            {
               "long_name" : "Western Cape",
               "short_name" : "WC",
               "types" : [ "administrative_area_level_1", "political" ]
            },
            {
               "long_name" : "South Africa",
               "short_name" : "ZA",
               "types" : [ "country", "political" ]
            },
            {
               "long_name" : "7599",
               "short_name" : "7599",
               "types" : [ "postal_code" ]
            }
         ],
         "formatted_address" : "Stellenbosch University Tennis Courts, Victoria St, Stellenbosch Central, Stellenbosch, 7599, South Africa",
         "geometry" : {
            "location" : {
               "lat" : -33.9328078,
               "lng" : 18.864447
            },
            "location_type" : "ROOFTOP",
            "viewport" : {
               "northeast" : {
                  "lat" : -33.9314588197085,
                  "lng" : 18.8657959802915
               },
               "southwest" : {
                  "lat" : -33.9341567802915,
                  "lng" : 18.8630980197085
               }
            }
         },
         "place_id" : "ChIJdTjUfV2yzR0RUt9KoIvXGaE",
         "plus_code" : {
            "compound_code" : "3V87+VQ Stellenbosch, South Africa",
            "global_code" : "4FRW3V87+VQ"
         },
         "types" : [ "establishment", "point_of_interest", "university" ]
      },
      {
         "address_components" : [
            {
               "long_name" : "Unnamed Road",
               "short_name" : "Unnamed Road",
               "types" : [ "route" ]
            },
            {
               "long_name" : "Stellenbosch Central",
               "short_name" : "Stellenbosch Central",
               "types" : [ "political", "sublocality", "sublocality_level_1" ]
            },
            {
               "long_name" : "Stellenbosch",
               "short_name" : "Stellenbosch",
               "types" : [ "locality", "political" ]
            },
            {
               "long_name" : "Cape Winelands",
               "short_name" : "Cape Winelands",
               "types" : [ "administrative_area_level_2", "political" ]
            },
            {
               "long_name" : "Western Cape",
               "short_name" : "WC",
               "types" : [ "administrative_area_level_1", "political" ]
            },
            {
               "long_name" : "South Africa",
               "short_name" : "ZA",
               "types" : [ "country", "political" ]
            },
            {
               "long_name" : "7599",
               "short_name" : "7599",
               "types" : [ "postal_code" ]
            }
         ],
         "formatted_address" : "Unnamed Road, Stellenbosch Central, Stellenbosch, 7599, South Africa",
         "geometry" : {
            "bounds" : {
               "northeast" : {
                  "lat" : -33.9329084,
                  "lng" : 18.8646429
               },
               "southwest" : {
                  "lat" : -33.9331722,
                  "lng" : 18.8641894
               }
            },
            "location" : {
               "lat" : -33.9330403,
               "lng" : 18.8644162
            },
            "location_type" : "GEOMETRIC_CENTER",
            "viewport" : {
               "northeast" : {
                  "lat" : -33.9316913197085,
                  "lng" : 18.8657651302915
               },
               "southwest" : {
                  "lat" : -33.9343892802915,
                  "lng" : 18.8630671697085
               }
            }
         },
         "place_id" : "ChIJh9tZeV2yzR0RvOFqmWTvDUc",
         "types" : [ "route" ]
      },
      {
         "address_components" : [
            {
               "long_name" : "Stellenbosch Central",
               "short_name" : "Stellenbosch Central",
               "types" : [ "political", "sublocality", "sublocality_level_1" ]
            },
            {
               "long_name" : "Stellenbosch",
               "short_name" : "Stellenbosch",
               "types" : [ "locality", "political" ]
            },
            {
               "long_name" : "Cape Winelands",
               "short_name" : "Cape Winelands",
               "types" : [ "administrative_area_level_2", "political" ]
            },
            {
               "long_name" : "Western Cape",
               "short_name" : "WC",
               "types" : [ "administrative_area_level_1", "political" ]
            },
            {
               "long_name" : "South Africa",
               "short_name" : "ZA",
               "types" : [ "country", "political" ]
            },
            {
               "long_name" : "7600",
               "short_name" : "7600",
               "types" : [ "postal_code" ]
            }
         ],
         "formatted_address" : "Stellenbosch Central, Stellenbosch, 7600, South Africa",
         "geometry" : {
            "bounds" : {
               "northeast" : {
                  "lat" : -33.9223877,
                  "lng" : 18.8778081
               },
               "southwest" : {
                  "lat" : -33.9437181,
                  "lng" : 18.8449198
               }
            },
            "location" : {
               "lat" : -33.9354048,
               "lng" : 18.8640607
            },
            "location_type" : "APPROXIMATE",
            "viewport" : {
               "northeast" : {
                  "lat" : -33.9223877,
                  "lng" : 18.8778081
               },
               "southwest" : {
                  "lat" : -33.9437181,
                  "lng" : 18.8449198
               }
            }
         },
         "place_id" : "ChIJpeKIUfeyzR0RlSUsY_BNkPI",
         "types" : [ "political", "sublocality", "sublocality_level_1" ]
      },
      {
         "address_components" : [
            {
               "long_name" : "7599",
               "short_name" : "7599",
               "types" : [ "postal_code" ]
            },
            {
               "long_name" : "Stellenbosch",
               "short_name" : "Stellenbosch",
               "types" : [ "locality", "political" ]
            },
            {
               "long_name" : "Cape Winelands",
               "short_name" : "Cape Winelands",
               "types" : [ "administrative_area_level_2", "political" ]
            },
            {
               "long_name" : "Western Cape",
               "short_name" : "WC",
               "types" : [ "administrative_area_level_1", "political" ]
            },
            {
               "long_name" : "South Africa",
               "short_name" : "ZA",
               "types" : [ "country", "political" ]
            }
         ],
         "formatted_address" : "Stellenbosch, 7599, South Africa",
         "geometry" : {
            "bounds" : {
               "northeast" : {
                  "lat" : -33.870055,
                  "lng" : 18.9232899
               },
               "southwest" : {
                  "lat" : -33.969308,
                  "lng" : 18.80192
               }
            },
            "location" : {
               "lat" : -33.9300286,
               "lng" : 18.8640607
            },
            "location_type" : "APPROXIMATE",
            "viewport" : {
               "northeast" : {
                  "lat" : -33.870055,
                  "lng" : 18.9232899
               },
               "southwest" : {
                  "lat" : -33.969308,
                  "lng" : 18.80192
               }
            }
         },
         "place_id" : "ChIJLTh7P3uyzR0RW-ZhmLIWGTQ",
         "types" : [ "postal_code" ]
      },
      {
         "address_components" : [
            {
               "long_name" : "Stellenbosch",
               "short_name" : "Stellenbosch",
               "types" : [ "locality", "political" ]
            },
            {
               "long_name" : "Cape Winelands",
               "short_name" : "Cape Winelands",
               "types" : [ "administrative_area_level_2", "political" ]
            },
            {
               "long_name" : "Western Cape",
               "short_name" : "WC",
               "types" : [ "administrative_area_level_1", "political" ]
            },
            {
               "long_name" : "South Africa",
               "short_name" : "ZA",
               "types" : [ "country", "political" ]
            }
         ],
         "formatted_address" : "Stellenbosch, South Africa",
         "geometry" : {
            "bounds" : {
               "northeast" : {
                  "lat" : -33.8782959,
                  "lng" : 18.9232899
               },
               "southwest" : {
                  "lat" : -34.0150869,
                  "lng" : 18.7658819
               }
            },
            "location" : {
               "lat" : -33.9321045,
               "lng" : 18.860152
            },
            "location_type" : "APPROXIMATE",
            "viewport" : {
               "northeast" : {
                  "lat" : -33.8782959,
                  "lng" : 18.9232899
               },
               "southwest" : {
                  "lat" : -34.0150869,
                  "lng" : 18.7658819
               }
            }
         },
         "place_id" : "ChIJpeKIUfeyzR0R4mvj3gCqCXA",
         "types" : [ "locality", "political" ]
      },
      {
         "address_components" : [
            {
               "long_name" : "Stellenbosch",
               "short_name" : "Stellenbosch",
               "types" : [ "administrative_area_level_3", "political" ]
            },
            {
               "long_name" : "Cape Winelands",
               "short_name" : "Cape Winelands",
               "types" : [ "administrative_area_level_2", "political" ]
            },
            {
               "long_name" : "Western Cape",
               "short_name" : "WC",
               "types" : [ "administrative_area_level_1", "political" ]
            },
            {
               "long_name" : "South Africa",
               "short_name" : "ZA",
               "types" : [ "country", "political" ]
            }
         ],
         "formatted_address" : "Stellenbosch, South Africa",
         "geometry" : {
            "bounds" : {
               "northeast" : {
                  "lat" : -33.7933598,
                  "lng" : 19.2438001
               },
               "southwest" : {
                  "lat" : -34.06339,
                  "lng" : 18.7083299
               }
            },
            "location" : {
               "lat" : -33.9405478,
               "lng" : 18.9502232
            },
            "location_type" : "APPROXIMATE",
            "viewport" : {
               "northeast" : {
                  "lat" : -33.7933598,
                  "lng" : 19.2438001
               },
               "southwest" : {
                  "lat" : -34.06339,
                  "lng" : 18.7083299
               }
            }
         },
         "place_id" : "ChIJGzsij2mwzR0ROTs2Kc8H4P8",
         "types" : [ "administrative_area_level_3", "political" ]
      },
      {
         "address_components" : [
            {
               "long_name" : "Cape Winelands",
               "short_name" : "Cape Winelands",
               "types" : [ "administrative_area_level_2", "political" ]
            },
            {
               "long_name" : "Western Cape",
               "short_name" : "WC",
               "types" : [ "administrative_area_level_1", "political" ]
            },
            {
               "long_name" : "South Africa",
               "short_name" : "ZA",
               "types" : [ "country", "political" ]
            }
         ],
         "formatted_address" : "Cape Winelands, South Africa",
         "geometry" : {
            "bounds" : {
               "northeast" : {
                  "lat" : -32.18449,
                  "lng" : 21.0103398
               },
               "southwest" : {
                  "lat" : -34.1172599,
                  "lng" : 18.7083299
               }
            },
            "location" : {
               "lat" : -33.4220698,
               "lng" : 19.7591675
            },
            "location_type" : "APPROXIMATE",
            "viewport" : {
               "northeast" : {
                  "lat" : -32.18449,
                  "lng" : 21.0103398
               },
               "southwest" : {
                  "lat" : -34.1172599,
                  "lng" : 18.7083299
               }
            }
         },
         "place_id" : "ChIJj2HNnxW70h0RzBWtTA6l3oc",
         "types" : [ "administrative_area_level_2", "political" ]
      },
      {
         "address_components" : [
            {
               "long_name" : "Western Cape",
               "short_name" : "Western Cape",
               "types" : [ "administrative_area_level_1", "political" ]
            },
            {
               "long_name" : "South Africa",
               "short_name" : "ZA",
               "types" : [ "country", "political" ]
            }
         ],
         "formatted_address" : "Western Cape, South Africa",
         "geometry" : {
            "bounds" : {
               "northeast" : {
                  "lat" : -30.4302599,
                  "lng" : 38.2216904
               },
               "southwest" : {
                  "lat" : -47.1313489,
                  "lng" : 17.7575637
               }
            },
            "location" : {
               "lat" : -33.2277918,
               "lng" : 21.8568586
            },
            "location_type" : "APPROXIMATE",
            "viewport" : {
               "northeast" : {
                  "lat" : -30.4302599,
                  "lng" : 38.2216904
               },
               "southwest" : {
                  "lat" : -47.1313489,
                  "lng" : 17.7575637
               }
            }
         },
         "place_id" : "ChIJ841peohdzB0Ri6I2IY95juk",
         "types" : [ "administrative_area_level_1", "political" ]
      },
      {
         "address_components" : [
            {
               "long_name" : "South Africa",
               "short_name" : "ZA",
               "types" : [ "country", "political" ]
            }
         ],
         "formatted_address" : "South Africa",
         "geometry" : {
            "bounds" : {
               "northeast" : {
                  "lat" : -22.1254239,
                  "lng" : 38.2216904
               },
               "southwest" : {
                  "lat" : -47.1313489,
                  "lng" : 16.2816999
               }
            },
            "location" : {
               "lat" : -30.559482,
               "lng" : 22.937506
            },
            "location_type" : "APPROXIMATE",
            "viewport" : {
               "northeast" : {
                  "lat" : -22.1254239,
                  "lng" : 38.2216904
               },
               "southwest" : {
                  "lat" : -47.1313489,
                  "lng" : 16.2816999
               }
            }
         },
         "place_id" : "ChIJURLu2YmmNBwRoOikHwxjXeg",
         "types" : [ "country", "political" ]
      }
   ],
   "status" : "OK"
}
