{
   "plus_code" : {
      "compound_code" : "3FH8+VJ Graz, Austria",
      "global_code" : "8FVQ3FH8+VJ"
   },
   "results" : [
      {
         "address_components" : [
            {
               "long_name" : "2",
               "short_name" : "2",
               "types" : [ "street_number" ]
            },
            {
               "long_name" : "Auenbruggerplatz",
               "short_name" : "Auenbruggerpl.",
               "types" : [ "route" ]
            },
            {
               "long_name" : "Graz",
               "short_name" : "Graz",
               "types" : [ "locality", "political" ]
            },
            {
               "long_name" : "Graz",
               "short_name" : "Graz",
               "types" : [ "administrative_area_level_2", "political" ]
            },
            {
               "long_name" : "Steiermark",
               "short_name" : "Steiermark",
               "types" : [ "administrative_area_level_1", "political" ]
            },
            {
               "long_name" : "Austria",
               "short_name" : "AT",
               "types" : [ "country", "political" ]
            },
            {
               "long_name" : "8036",
               "short_name" : "8036",
               "types" : [ "postal_code" ]
            }
         ],
         "formatted_address" : "Auenbruggerpl. 2, 8036 Graz, Austria",
         "geometry" : {
            "location" : {
               "lat" : 47.0797409,
               "lng" : 15.4665653
            },
            "location_type" : "ROOFTOP",
            "viewport" : {
               "northeast" : {
                  "lat" : 47.0810898802915,
                  "lng" : 15.4679142802915
               },
               "southwest" : {
                  "lat" : 47.0783919197085,
                  "lng" : 15.4652163197085
               }
            }
         },
         "place_id" : "ChIJRQMgHXJKbkcRqqVOwTwQGxE",
         "plus_code" : {
            "compound_code" : "3FH8+VJ Graz, Austria",
            "global_code" : "8FVQ3FH8+VJ"
         },
         "types" : [ "establishment", "point_of_interest", "university" ]
      },
      {
         "address_components" : [
            {
               "long_name" : "2",
               "short_name" : "2",
               "types" : [ "street_number" ]
            },
            {
               "long_name" : "Auenbruggerplatz",
               "short_name" : "Auenbruggerpl.",
               "types" : [ "route" ]
            },
            {
               "long_name" : "Graz",
               "short_name" : "Graz",
               "types" : [ "locality", "political" ]
            },
            {
               "long_name" : "Graz",
               "short_name" : "Graz",
               "types" : [ "administrative_area_level_2", "political" ]
            },
            {
               "long_name" : "Steiermark",
               "short_name" : "Steiermark",
               "types" : [ "administrative_area_level_1", "political" ]
            },
            {
               "long_name" : "Austria",
               "short_name" : "AT",
               "types" : [ "country", "political" ]
            },
            {
               "long_name" : "8010",
               "short_name" : "8010",
               "types" : [ "postal_code" ]
            }
         ],
         "formatted_address" : "Auenbruggerpl. 2, 8010 Graz, Austria",
         "geometry" : {
            "bounds" : {
               "northeast" : {
                  "lat" : 47.0798454,
                  "lng" : 15.4667057
               },
               "southwest" : {
                  "lat" : 47.0796733,
                  "lng" : 15.4663845
               }
            },
            "location" : {
               "lat" : 47.0797195,
               "lng" : 15.4665537
            },
            "location_type" : "ROOFTOP",
            "viewport" : {
               "northeast" : {
                  "lat" : 47.0811083302915,
                  "lng" : 15.4678940802915
               },
               "southwest" : {
                  "lat" : 47.0784103697085,
                  "lng" : 15.4651961197085
               }
            }
         },
         "place_id" : "ChIJuVhTtm9KbkcRtQZfBbf9OIM",
         "types" : [ "premise" ]
      },
      {
         "address_components" : [
            {
               "long_name" : "2",
               "short_name" : "2",
               "types" : [ "street_number" ]
            },
            {
               "long_name" : "Auenbruggerplatz",
               "short_name" : "Auenbruggerpl.",
               "types" : [ "route" ]
            },
            {
               "long_name" : "Graz",
               "short_name" : "Graz",
               "types" : [ "locality", "political" ]
            },
            {
               "long_name" : "Graz",
               "short_name" : "Graz",
               "types" : [ "administrative_area_level_2", "political" ]
            },
            {
               "long_name" : "Steiermark",
               "short_name" : "Steiermark",
               "types" : [ "administrative_area_level_1", "political" ]
            },
            {
               "long_name" : "Austria",
               "short_name" : "AT",
               "types" : [ "country", "political" ]
            },
            {
               "long_name" : "8010",
               "short_name" : "8010",
               "types" : [ "postal_code" ]
            }
         ],
         "formatted_address" : "Auenbruggerpl. 2, 8010 Graz, Austria",
         "geometry" : {
            "location" : {
               "lat" : 47.0797594,
               "lng" : 15.4665451
            },
            "location_type" : "ROOFTOP",
            "viewport" : {
               "northeast" : {
                  "lat" : 47.0811083802915,
                  "lng" : 15.4678940802915
               },
               "southwest" : {
                  "lat" : 47.0784104197085,
                  "lng" : 15.4651961197085
               }
            }
         },
         "place_id" : "ChIJu2carm9KbkcRCShXTeIZ34k",
         "plus_code" : {
            "compound_code" : "3FH8+WJ Graz, Austria",
            "global_code" : "8FVQ3FH8+WJ"
         },
         "types" : [ "street_address" ]
      },
      {
         "address_components" : [
            {
               "long_name" : "8",
               "short_name" : "8",
               "types" : [ "street_number" ]
            },
            {
               "long_name" : "Auenbruggerplatz",
               "short_name" : "Auenbruggerpl.",
               "types" : [ "route" ]
            },
            {
               "long_name" : "Graz",
               "short_name" : "Graz",
               "types" : [ "locality", "political" ]
            },
            {
               "long_name" : "Austria",
               "short_name" : "AT",
               "types" : [ "country", "political" ]
            },
            {
               "long_name" : "8036",
               "short_name" : "8036",
               "types" : [ "postal_code" ]
            }
         ],
         "formatted_address" : "Auenbruggerpl. 8, 8036 Graz, Austria",
         "geometry" : {
            "location" : {
               "lat" : 47.079853,
               "lng" : 15.4665516
            },
            "location_type" : "RANGE_INTERPOLATED",
            "viewport" : {
               "northeast" : {
                  "lat" : 47.0812019802915,
                  "lng" : 15.4679005802915
               },
               "southwest" : {
                  "lat" : 47.0785040197085,
                  "lng" : 15.4652026197085
               }
            }
         },
         "place_id" : "EihBdWVuYnJ1Z2dlcnBsLiA4LCA4MDM2IEdyYXosIMOWc3RlcnJlaWNoIhoSGAoUChIJb7OAtm9KbkcRb7gD33duA-QQCA",
         "types" : [ "street_address" ]
      },
      {
         "address_components" : [
            {
               "long_name" : "8036",
               "short_name" : "8036",
               "types" : [ "postal_code" ]
            },
            {
               "long_name" : "Graz",
               "short_name" : "Graz",
               "types" : [ "locality", "political" ]
            },
            {
               "long_name" : "Graz",
               "short_name" : "Graz",
               "types" : [ "administrative_area_level_2", "political" ]
            },
            {
               "long_name" : "Styria",
               "short_name" : "Styria",
               "types" : [ "administrative_area_level_1", "political" ]
            },
            {
               "long_name" : "Austria",
               "short_name" : "AT",
               "types" : [ "country", "political" ]
            }
         ],
         "formatted_address" : "8036 Graz, Austria",
         "geometry" : {
            "bounds" : {
               "northeast" : {
                  "lat" : 47.0932028,
                  "lng" : 15.4744402
               },
               "southwest" : {
                  "lat" : 47.0786397,
                  "lng" : 15.4618885
               }
            },
            "location" : {
               "lat" : 47.0843558,
               "lng" : 15.4680796
            },
            "location_type" : "APPROXIMATE",
            "viewport" : {
               "northeast" : {
                  "lat" : 47.0932028,
                  "lng" : 15.4744402
               },
               "southwest" : {
                  "lat" : 47.0786397,
                  "lng" : 15.4618885
               }
            }
         },
         "place_id" : "ChIJH48knHJKbkcRN6bGfxlRTqk",
         "types" : [ "postal_code" ]
      },
      {
         "address_components" : [
            {
               "long_name" : "Geidorf",
               "short_name" : "Geidorf",
               "types" : [ "neighborhood", "political" ]
            },
            {
               "long_name" : "Gries",
               "short_name" : "Gries",
               "types" : [ "political", "sublocality", "sublocality_level_1" ]
            },
            {
               "long_name" : "Graz",
               "short_name" : "Graz",
               "types" : [ "locality", "political" ]
            },
            {
               "long_name" : "Graz",
               "short_name" : "Graz",
               "types" : [ "administrative_area_level_2", "political" ]
            },
            {
               "long_name" : "Styria",
               "short_name" : "Styria",
               "types" : [ "administrative_area_level_1", "political" ]
            },
            {
               "long_name" : "Austria",
               "short_name" : "AT",
               "types" : [ "country", "political" ]
            }
         ],
         "formatted_address" : "Geidorf, Graz, Austria",
         "geometry" : {
            "bounds" : {
               "northeast" : {
                  "lat" : 47.096844,
                  "lng" : 15.4738711
               },
               "southwest" : {
                  "lat" : 47.0736019,
                  "lng" : 15.4199908
               }
            },
            "location" : {
               "lat" : 47.0841118,
               "lng" : 15.4440507
            },
            "location_type" : "APPROXIMATE",
            "viewport" : {
               "northeast" : {
                  "lat" : 47.096844,
                  "lng" : 15.4738711
               },
               "southwest" : {
                  "lat" : 47.0736019,
                  "lng" : 15.4199908
               }
            }
         },
         "place_id" : "ChIJMTxKK2FKbkcRuaQDnyiWN74",
         "types" : [ "neighborhood", "political" ]
      },
      {
         "address_components" : [
            {
               "long_name" : "Graz",
               "short_name" : "Graz",
               "types" : [ "postal_town" ]
            },
            {
               "long_name" : "Graz",
               "short_name" : "Graz",
               "types" : [ "locality", "political" ]
            },
            {
               "long_name" : "Steiermark",
               "short_name" : "Steiermark",
               "types" : [ "administrative_area_level_1", "political" ]
            },
            {
               "long_name" : "Austria",
               "short_name" : "AT",
               "types" : [ "country", "political" ]
            },
            {
               "long_name" : "8010",
               "short_name" : "8010",
               "types" : [ "postal_code" ]
            }
         ],
         "formatted_address" : "Graz, 8010 Graz, Austria",
         "geometry" : {
            "bounds" : {
               "northeast" : {
                  "lat" : 47.1213874,
                  "lng" : 15.5673979
               },
               "southwest" : {
                  "lat" : 47.0418497,
                  "lng" : 15.3754957
               }
            },
            "location" : {
               "lat" : 47.0743531,
               "lng" : 15.454803
            },
            "location_type" : "APPROXIMATE",
            "viewport" : {
               "northeast" : {
                  "lat" : 47.1213874,
                  "lng" : 15.5673979
               },
               "southwest" : {
                  "lat" : 47.0418497,
                  "lng" : 15.3754957
               }
            }
         },
         "place_id" : "ChIJMTxKK2FKbkcRcrZRLiXQLOw",
         "types" : [ "postal_town" ]
      },
      {
         "address_components" : [
            {
               "long_name" : "Graz",
               "short_name" : "Graz",
               "types" : [ "administrative_area_level_2", "political" ]
            },
            {
               "long_name" : "Graz",
               "short_name" : "Graz",
               "types" : [ "locality", "political" ]
            },
            {
               "long_name" : "Steiermark",
               "short_name" : "Steiermark",
               "types" : [ "administrative_area_level_1", "political" ]
            },
            {
               "long_name" : "Austria",
               "short_name" : "AT",
               "types" : [ "country", "political" ]
            }
         ],
         "formatted_address" : "Graz, Austria",
         "geometry" : {
            "bounds" : {
               "northeast" : {
                  "lat" : 47.13460000000001,
                  "lng" : 15.5340499
               },
               "southwest" : {
                  "lat" : 47.01204,
                  "lng" : 15.3495299
               }
            },
            "location" : {
               "lat" : 47.070714,
               "lng" : 15.439504
            },
            "location_type" : "APPROXIMATE",
            "viewport" : {
               "northeast" : {
                  "lat" : 47.13460000000001,
                  "lng" : 15.5340499
               },
               "southwest" : {
                  "lat" : 47.01204,
                  "lng" : 15.3495299
               }
            }
         },
         "place_id" : "ChIJlXx957BKbkcRbk9Z1DtWDBc",
         "types" : [ "administrative_area_level_2", "political" ]
      },
      {
         "address_components" : [
            {
               "long_name" : "Graz",
               "short_name" : "Graz",
               "types" : [ "locality", "political" ]
            },
            {
               "long_name" : "Graz",
               "short_name" : "Graz",
               "types" : [ "administrative_area_level_2", "political" ]
            },
            {
               "long_name" : "Styria",
               "short_name" : "Styria",
               "types" : [ "administrative_area_level_1", "political" ]
            },
            {
               "long_name" : "Austria",
               "short_name" : "AT",
               "types" : [ "country", "political" ]
            }
         ],
         "formatted_address" : "Graz, Austria",
         "geometry" : {
            "bounds" : {
               "northeast" : {
                  "lat" : 47.1351393,
                  "lng" : 15.5340499
               },
               "southwest" : {
                  "lat" : 47.01204,
                  "lng" : 15.3495299
               }
            },
            "location" : {
               "lat" : 47.070714,
               "lng" : 15.439504
            },
            "location_type" : "APPROXIMATE",
            "viewport" : {
               "northeast" : {
                  "lat" : 47.1351393,
                  "lng" : 15.5340499
               },
               "southwest" : {
                  "lat" : 47.01204,
                  "lng" : 15.3495299
               }
            }
         },
         "place_id" : "ChIJu2UwF4c1bkcRm93f0tGKjv4",
         "types" : [ "locality", "political" ]
      },
      {
         "address_components" : [
            {
               "long_name" : "Styria",
               "short_name" : "Styria",
               "types" : [ "administrative_area_level_1", "political" ]
            },
            {
               "long_name" : "Austria",
               "short_name" : "AT",
               "types" : [ "country", "political" ]
            }
         ],
         "formatted_address" : "Styria, Austria",
         "geometry" : {
            "bounds" : {
               "northeast" : {
                  "lat" : 47.82789,
                  "lng" : 16.17014
               },
               "southwest" : {
                  "lat" : 46.61163,
                  "lng" : 13.56417
               }
            },
            "location" : {
               "lat" : 47.3593442,
               "lng" : 14.4699827
            },
            "location_type" : "APPROXIMATE",
            "viewport" : {
               "northeast" : {
                  "lat" : 47.82789,
                  "lng" : 16.17014
               },
               "southwest" : {
                  "lat" : 46.61163,
                  "lng" : 13.56417
               }
            }
         },
         "place_id" : "ChIJUQItuHg1bkcRNH0i-37kBdA",
         "types" : [ "administrative_area_level_1", "political" ]
      },
      {
         "address_components" : [
            {
               "long_name" : "Austria",
               "short_name" : "AT",
               "types" : [ "country", "political" ]
            }
         ],
         "formatted_address" : "Austria",
         "geometry" : {
            "bounds" : {
               "northeast" : {
                  "lat" : 49.0206081,
                  "lng" : 17.1607329
               },
               "southwest" : {
                  "lat" : 46.37233579999999,
                  "lng" : 9.530783399999999
               }
            },
            "location" : {
               "lat" : 47.516231,
               "lng" : 14.550072
            },
            "location_type" : "APPROXIMATE",
            "viewport" : {
               "northeast" : {
                  "lat" : 49.0206081,
                  "lng" : 17.1607329
               },
               "southwest" : {
                  "lat" : 46.37233579999999,
                  "lng" : 9.530783399999999
               }
            }
         },
         "place_id" : "ChIJfyqdJZsHbUcRr8Hk3XvUEhA",
         "types" : [ "country", "political" ]
      }
   ],
   "status" : "OK"
}
