{
   "plus_code" : {
      "compound_code" : "RJ5W+P3 Harpenden, UK",
      "global_code" : "9C3XRJ5W+P3"
   },
   "results" : [
      {
         "address_components" : [
            {
               "long_name" : "Harpenden",
               "short_name" : "Harpenden",
               "types" : [ "postal_town" ]
            },
            {
               "long_name" : "United Kingdom",
               "short_name" : "GB",
               "types" : [ "country", "political" ]
            },
            {
               "long_name" : "AL5 2JQ",
               "short_name" : "AL5 2JQ",
               "types" : [ "postal_code" ]
            }
         ],
         "formatted_address" : "West Common, Harpenden AL5 2JQ, United Kingdom",
         "geometry" : {
            "location" : {
               "lat" : 51.809346,
               "lng" : -0.3548294
            },
            "location_type" : "GEOMETRIC_CENTER",
            "viewport" : {
               "northeast" : {
                  "lat" : 51.8106949802915,
                  "lng" : -0.3534804197084979
               },
               "southwest" : {
                  "lat" : 51.8079970197085,
                  "lng" : -0.356178380291502
               }
            }
         },
         "place_id" : "ChIJa3FC-F84dkgRxLJyOV_LdhY",
         "plus_code" : {
            "compound_code" : "RJ5W+P3 Harpenden, United Kingdom",
            "global_code" : "9C3XRJ5W+P3"
         },
         "types" : [ "establishment", "point_of_interest" ]
      },
      {
         "address_components" : [
            {
               "long_name" : "West Common",
               "short_name" : "West Common",
               "types" : [ "route" ]
            },
            {
               "long_name" : "Harpenden",
               "short_name" : "Harpenden",
               "types" : [ "postal_town" ]
            },
            {
               "long_name" : "Hertfordshire",
               "short_name" : "Hertfordshire",
               "types" : [ "administrative_area_level_2", "political" ]
            },
            {
               "long_name" : "England",
               "short_name" : "England",
               "types" : [ "administrative_area_level_1", "political" ]
            },
            {
               "long_name" : "United Kingdom",
               "short_name" : "GB",
               "types" : [ "country", "political" ]
            },
            {
               "long_name" : "AL5",
               "short_name" : "AL5",
               "types" : [ "postal_code", "postal_code_prefix" ]
            }
         ],
         "formatted_address" : "West Common, Harpenden AL5, UK",
         "geometry" : {
            "bounds" : {
               "northeast" : {
                  "lat" : 51.8106312,
                  "lng" : -0.3542288
               },
               "southwest" : {
                  "lat" : 51.8090874,
                  "lng" : -0.3545088
               }
            },
            "location" : {
               "lat" : 51.8098593,
               "lng" : -0.3543688
            },
            "location_type" : "GEOMETRIC_CENTER",
            "viewport" : {
               "northeast" : {
                  "lat" : 51.8112082802915,
                  "lng" : -0.3530198197084979
               },
               "southwest" : {
                  "lat" : 51.8085103197085,
                  "lng" : -0.355717780291502
               }
            }
         },
         "place_id" : "ChIJnYYFhF84dkgRi8z8HnLL9uU",
         "types" : [ "route" ]
      },
      {
         "address_components" : [
            {
               "long_name" : "AL5 2JD",
               "short_name" : "AL5 2JD",
               "types" : [ "postal_code" ]
            },
            {
               "long_name" : "Harpenden",
               "short_name" : "Harpenden",
               "types" : [ "postal_town" ]
            },
            {
               "long_name" : "Hertfordshire",
               "short_name" : "Hertfordshire",
               "types" : [ "administrative_area_level_2", "political" ]
            },
            {
               "long_name" : "England",
               "short_name" : "England",
               "types" : [ "administrative_area_level_1", "political" ]
            },
            {
               "long_name" : "United Kingdom",
               "short_name" : "GB",
               "types" : [ "country", "political" ]
            }
         ],
         "formatted_address" : "Harpenden AL5 2JD, UK",
         "geometry" : {
            "bounds" : {
               "northeast" : {
                  "lat" : 51.8096331,
                  "lng" : -0.3518571
               },
               "southwest" : {
                  "lat" : 51.808226,
                  "lng" : -0.3554338
               }
            },
            "location" : {
               "lat" : 51.8088638,
               "lng" : -0.3548536
            },
            "location_type" : "APPROXIMATE",
            "viewport" : {
               "northeast" : {
                  "lat" : 51.8102785302915,
                  "lng" : -0.3518571
               },
               "southwest" : {
                  "lat" : 51.8075805697085,
                  "lng" : -0.3554338
               }
            }
         },
         "place_id" : "ChIJlyuGb_U4dkgRokNhE2XEbDY",
         "types" : [ "postal_code" ]
      },
      {
         "address_components" : [
            {
               "long_name" : "Harpenden",
               "short_name" : "Harpenden",
               "types" : [ "administrative_area_level_4", "political" ]
            },
            {
               "long_name" : "Hertfordshire",
               "short_name" : "Hertfordshire",
               "types" : [ "administrative_area_level_2", "political" ]
            },
            {
               "long_name" : "England",
               "short_name" : "England",
               "types" : [ "administrative_area_level_1", "political" ]
            },
            {
               "long_name" : "United Kingdom",
               "short_name" : "GB",
               "types" : [ "country", "political" ]
            }
         ],
         "formatted_address" : "Harpenden, UK",
         "geometry" : {
            "bounds" : {
               "northeast" : {
                  "lat" : 51.8398838,
                  "lng" : -0.3253122
               },
               "southwest" : {
                  "lat" : 51.7872491,
                  "lng" : -0.3881317
               }
            },
            "location" : {
               "lat" : 51.8147792,
               "lng" : -0.3510394
            },
            "location_type" : "APPROXIMATE",
            "viewport" : {
               "northeast" : {
                  "lat" : 51.8398838,
                  "lng" : -0.3253122
               },
               "southwest" : {
                  "lat" : 51.7872491,
                  "lng" : -0.3881317
               }
            }
         },
         "place_id" : "ChIJUSAYH144dkgRUarjGfSilmI",
         "types" : [ "administrative_area_level_4", "political" ]
      },
      {
         "address_components" : [
            {
               "long_name" : "Harpenden",
               "short_name" : "Harpenden",
               "types" : [ "locality", "political" ]
            },
            {
               "long_name" : "Harpenden",
               "short_name" : "Harpenden",
               "types" : [ "postal_town" ]
            },
            {
               "long_name" : "Hertfordshire",
               "short_name" : "Hertfordshire",
               "types" : [ "administrative_area_level_2", "political" ]
            },
            {
               "long_name" : "England",
               "short_name" : "England",
               "types" : [ "administrative_area_level_1", "political" ]
            },
            {
               "long_name" : "United Kingdom",
               "short_name" : "GB",
               "types" : [ "country", "political" ]
            },
            {
               "long_name" : "AL5",
               "short_name" : "AL5",
               "types" : [ "postal_code", "postal_code_prefix" ]
            }
         ],
         "formatted_address" : "Harpenden AL5, UK",
         "geometry" : {
            "bounds" : {
               "northeast" : {
                  "lat" : 51.8356807,
                  "lng" : -0.3139465
               },
               "southwest" : {
                  "lat" : 51.7901681,
                  "lng" : -0.4103263
               }
            },
            "location" : {
               "lat" : 51.81845999999999,
               "lng" : -0.358953
            },
            "location_type" : "APPROXIMATE",
            "viewport" : {
               "northeast" : {
                  "lat" : 51.8356807,
                  "lng" : -0.3139465
               },
               "southwest" : {
                  "lat" : 51.7901681,
                  "lng" : -0.4103263
               }
            }
         },
         "place_id" : "ChIJEzx-nws4dkgRcrTnDApA604",
         "types" : [ "locality", "political" ]
      },
      {
         "address_components" : [
            {
               "long_name" : "AL5",
               "short_name" : "AL5",
               "types" : [ "postal_code", "postal_code_prefix" ]
            },
            {
               "long_name" : "Harpenden",
               "short_name" : "Harpenden",
               "types" : [ "postal_town" ]
            },
            {
               "long_name" : "England",
               "short_name" : "England",
               "types" : [ "administrative_area_level_1", "political" ]
            },
            {
               "long_name" : "United Kingdom",
               "short_name" : "GB",
               "types" : [ "country", "political" ]
            }
         ],
         "formatted_address" : "Harpenden AL5, UK",
         "geometry" : {
            "bounds" : {
               "northeast" : {
                  "lat" : 51.8471848,
                  "lng" : -0.3138016
               },
               "southwest" : {
                  "lat" : 51.785757,
                  "lng" : -0.4185251
               }
            },
            "location" : {
               "lat" : 51.820077,
               "lng" : -0.3451342
            },
            "location_type" : "APPROXIMATE",
            "viewport" : {
               "northeast" : {
                  "lat" : 51.8471848,
                  "lng" : -0.3138016
               },
               "southwest" : {
                  "lat" : 51.785757,
                  "lng" : -0.4185251
               }
            }
         },
         "place_id" : "ChIJEzx-nws4dkgR0SwUBZVCKFc",
         "types" : [ "postal_code", "postal_code_prefix" ]
      },
      {
         "address_components" : [
            {
               "long_name" : "Harpenden",
               "short_name" : "Harpenden",
               "types" : [ "postal_town" ]
            },
            {
               "long_name" : "England",
               "short_name" : "England",
               "types" : [ "administrative_area_level_1", "political" ]
            },
            {
               "long_name" : "United Kingdom",
               "short_name" : "GB",
               "types" : [ "country", "political" ]
            },
            {
               "long_name" : "AL5",
               "short_name" : "AL5",
               "types" : [ "postal_code", "postal_code_prefix" ]
            }
         ],
         "formatted_address" : "Harpenden AL5, UK",
         "geometry" : {
            "bounds" : {
               "northeast" : {
                  "lat" : 51.8471848,
                  "lng" : -0.3138016
               },
               "southwest" : {
                  "lat" : 51.785757,
                  "lng" : -0.4185251
               }
            },
            "location" : {
               "lat" : 51.820077,
               "lng" : -0.3451342
            },
            "location_type" : "APPROXIMATE",
            "viewport" : {
               "northeast" : {
                  "lat" : 51.8471848,
                  "lng" : -0.3138016
               },
               "southwest" : {
                  "lat" : 51.785757,
                  "lng" : -0.4185251
               }
            }
         },
         "place_id" : "ChIJf0de9mQ4dkgRvNWopnMR6u0",
         "types" : [ "postal_town" ]
      },
      {
         "address_components" : [
            {
               "long_name" : "Saint Albans District",
               "short_name" : "Saint Albans District",
               "types" : [ "administrative_area_level_3", "political" ]
            },
            {
               "long_name" : "Hertfordshire",
               "short_name" : "Hertfordshire",
               "types" : [ "administrative_area_level_2", "political" ]
            },
            {
               "long_name" : "England",
               "short_name" : "England",
               "types" : [ "administrative_area_level_1", "political" ]
            },
            {
               "long_name" : "United Kingdom",
               "short_name" : "GB",
               "types" : [ "country", "political" ]
            }
         ],
         "formatted_address" : "Saint Albans District, UK",
         "geometry" : {
            "bounds" : {
               "northeast" : {
                  "lat" : 51.8495977,
                  "lng" : -0.2416598
               },
               "southwest" : {
                  "lat" : 51.687552,
                  "lng" : -0.4406073
               }
            },
            "location" : {
               "lat" : 51.7883666,
               "lng" : -0.3566725
            },
            "location_type" : "APPROXIMATE",
            "viewport" : {
               "northeast" : {
                  "lat" : 51.8495977,
                  "lng" : -0.2416598
               },
               "southwest" : {
                  "lat" : 51.687552,
                  "lng" : -0.4406073
               }
            }
         },
         "place_id" : "ChIJH0mmGNM4dkgRIGq-JsaFEQQ",
         "types" : [ "administrative_area_level_3", "political" ]
      },
      {
         "address_components" : [
            {
               "long_name" : "Hertfordshire",
               "short_name" : "Hertfordshire",
               "types" : [ "administrative_area_level_2", "political" ]
            },
            {
               "long_name" : "England",
               "short_name" : "England",
               "types" : [ "administrative_area_level_1", "political" ]
            },
            {
               "long_name" : "United Kingdom",
               "short_name" : "GB",
               "types" : [ "country", "political" ]
            }
         ],
         "formatted_address" : "Hertfordshire, UK",
         "geometry" : {
            "bounds" : {
               "northeast" : {
                  "lat" : 52.08053640000001,
                  "lng" : 0.1955669
               },
               "southwest" : {
                  "lat" : 51.5995826,
                  "lng" : -0.7457891
               }
            },
            "location" : {
               "lat" : 51.80978229999999,
               "lng" : -0.2376744
            },
            "location_type" : "APPROXIMATE",
            "viewport" : {
               "northeast" : {
                  "lat" : 52.08053640000001,
                  "lng" : 0.1955669
               },
               "southwest" : {
                  "lat" : 51.5995826,
                  "lng" : -0.7457891
               }
            }
         },
         "place_id" : "ChIJ2QVt7Kd42EcR7vE0JPBfxEM",
         "types" : [ "administrative_area_level_2", "political" ]
      },
      {
         "address_components" : [
            {
               "long_name" : "England",
               "short_name" : "England",
               "types" : [ "administrative_area_level_1", "political" ]
            },
            {
               "long_name" : "United Kingdom",
               "short_name" : "GB",
               "types" : [ "country", "political" ]
            }
         ],
         "formatted_address" : "England, UK",
         "geometry" : {
            "bounds" : {
               "northeast" : {
                  "lat" : 55.81165979999999,
                  "lng" : 1.7629159
               },
               "southwest" : {
                  "lat" : 49.8647411,
                  "lng" : -6.4185458
               }
            },
            "location" : {
               "lat" : 52.3555177,
               "lng" : -1.1743197
            },
            "location_type" : "APPROXIMATE",
            "viewport" : {
               "northeast" : {
                  "lat" : 55.81165979999999,
                  "lng" : 1.7629159
               },
               "southwest" : {
                  "lat" : 49.8647411,
                  "lng" : -6.4185458
               }
            }
         },
         "place_id" : "ChIJ39UebIqp0EcRqI4tMyWV4fQ",
         "types" : [ "administrative_area_level_1", "political" ]
      },
      {
         "address_components" : [
            {
               "long_name" : "United Kingdom",
               "short_name" : "GB",
               "types" : [ "country", "political" ]
            }
         ],
         "formatted_address" : "United Kingdom",
         "geometry" : {
            "bounds" : {
               "northeast" : {
                  "lat" : 60.91569999999999,
                  "lng" : 33.9165549
               },
               "southwest" : {
                  "lat" : 34.5614,
                  "lng" : -8.8988999
               }
            },
            "location" : {
               "lat" : 55.378051,
               "lng" : -3.435973
            },
            "location_type" : "APPROXIMATE",
            "viewport" : {
               "northeast" : {
                  "lat" : 60.91569999999999,
                  "lng" : 33.9165549
               },
               "southwest" : {
                  "lat" : 34.5614,
                  "lng" : -8.8988999
               }
            }
         },
         "place_id" : "ChIJqZHHQhE7WgIReiWIMkOg-MQ",
         "types" : [ "country", "political" ]
      }
   ],
   "status" : "OK"
}
