{
   "plus_code" : {
      "compound_code" : "FPMH+RM Salford, UK",
      "global_code" : "9C5VFPMH+RM"
   },
   "results" : [
      {
         "address_components" : [
            {
               "long_name" : "School of the Built Environment",
               "short_name" : "School of the Built Environment",
               "types" : [ "premise" ]
            },
            {
               "long_name" : "University of Salford",
               "short_name" : "University of Salford",
               "types" : [ "premise" ]
            },
            {
               "long_name" : "Crescent",
               "short_name" : "Crescent",
               "types" : [ "route" ]
            },
            {
               "long_name" : "Salford",
               "short_name" : "Salford",
               "types" : [ "postal_town" ]
            },
            {
               "long_name" : "Greater Manchester",
               "short_name" : "Greater Manchester",
               "types" : [ "administrative_area_level_2", "political" ]
            },
            {
               "long_name" : "England",
               "short_name" : "England",
               "types" : [ "administrative_area_level_1", "political" ]
            },
            {
               "long_name" : "United Kingdom",
               "short_name" : "GB",
               "types" : [ "country", "political" ]
            },
            {
               "long_name" : "M5 4WT",
               "short_name" : "M5 4WT",
               "types" : [ "postal_code" ]
            }
         ],
         "formatted_address" : "School of the Built Environment, University of Salford, Crescent, Salford M5 4WT, UK",
         "geometry" : {
            "location" : {
               "lat" : 53.48458609999999,
               "lng" : -2.270755
            },
            "location_type" : "ROOFTOP",
            "viewport" : {
               "northeast" : {
                  "lat" : 53.4859350802915,
                  "lng" : -2.269406019708498
               },
               "southwest" : {
                  "lat" : 53.4832371197085,
                  "lng" : -2.272103980291502
               }
            }
         },
         "place_id" : "ChIJk138jyaue0gRqb_O1AWXqAw",
         "plus_code" : {
            "compound_code" : "FPMH+RM Salford, United Kingdom",
            "global_code" : "9C5VFPMH+RM"
         },
         "types" : [ "establishment", "point_of_interest" ]
      },
      {
         "address_components" : [
            {
               "long_name" : "37422",
               "short_name" : "37422",
               "types" : [ "street_number" ]
            },
            {
               "long_name" : "Crescent",
               "short_name" : "Crescent",
               "types" : [ "route" ]
            },
            {
               "long_name" : "Salford",
               "short_name" : "Salford",
               "types" : [ "postal_town" ]
            },
            {
               "long_name" : "Greater Manchester",
               "short_name" : "Greater Manchester",
               "types" : [ "administrative_area_level_2", "political" ]
            },
            {
               "long_name" : "England",
               "short_name" : "England",
               "types" : [ "administrative_area_level_1", "political" ]
            },
            {
               "long_name" : "United Kingdom",
               "short_name" : "GB",
               "types" : [ "country", "political" ]
            },
            {
               "long_name" : "M5 4WT",
               "short_name" : "M5 4WT",
               "types" : [ "postal_code" ]
            }
         ],
         "formatted_address" : "37422 Crescent, Salford M5 4WT, UK",
         "geometry" : {
            "location" : {
               "lat" : 53.48416479999999,
               "lng" : -2.2712593
            },
            "location_type" : "ROOFTOP",
            "viewport" : {
               "northeast" : {
                  "lat" : 53.4855137802915,
                  "lng" : -2.269910319708498
               },
               "southwest" : {
                  "lat" : 53.4828158197085,
                  "lng" : -2.272608280291502
               }
            }
         },
         "place_id" : "ChIJIba9niaue0gRUXVPyOHffI4",
         "plus_code" : {
            "compound_code" : "FPMH+MF Salford, United Kingdom",
            "global_code" : "9C5VFPMH+MF"
         },
         "types" : [ "street_address" ]
      },
      {
         "address_components" : [
            {
               "long_name" : "37422",
               "short_name" : "37422",
               "types" : [ "street_number" ]
            },
            {
               "long_name" : "Crescent",
               "short_name" : "Crescent",
               "types" : [ "route" ]
            },
            {
               "long_name" : "Salford",
               "short_name" : "Salford",
               "types" : [ "postal_town" ]
            },
            {
               "long_name" : "United Kingdom",
               "short_name" : "GB",
               "types" : [ "country", "political" ]
            }
         ],
         "formatted_address" : "37422 Crescent, Salford, UK",
         "geometry" : {
            "location" : {
               "lat" : 53.4841589,
               "lng" : -2.2713142
            },
            "location_type" : "RANGE_INTERPOLATED",
            "viewport" : {
               "northeast" : {
                  "lat" : 53.48550788029149,
                  "lng" : -2.269965219708498
               },
               "southwest" : {
                  "lat" : 53.4828099197085,
                  "lng" : -2.272663180291502
               }
            }
         },
         "place_id" : "EhszNzQyMiBDcmVzY2VudCwgU2FsZm9yZCwgVUsiHBIaChQKEgmN0I6eJq57SBFzjwrGw7vNCxCupAI",
         "types" : [ "street_address" ]
      },
      {
         "address_components" : [
            {
               "long_name" : "M5 4WU",
               "short_name" : "M5 4WU",
               "types" : [ "postal_code" ]
            },
            {
               "long_name" : "Salford",
               "short_name" : "Salford",
               "types" : [ "postal_town" ]
            },
            {
               "long_name" : "Greater Manchester",
               "short_name" : "Greater Manchester",
               "types" : [ "administrative_area_level_2", "political" ]
            },
            {
               "long_name" : "England",
               "short_name" : "England",
               "types" : [ "administrative_area_level_1", "political" ]
            },
            {
               "long_name" : "United Kingdom",
               "short_name" : "GB",
               "types" : [ "country", "political" ]
            }
         ],
         "formatted_address" : "Salford M5 4WU, UK",
         "geometry" : {
            "bounds" : {
               "northeast" : {
                  "lat" : 53.4874942,
                  "lng" : -2.2689572
               },
               "southwest" : {
                  "lat" : 53.48437000000001,
                  "lng" : -2.2738232
               }
            },
            "location" : {
               "lat" : 53.4851566,
               "lng" : -2.2717917
            },
            "location_type" : "APPROXIMATE",
            "viewport" : {
               "northeast" : {
                  "lat" : 53.4874942,
                  "lng" : -2.2689572
               },
               "southwest" : {
                  "lat" : 53.48437000000001,
                  "lng" : -2.2738232
               }
            }
         },
         "place_id" : "ChIJWfHCKiSue0gRhfusvCZIkXo",
         "types" : [ "postal_code" ]
      },
      {
         "address_components" : [
            {
               "long_name" : "M5",
               "short_name" : "M5",
               "types" : [ "postal_code", "postal_code_prefix" ]
            },
            {
               "long_name" : "Salford",
               "short_name" : "Salford",
               "types" : [ "postal_town" ]
            },
            {
               "long_name" : "Greater Manchester",
               "short_name" : "Greater Manchester",
               "types" : [ "administrative_area_level_2", "political" ]
            },
            {
               "long_name" : "England",
               "short_name" : "England",
               "types" : [ "administrative_area_level_1", "political" ]
            },
            {
               "long_name" : "United Kingdom",
               "short_name" : "GB",
               "types" : [ "country", "political" ]
            }
         ],
         "formatted_address" : "Salford M5, UK",
         "geometry" : {
            "bounds" : {
               "northeast" : {
                  "lat" : 53.490376,
                  "lng" : -2.256361
               },
               "southwest" : {
                  "lat" : 53.46493719999999,
                  "lng" : -2.3299403
               }
            },
            "location" : {
               "lat" : 53.4796425,
               "lng" : -2.2810639
            },
            "location_type" : "APPROXIMATE",
            "viewport" : {
               "northeast" : {
                  "lat" : 53.490376,
                  "lng" : -2.256361
               },
               "southwest" : {
                  "lat" : 53.46493719999999,
                  "lng" : -2.3299403
               }
            }
         },
         "place_id" : "ChIJEVdF_g2ue0gRXkpo4zmLlQM",
         "types" : [ "postal_code", "postal_code_prefix" ]
      },
      {
         "address_components" : [
            {
               "long_name" : "Salford",
               "short_name" : "Salford",
               "types" : [ "locality", "political" ]
            },
            {
               "long_name" : "Greater Manchester",
               "short_name" : "Greater Manchester",
               "types" : [ "administrative_area_level_2", "political" ]
            },
            {
               "long_name" : "England",
               "short_name" : "England",
               "types" : [ "administrative_area_level_1", "political" ]
            },
            {
               "long_name" : "United Kingdom",
               "short_name" : "GB",
               "types" : [ "country", "political" ]
            }
         ],
         "formatted_address" : "Salford, UK",
         "geometry" : {
            "bounds" : {
               "northeast" : {
                  "lat" : 53.51842809999999,
                  "lng" : -2.2451382
               },
               "southwest" : {
                  "lat" : 53.4648608,
                  "lng" : -2.3310829
               }
            },
            "location" : {
               "lat" : 53.48752349999999,
               "lng" : -2.2901264
            },
            "location_type" : "APPROXIMATE",
            "viewport" : {
               "northeast" : {
                  "lat" : 53.51842809999999,
                  "lng" : -2.2451382
               },
               "southwest" : {
                  "lat" : 53.4648608,
                  "lng" : -2.3310829
               }
            }
         },
         "place_id" : "ChIJEVdF_g2ue0gRFtj1WL_-9G0",
         "types" : [ "locality", "political" ]
      },
      {
         "address_components" : [
            {
               "long_name" : "Salford",
               "short_name" : "Salford",
               "types" : [ "postal_town" ]
            },
            {
               "long_name" : "Greater Manchester",
               "short_name" : "Greater Manchester",
               "types" : [ "administrative_area_level_2", "political" ]
            },
            {
               "long_name" : "England",
               "short_name" : "England",
               "types" : [ "administrative_area_level_1", "political" ]
            },
            {
               "long_name" : "United Kingdom",
               "short_name" : "GB",
               "types" : [ "country", "political" ]
            }
         ],
         "formatted_address" : "Salford, UK",
         "geometry" : {
            "bounds" : {
               "northeast" : {
                  "lat" : 53.5183844,
                  "lng" : -2.2446742
               },
               "southwest" : {
                  "lat" : 53.46493719999999,
                  "lng" : -2.3311568
               }
            },
            "location" : {
               "lat" : 53.48780439999999,
               "lng" : -2.2784557
            },
            "location_type" : "APPROXIMATE",
            "viewport" : {
               "northeast" : {
                  "lat" : 53.5183844,
                  "lng" : -2.2446742
               },
               "southwest" : {
                  "lat" : 53.46493719999999,
                  "lng" : -2.3311568
               }
            }
         },
         "place_id" : "ChIJD9y18jaue0gRPRQglU-_4jA",
         "types" : [ "postal_town" ]
      },
      {
         "address_components" : [
            {
               "long_name" : "Salford District",
               "short_name" : "Salford District",
               "types" : [ "administrative_area_level_3", "political" ]
            },
            {
               "long_name" : "Greater Manchester",
               "short_name" : "Greater Manchester",
               "types" : [ "administrative_area_level_2", "political" ]
            },
            {
               "long_name" : "England",
               "short_name" : "England",
               "types" : [ "administrative_area_level_1", "political" ]
            },
            {
               "long_name" : "United Kingdom",
               "short_name" : "GB",
               "types" : [ "country", "political" ]
            }
         ],
         "formatted_address" : "Salford District, UK",
         "geometry" : {
            "bounds" : {
               "northeast" : {
                  "lat" : 53.5421225,
                  "lng" : -2.2451065
               },
               "southwest" : {
                  "lat" : 53.41587500000001,
                  "lng" : -2.4897313
               }
            },
            "location" : {
               "lat" : 53.4857577,
               "lng" : -2.3835945
            },
            "location_type" : "APPROXIMATE",
            "viewport" : {
               "northeast" : {
                  "lat" : 53.5421225,
                  "lng" : -2.2451065
               },
               "southwest" : {
                  "lat" : 53.41587500000001,
                  "lng" : -2.4897313
               }
            }
         },
         "place_id" : "ChIJP5NeEsuue0gRsDNpWLxiEAQ",
         "types" : [ "administrative_area_level_3", "political" ]
      },
      {
         "address_components" : [
            {
               "long_name" : "Greater Manchester",
               "short_name" : "Greater Manchester",
               "types" : [ "administrative_area_level_2", "locality", "political" ]
            },
            {
               "long_name" : "England",
               "short_name" : "England",
               "types" : [ "administrative_area_level_1", "political" ]
            },
            {
               "long_name" : "United Kingdom",
               "short_name" : "GB",
               "types" : [ "country", "political" ]
            }
         ],
         "formatted_address" : "Greater Manchester, UK",
         "geometry" : {
            "bounds" : {
               "northeast" : {
                  "lat" : 53.6857188,
                  "lng" : -1.9096223
               },
               "southwest" : {
                  "lat" : 53.3272977,
                  "lng" : -2.7305208
               }
            },
            "location" : {
               "lat" : 53.4575955,
               "lng" : -2.1578377
            },
            "location_type" : "APPROXIMATE",
            "viewport" : {
               "northeast" : {
                  "lat" : 53.6857188,
                  "lng" : -1.9096223
               },
               "southwest" : {
                  "lat" : 53.3272977,
                  "lng" : -2.7305208
               }
            }
         },
         "place_id" : "ChIJsS6I01Sme0gRgYDGISLYxyw",
         "types" : [ "administrative_area_level_2", "locality", "political" ]
      },
      {
         "address_components" : [
            {
               "long_name" : "England",
               "short_name" : "England",
               "types" : [ "administrative_area_level_1", "political" ]
            },
            {
               "long_name" : "United Kingdom",
               "short_name" : "GB",
               "types" : [ "country", "political" ]
            }
         ],
         "formatted_address" : "England, UK",
         "geometry" : {
            "bounds" : {
               "northeast" : {
                  "lat" : 55.81165979999999,
                  "lng" : 1.7629159
               },
               "southwest" : {
                  "lat" : 49.8647411,
                  "lng" : -6.4185458
               }
            },
            "location" : {
               "lat" : 52.3555177,
               "lng" : -1.1743197
            },
            "location_type" : "APPROXIMATE",
            "viewport" : {
               "northeast" : {
                  "lat" : 55.81165979999999,
                  "lng" : 1.7629159
               },
               "southwest" : {
                  "lat" : 49.8647411,
                  "lng" : -6.4185458
               }
            }
         },
         "place_id" : "ChIJ39UebIqp0EcRqI4tMyWV4fQ",
         "types" : [ "administrative_area_level_1", "political" ]
      },
      {
         "address_components" : [
            {
               "long_name" : "United Kingdom",
               "short_name" : "GB",
               "types" : [ "country", "political" ]
            }
         ],
         "formatted_address" : "United Kingdom",
         "geometry" : {
            "bounds" : {
               "northeast" : {
                  "lat" : 60.91569999999999,
                  "lng" : 33.9165549
               },
               "southwest" : {
                  "lat" : 34.5614,
                  "lng" : -8.8988999
               }
            },
            "location" : {
               "lat" : 55.378051,
               "lng" : -3.435973
            },
            "location_type" : "APPROXIMATE",
            "viewport" : {
               "northeast" : {
                  "lat" : 60.91569999999999,
                  "lng" : 33.9165549
               },
               "southwest" : {
                  "lat" : 34.5614,
                  "lng" : -8.8988999
               }
            }
         },
         "place_id" : "ChIJqZHHQhE7WgIReiWIMkOg-MQ",
         "types" : [ "country", "political" ]
      }
   ],
   "status" : "OK"
}
