{
   "plus_code" : {
      "compound_code" : "G93W+X8 Cleveland, OH, USA",
      "global_code" : "86HWG93W+X8"
   },
   "results" : [
      {
         "address_components" : [
            {
               "long_name" : "2109",
               "short_name" : "2109",
               "types" : [ "street_number" ]
            },
            {
               "long_name" : "Adelbert Road",
               "short_name" : "Adelbert Rd",
               "types" : [ "route" ]
            },
            {
               "long_name" : "University Circle",
               "short_name" : "University Circle",
               "types" : [ "neighborhood", "political" ]
            },
            {
               "long_name" : "Cleveland",
               "short_name" : "Cleveland",
               "types" : [ "locality", "political" ]
            },
            {
               "long_name" : "Cuyahoga County",
               "short_name" : "Cuyahoga County",
               "types" : [ "administrative_area_level_2", "political" ]
            },
            {
               "long_name" : "Ohio",
               "short_name" : "OH",
               "types" : [ "administrative_area_level_1", "political" ]
            },
            {
               "long_name" : "United States",
               "short_name" : "US",
               "types" : [ "country", "political" ]
            },
            {
               "long_name" : "44106",
               "short_name" : "44106",
               "types" : [ "postal_code" ]
            }
         ],
         "formatted_address" : "2109 Adelbert Rd, Cleveland, OH 44106, USA",
         "geometry" : {
            "location" : {
               "lat" : 41.504917,
               "lng" : -81.6041577
            },
            "location_type" : "ROOFTOP",
            "viewport" : {
               "northeast" : {
                  "lat" : 41.5062659802915,
                  "lng" : -81.60280871970849
               },
               "southwest" : {
                  "lat" : 41.5035680197085,
                  "lng" : -81.6055066802915
               }
            }
         },
         "place_id" : "ChIJS3NibIb7MIgRPhwQpkbXgng",
         "plus_code" : {
            "compound_code" : "G93W+X8 Cleveland, Ohio, United States",
            "global_code" : "86HWG93W+X8"
         },
         "types" : [ "establishment", "health", "point_of_interest", "university" ]
      },
      {
         "address_components" : [
            {
               "long_name" : "2109",
               "short_name" : "2109",
               "types" : [ "street_number" ]
            },
            {
               "long_name" : "Adelbert Road",
               "short_name" : "Adelbert Rd",
               "types" : [ "route" ]
            },
            {
               "long_name" : "University Circle",
               "short_name" : "University Circle",
               "types" : [ "neighborhood", "political" ]
            },
            {
               "long_name" : "Cleveland",
               "short_name" : "Cleveland",
               "types" : [ "locality", "political" ]
            },
            {
               "long_name" : "Cuyahoga County",
               "short_name" : "Cuyahoga County",
               "types" : [ "administrative_area_level_2", "political" ]
            },
            {
               "long_name" : "Ohio",
               "short_name" : "OH",
               "types" : [ "administrative_area_level_1", "political" ]
            },
            {
               "long_name" : "United States",
               "short_name" : "US",
               "types" : [ "country", "political" ]
            },
            {
               "long_name" : "44106",
               "short_name" : "44106",
               "types" : [ "postal_code" ]
            }
         ],
         "formatted_address" : "2109 Adelbert Rd, Cleveland, OH 44106, USA",
         "geometry" : {
            "location" : {
               "lat" : 41.5048934,
               "lng" : -81.60403669999999
            },
            "location_type" : "ROOFTOP",
            "viewport" : {
               "northeast" : {
                  "lat" : 41.5062423802915,
                  "lng" : -81.60268771970848
               },
               "southwest" : {
                  "lat" : 41.5035444197085,
                  "lng" : -81.60538568029149
               }
            }
         },
         "place_id" : "ChIJ_4pUGIj7MIgRH4Po2wRziPo",
         "plus_code" : {
            "compound_code" : "G93W+X9 Cleveland, Ohio, United States",
            "global_code" : "86HWG93W+X9"
         },
         "types" : [ "street_address" ]
      },
      {
         "address_components" : [
            {
               "long_name" : "Unnamed Road",
               "short_name" : "Unnamed Road",
               "types" : [ "route" ]
            },
            {
               "long_name" : "University Circle",
               "short_name" : "University Circle",
               "types" : [ "neighborhood", "political" ]
            },
            {
               "long_name" : "Cleveland",
               "short_name" : "Cleveland",
               "types" : [ "locality", "political" ]
            },
            {
               "long_name" : "Cuyahoga County",
               "short_name" : "Cuyahoga County",
               "types" : [ "administrative_area_level_2", "political" ]
            },
            {
               "long_name" : "Ohio",
               "short_name" : "OH",
               "types" : [ "administrative_area_level_1", "political" ]
            },
            {
               "long_name" : "United States",
               "short_name" : "US",
               "types" : [ "country", "political" ]
            },
            {
               "long_name" : "44106",
               "short_name" : "44106",
               "types" : [ "postal_code" ]
            }
         ],
         "formatted_address" : "Unnamed Road, Cleveland, OH 44106, USA",
         "geometry" : {
            "bounds" : {
               "northeast" : {
                  "lat" : 41.5049945,
                  "lng" : -81.60355249999999
               },
               "southwest" : {
                  "lat" : 41.504498,
                  "lng" : -81.6045994
               }
            },
            "location" : {
               "lat" : 41.5047462,
               "lng" : -81.60407599999999
            },
            "location_type" : "GEOMETRIC_CENTER",
            "viewport" : {
               "northeast" : {
                  "lat" : 41.50609523029149,
                  "lng" : -81.6027269697085
               },
               "southwest" : {
                  "lat" : 41.5033972697085,
                  "lng" : -81.60542493029151
               }
            }
         },
         "place_id" : "ChIJR6gsGoj7MIgRzj71-_GLxa8",
         "types" : [ "route" ]
      },
      {
         "address_components" : [
            {
               "long_name" : "University Circle",
               "short_name" : "University Circle",
               "types" : [ "neighborhood", "political" ]
            },
            {
               "long_name" : "Cleveland",
               "short_name" : "Cleveland",
               "types" : [ "locality", "political" ]
            },
            {
               "long_name" : "Cuyahoga County",
               "short_name" : "Cuyahoga County",
               "types" : [ "administrative_area_level_2", "political" ]
            },
            {
               "long_name" : "Ohio",
               "short_name" : "OH",
               "types" : [ "administrative_area_level_1", "political" ]
            },
            {
               "long_name" : "United States",
               "short_name" : "US",
               "types" : [ "country", "political" ]
            }
         ],
         "formatted_address" : "University Circle, Cleveland, OH, USA",
         "geometry" : {
            "bounds" : {
               "northeast" : {
                  "lat" : 41.5177389,
                  "lng" : -81.59442009999999
               },
               "southwest" : {
                  "lat" : 41.4891758,
                  "lng" : -81.61543469999999
               }
            },
            "location" : {
               "lat" : 41.5091257,
               "lng" : -81.6089873
            },
            "location_type" : "APPROXIMATE",
            "viewport" : {
               "northeast" : {
                  "lat" : 41.5177389,
                  "lng" : -81.59442009999999
               },
               "southwest" : {
                  "lat" : 41.4891758,
                  "lng" : -81.61543469999999
               }
            }
         },
         "place_id" : "ChIJdYQRjIj7MIgRBvRhCnx1z4s",
         "types" : [ "neighborhood", "political" ]
      },
      {
         "address_components" : [
            {
               "long_name" : "44106",
               "short_name" : "44106",
               "types" : [ "postal_code" ]
            },
            {
               "long_name" : "Cleveland",
               "short_name" : "Cleveland",
               "types" : [ "locality", "political" ]
            },
            {
               "long_name" : "Cuyahoga County",
               "short_name" : "Cuyahoga County",
               "types" : [ "administrative_area_level_2", "political" ]
            },
            {
               "long_name" : "Ohio",
               "short_name" : "OH",
               "types" : [ "administrative_area_level_1", "political" ]
            },
            {
               "long_name" : "United States",
               "short_name" : "US",
               "types" : [ "country", "political" ]
            }
         ],
         "formatted_address" : "Cleveland, OH 44106, USA",
         "geometry" : {
            "bounds" : {
               "northeast" : {
                  "lat" : 41.523641,
                  "lng" : -81.5799469
               },
               "southwest" : {
                  "lat" : 41.49023400000001,
                  "lng" : -81.62962379999999
               }
            },
            "location" : {
               "lat" : 41.5091257,
               "lng" : -81.6089873
            },
            "location_type" : "APPROXIMATE",
            "viewport" : {
               "northeast" : {
                  "lat" : 41.523641,
                  "lng" : -81.5799469
               },
               "southwest" : {
                  "lat" : 41.49023400000001,
                  "lng" : -81.62962379999999
               }
            }
         },
         "place_id" : "ChIJvTAXVYj7MIgRHD1EO49EXrg",
         "postcode_localities" : [ "Cleveland", "Cleveland Heights" ],
         "types" : [ "postal_code" ]
      },
      {
         "address_components" : [
            {
               "long_name" : "Cleveland",
               "short_name" : "Cleveland",
               "types" : [ "locality", "political" ]
            },
            {
               "long_name" : "Cuyahoga County",
               "short_name" : "Cuyahoga County",
               "types" : [ "administrative_area_level_2", "political" ]
            },
            {
               "long_name" : "Ohio",
               "short_name" : "OH",
               "types" : [ "administrative_area_level_1", "political" ]
            },
            {
               "long_name" : "United States",
               "short_name" : "US",
               "types" : [ "country", "political" ]
            }
         ],
         "formatted_address" : "Cleveland, OH, USA",
         "geometry" : {
            "bounds" : {
               "northeast" : {
                  "lat" : 41.604436,
                  "lng" : -81.5327439
               },
               "southwest" : {
                  "lat" : 41.390628,
                  "lng" : -81.87897599999999
               }
            },
            "location" : {
               "lat" : 41.49932,
               "lng" : -81.6943605
            },
            "location_type" : "APPROXIMATE",
            "viewport" : {
               "northeast" : {
                  "lat" : 41.604436,
                  "lng" : -81.5327439
               },
               "southwest" : {
                  "lat" : 41.390628,
                  "lng" : -81.87897599999999
               }
            }
         },
         "place_id" : "ChIJLWto4y7vMIgRQhhi91XLBO0",
         "types" : [ "locality", "political" ]
      },
      {
         "address_components" : [
            {
               "long_name" : "Cuyahoga County",
               "short_name" : "Cuyahoga County",
               "types" : [ "administrative_area_level_2", "political" ]
            },
            {
               "long_name" : "Ohio",
               "short_name" : "OH",
               "types" : [ "administrative_area_level_1", "political" ]
            },
            {
               "long_name" : "United States",
               "short_name" : "US",
               "types" : [ "country", "political" ]
            }
         ],
         "formatted_address" : "Cuyahoga County, OH, USA",
         "geometry" : {
            "bounds" : {
               "northeast" : {
                  "lat" : 42.0964021,
                  "lng" : -81.37477179999999
               },
               "southwest" : {
                  "lat" : 41.27504400000001,
                  "lng" : -81.971262
               }
            },
            "location" : {
               "lat" : 41.433923,
               "lng" : -81.67582
            },
            "location_type" : "APPROXIMATE",
            "viewport" : {
               "northeast" : {
                  "lat" : 42.0964021,
                  "lng" : -81.37477179999999
               },
               "southwest" : {
                  "lat" : 41.27504400000001,
                  "lng" : -81.971262
               }
            }
         },
         "place_id" : "ChIJi7Vw1sX5MIgRatMgBe159Z8",
         "types" : [ "administrative_area_level_2", "political" ]
      },
      {
         "address_components" : [
            {
               "long_name" : "Ohio",
               "short_name" : "Ohio",
               "types" : [ "administrative_area_level_1", "political" ]
            },
            {
               "long_name" : "United States",
               "short_name" : "US",
               "types" : [ "country", "political" ]
            }
         ],
         "formatted_address" : "Ohio, USA",
         "geometry" : {
            "bounds" : {
               "northeast" : {
                  "lat" : 42.327132,
                  "lng" : -80.51819999999999
               },
               "southwest" : {
                  "lat" : 38.4034229,
                  "lng" : -84.8203049
               }
            },
            "location" : {
               "lat" : 40.4172871,
               "lng" : -82.90712300000001
            },
            "location_type" : "APPROXIMATE",
            "viewport" : {
               "northeast" : {
                  "lat" : 42.327132,
                  "lng" : -80.51819999999999
               },
               "southwest" : {
                  "lat" : 38.4034229,
                  "lng" : -84.8203049
               }
            }
         },
         "place_id" : "ChIJwY5NtXrpNogRFtmfnDlkzeU",
         "types" : [ "administrative_area_level_1", "political" ]
      },
      {
         "address_components" : [
            {
               "long_name" : "United States",
               "short_name" : "US",
               "types" : [ "country", "political" ]
            }
         ],
         "formatted_address" : "United States",
         "geometry" : {
            "bounds" : {
               "northeast" : {
                  "lat" : 71.5388001,
                  "lng" : -66.885417
               },
               "southwest" : {
                  "lat" : 18.7763,
                  "lng" : 170.5957
               }
            },
            "location" : {
               "lat" : 37.09024,
               "lng" : -95.712891
            },
            "location_type" : "APPROXIMATE",
            "viewport" : {
               "northeast" : {
                  "lat" : 71.5388001,
                  "lng" : -66.885417
               },
               "southwest" : {
                  "lat" : 18.7763,
                  "lng" : 170.5957
               }
            }
         },
         "place_id" : "ChIJCzYy5IS16lQRQrfeQ5K5Oxw",
         "types" : [ "country", "political" ]
      }
   ],
   "status" : "OK"
}
