{
   "results" : [
      {
         "address_components" : [
            {
               "long_name" : "9",
               "short_name" : "9",
               "types" : [ "street_number" ]
            },
            {
               "long_name" : "Calle Universidad de Córdoba",
               "short_name" : "Calle Universidad de Córdoba",
               "types" : [ "route" ]
            },
            {
               "long_name" : "Córdoba",
               "short_name" : "Córdoba",
               "types" : [ "locality", "political" ]
            },
            {
               "long_name" : "Córdoba",
               "short_name" : "Córdoba",
               "types" : [ "administrative_area_level_2", "political" ]
            },
            {
               "long_name" : "Andalucía",
               "short_name" : "AL",
               "types" : [ "administrative_area_level_1", "political" ]
            },
            {
               "long_name" : "Spain",
               "short_name" : "ES",
               "types" : [ "country", "political" ]
            },
            {
               "long_name" : "14014",
               "short_name" : "14014",
               "types" : [ "postal_code" ]
            }
         ],
         "formatted_address" : "Calle Universidad de Córdoba, 9, 14014 Córdoba, Spain",
         "geometry" : {
            "location" : {
               "lat" : 37.90795749999999,
               "lng" : -4.7265341
            },
            "location_type" : "RANGE_INTERPOLATED",
            "viewport" : {
               "northeast" : {
                  "lat" : 37.9093064802915,
                  "lng" : -4.725185119708498
               },
               "southwest" : {
                  "lat" : 37.9066085197085,
                  "lng" : -4.727883080291503
               }
            }
         },
         "place_id" : "EjlDYWxsZSBVbml2ZXJzaWRhZCBkZSBDw7NyZG9iYSwgOSwgMTQwMTQgQ8OzcmRvYmEsIEVzcGHDsWEiGhIYChQKEgmZHsqzdeBsDRGIZbIxrnSSNBAJ",
         "types" : [ "street_address" ]
      },
      {
         "address_components" : [
            {
               "long_name" : "14014",
               "short_name" : "14014",
               "types" : [ "postal_code" ]
            },
            {
               "long_name" : "Córdoba",
               "short_name" : "Córdoba",
               "types" : [ "locality", "political" ]
            },
            {
               "long_name" : "Córdoba",
               "short_name" : "Córdoba",
               "types" : [ "administrative_area_level_2", "political" ]
            },
            {
               "long_name" : "Andalusia",
               "short_name" : "AL",
               "types" : [ "administrative_area_level_1", "political" ]
            },
            {
               "long_name" : "Spain",
               "short_name" : "ES",
               "types" : [ "country", "political" ]
            }
         ],
         "formatted_address" : "14014 Córdoba, Spain",
         "geometry" : {
            "bounds" : {
               "northeast" : {
                  "lat" : 37.947762,
                  "lng" : -4.6986681
               },
               "southwest" : {
                  "lat" : 37.8737204,
                  "lng" : -4.7813915
               }
            },
            "location" : {
               "lat" : 37.9151058,
               "lng" : -4.738101299999999
            },
            "location_type" : "APPROXIMATE",
            "viewport" : {
               "northeast" : {
                  "lat" : 37.947762,
                  "lng" : -4.6986681
               },
               "southwest" : {
                  "lat" : 37.8737204,
                  "lng" : -4.7813915
               }
            }
         },
         "place_id" : "ChIJm258_1rhbA0RkCB94XvSAxw",
         "types" : [ "postal_code" ]
      },
      {
         "address_components" : [
            {
               "long_name" : "Córdoba",
               "short_name" : "Córdoba",
               "types" : [ "administrative_area_level_4", "political" ]
            },
            {
               "long_name" : "Córdoba",
               "short_name" : "Córdoba",
               "types" : [ "administrative_area_level_3", "political" ]
            },
            {
               "long_name" : "Córdoba",
               "short_name" : "Córdoba",
               "types" : [ "administrative_area_level_2", "political" ]
            },
            {
               "long_name" : "Andalusia",
               "short_name" : "AL",
               "types" : [ "administrative_area_level_1", "political" ]
            },
            {
               "long_name" : "Spain",
               "short_name" : "ES",
               "types" : [ "country", "political" ]
            }
         ],
         "formatted_address" : "Córdoba, Spain",
         "geometry" : {
            "bounds" : {
               "northeast" : {
                  "lat" : 38.03151709999999,
                  "lng" : -4.351428299999999
               },
               "southwest" : {
                  "lat" : 37.6658228,
                  "lng" : -4.9985994
               }
            },
            "location" : {
               "lat" : 37.8882127,
               "lng" : -4.7794143
            },
            "location_type" : "APPROXIMATE",
            "viewport" : {
               "northeast" : {
                  "lat" : 38.03151709999999,
                  "lng" : -4.351428299999999
               },
               "southwest" : {
                  "lat" : 37.6658228,
                  "lng" : -4.9985994
               }
            }
         },
         "place_id" : "ChIJMXsPe3vfbA0RvJnChyc91oc",
         "types" : [ "administrative_area_level_4", "political" ]
      },
      {
         "address_components" : [
            {
               "long_name" : "Córdoba",
               "short_name" : "Córdoba",
               "types" : [ "administrative_area_level_3", "political" ]
            },
            {
               "long_name" : "Córdoba",
               "short_name" : "Córdoba",
               "types" : [ "administrative_area_level_2", "political" ]
            },
            {
               "long_name" : "Andalucía",
               "short_name" : "AL",
               "types" : [ "administrative_area_level_1", "political" ]
            },
            {
               "long_name" : "Spain",
               "short_name" : "ES",
               "types" : [ "country", "political" ]
            }
         ],
         "formatted_address" : "Córdoba, Spain",
         "geometry" : {
            "bounds" : {
               "northeast" : {
                  "lat" : 38.0327947,
                  "lng" : -4.3492178
               },
               "southwest" : {
                  "lat" : 37.665823,
                  "lng" : -4.9985998
               }
            },
            "location" : {
               "lat" : 37.8882608,
               "lng" : -4.7794409
            },
            "location_type" : "APPROXIMATE",
            "viewport" : {
               "northeast" : {
                  "lat" : 38.0327947,
                  "lng" : -4.3492178
               },
               "southwest" : {
                  "lat" : 37.665823,
                  "lng" : -4.9985998
               }
            }
         },
         "place_id" : "ChIJAcvlLloebQ0R8bDU5vSb8xI",
         "types" : [ "administrative_area_level_3", "political" ]
      },
      {
         "address_components" : [
            {
               "long_name" : "Córdoba",
               "short_name" : "Córdoba",
               "types" : [ "administrative_area_level_2", "political" ]
            },
            {
               "long_name" : "Andalusia",
               "short_name" : "AL",
               "types" : [ "administrative_area_level_1", "political" ]
            },
            {
               "long_name" : "Spain",
               "short_name" : "ES",
               "types" : [ "country", "political" ]
            }
         ],
         "formatted_address" : "Córdoba, Spain",
         "geometry" : {
            "bounds" : {
               "northeast" : {
                  "lat" : 38.7290872,
                  "lng" : -4.0008212
               },
               "southwest" : {
                  "lat" : 37.184331,
                  "lng" : -5.585924
               }
            },
            "location" : {
               "lat" : 37.8882939,
               "lng" : -4.7794736
            },
            "location_type" : "APPROXIMATE",
            "viewport" : {
               "northeast" : {
                  "lat" : 38.7290872,
                  "lng" : -4.0008212
               },
               "southwest" : {
                  "lat" : 37.184331,
                  "lng" : -5.585924
               }
            }
         },
         "place_id" : "ChIJm30-GKPebA0REMp1pXjSAwM",
         "types" : [ "administrative_area_level_2", "political" ]
      },
      {
         "address_components" : [
            {
               "long_name" : "Andalusia",
               "short_name" : "AL",
               "types" : [ "administrative_area_level_1", "political" ]
            },
            {
               "long_name" : "Spain",
               "short_name" : "ES",
               "types" : [ "country", "political" ]
            }
         ],
         "formatted_address" : "Andalusia, Spain",
         "geometry" : {
            "bounds" : {
               "northeast" : {
                  "lat" : 38.7290872,
                  "lng" : -1.6301238
               },
               "southwest" : {
                  "lat" : 35.9376148,
                  "lng" : -7.522877500000001
               }
            },
            "location" : {
               "lat" : 37.5442706,
               "lng" : -4.7277528
            },
            "location_type" : "APPROXIMATE",
            "viewport" : {
               "northeast" : {
                  "lat" : 38.7290872,
                  "lng" : -1.6301238
               },
               "southwest" : {
                  "lat" : 35.9376148,
                  "lng" : -7.522877500000001
               }
            }
         },
         "place_id" : "ChIJRcWdz7HZEQ0RD_Pxd01lycE",
         "types" : [ "administrative_area_level_1", "political" ]
      },
      {
         "address_components" : [
            {
               "long_name" : "Spain",
               "short_name" : "ES",
               "types" : [ "country", "political" ]
            }
         ],
         "formatted_address" : "Spain",
         "geometry" : {
            "bounds" : {
               "northeast" : {
                  "lat" : 43.8504,
                  "lng" : 4.6362
               },
               "southwest" : {
                  "lat" : 27.4985,
                  "lng" : -18.2648001
               }
            },
            "location" : {
               "lat" : 40.46366700000001,
               "lng" : -3.74922
            },
            "location_type" : "APPROXIMATE",
            "viewport" : {
               "northeast" : {
                  "lat" : 45.244,
                  "lng" : 5.098
               },
               "southwest" : {
                  "lat" : 35.17300000000001,
                  "lng" : -12.524
               }
            }
         },
         "place_id" : "ChIJi7xhMnjjQgwR7KNoB5Qs7KY",
         "types" : [ "country", "political" ]
      }
   ],
   "status" : "OK"
}
