{
   "results" : [
      {
         "address_components" : [
            {
               "long_name" : "325",
               "short_name" : "325",
               "types" : [ "street_number" ]
            },
            {
               "long_name" : "Calle 26",
               "short_name" : "Calle 26",
               "types" : [ "route" ]
            },
            {
               "long_name" : "Pinzón II",
               "short_name" : "Pinzón II",
               "types" : [ "political", "sublocality", "sublocality_level_1" ]
            },
            {
               "long_name" : "Mérida",
               "short_name" : "Mérida",
               "types" : [ "locality", "political" ]
            },
            {
               "long_name" : "Merida",
               "short_name" : "Merida",
               "types" : [ "administrative_area_level_2", "political" ]
            },
            {
               "long_name" : "Yucatán",
               "short_name" : "Yuc.",
               "types" : [ "administrative_area_level_1", "political" ]
            },
            {
               "long_name" : "Mexico",
               "short_name" : "MX",
               "types" : [ "country", "political" ]
            },
            {
               "long_name" : "97205",
               "short_name" : "97205",
               "types" : [ "postal_code" ]
            }
         ],
         "formatted_address" : "Calle 26 325, Pinzón II, 97205 Mérida, Yuc., Mexico",
         "geometry" : {
            "location" : {
               "lat" : 21.0289756,
               "lng" : -89.63767109999999
            },
            "location_type" : "ROOFTOP",
            "viewport" : {
               "northeast" : {
                  "lat" : 21.0303245802915,
                  "lng" : -89.6363221197085
               },
               "southwest" : {
                  "lat" : 21.0276266197085,
                  "lng" : -89.6390200802915
               }
            }
         },
         "place_id" : "ChIJA-6umTt0Vo8ReMqhTPbpbw0",
         "types" : [ "street_address" ]
      },
      {
         "address_components" : [
            {
               "long_name" : "Pinzón II",
               "short_name" : "Pinzón II",
               "types" : [ "political", "sublocality", "sublocality_level_1" ]
            },
            {
               "long_name" : "Mérida",
               "short_name" : "Mérida",
               "types" : [ "locality", "political" ]
            },
            {
               "long_name" : "Merida",
               "short_name" : "Merida",
               "types" : [ "administrative_area_level_2", "political" ]
            },
            {
               "long_name" : "Yucatán",
               "short_name" : "Yuc.",
               "types" : [ "administrative_area_level_1", "political" ]
            },
            {
               "long_name" : "Mexico",
               "short_name" : "MX",
               "types" : [ "country", "political" ]
            },
            {
               "long_name" : "97205",
               "short_name" : "97205",
               "types" : [ "postal_code" ]
            }
         ],
         "formatted_address" : "Pinzón II, 97205 Mérida, Yuc., Mexico",
         "geometry" : {
            "bounds" : {
               "northeast" : {
                  "lat" : 21.0304074,
                  "lng" : -89.63725319999999
               },
               "southwest" : {
                  "lat" : 21.0233597,
                  "lng" : -89.6412258
               }
            },
            "location" : {
               "lat" : 21.0270304,
               "lng" : -89.63869799999999
            },
            "location_type" : "APPROXIMATE",
            "viewport" : {
               "northeast" : {
                  "lat" : 21.0304074,
                  "lng" : -89.63725319999999
               },
               "southwest" : {
                  "lat" : 21.0233597,
                  "lng" : -89.6412258
               }
            }
         },
         "place_id" : "ChIJr9PxHzx0Vo8ROOFs_eiEYHg",
         "types" : [ "political", "sublocality", "sublocality_level_1" ]
      },
      {
         "address_components" : [
            {
               "long_name" : "Mérida",
               "short_name" : "Mérida",
               "types" : [ "locality", "political" ]
            },
            {
               "long_name" : "Merida",
               "short_name" : "Merida",
               "types" : [ "administrative_area_level_2", "political" ]
            },
            {
               "long_name" : "Yucatan",
               "short_name" : "Yuc.",
               "types" : [ "administrative_area_level_1", "political" ]
            },
            {
               "long_name" : "Mexico",
               "short_name" : "MX",
               "types" : [ "country", "political" ]
            }
         ],
         "formatted_address" : "Mérida, Yucatan, Mexico",
         "geometry" : {
            "bounds" : {
               "northeast" : {
                  "lat" : 21.0872143,
                  "lng" : -89.5430336
               },
               "southwest" : {
                  "lat" : 20.8729168,
                  "lng" : -89.72280300000001
               }
            },
            "location" : {
               "lat" : 20.9673702,
               "lng" : -89.5925857
            },
            "location_type" : "APPROXIMATE",
            "viewport" : {
               "northeast" : {
                  "lat" : 21.0872143,
                  "lng" : -89.5430336
               },
               "southwest" : {
                  "lat" : 20.8729168,
                  "lng" : -89.72280300000001
               }
            }
         },
         "place_id" : "ChIJFw1Fq1xxVo8RCeurFVcV_F0",
         "types" : [ "locality", "political" ]
      },
      {
         "address_components" : [
            {
               "long_name" : "97205",
               "short_name" : "97205",
               "types" : [ "postal_code" ]
            },
            {
               "long_name" : "Chuburná de Hidalgo",
               "short_name" : "Chuburná de Hidalgo",
               "types" : [ "political", "sublocality", "sublocality_level_1" ]
            },
            {
               "long_name" : "Mérida",
               "short_name" : "Mérida",
               "types" : [ "locality", "political" ]
            },
            {
               "long_name" : "Merida",
               "short_name" : "Merida",
               "types" : [ "administrative_area_level_2", "political" ]
            },
            {
               "long_name" : "Yucatán",
               "short_name" : "Yuc.",
               "types" : [ "administrative_area_level_1", "political" ]
            },
            {
               "long_name" : "Mexico",
               "short_name" : "MX",
               "types" : [ "country", "political" ]
            }
         ],
         "formatted_address" : "Chuburná de Hidalgo, 97205 Mérida, Yuc., Mexico",
         "geometry" : {
            "bounds" : {
               "northeast" : {
                  "lat" : 21.0304999,
                  "lng" : -89.6222356
               },
               "southwest" : {
                  "lat" : 21.0018922,
                  "lng" : -89.6533247
               }
            },
            "location" : {
               "lat" : 21.0128692,
               "lng" : -89.63693300000001
            },
            "location_type" : "APPROXIMATE",
            "viewport" : {
               "northeast" : {
                  "lat" : 21.0304999,
                  "lng" : -89.6222356
               },
               "southwest" : {
                  "lat" : 21.0018922,
                  "lng" : -89.6533247
               }
            }
         },
         "place_id" : "ChIJ816Jixl0Vo8RiG8AQRrQ3zA",
         "types" : [ "postal_code" ]
      },
      {
         "address_components" : [
            {
               "long_name" : "Merida",
               "short_name" : "Merida",
               "types" : [ "administrative_area_level_2", "political" ]
            },
            {
               "long_name" : "Yucatan",
               "short_name" : "Yuc.",
               "types" : [ "administrative_area_level_1", "political" ]
            },
            {
               "long_name" : "Mexico",
               "short_name" : "MX",
               "types" : [ "country", "political" ]
            }
         ],
         "formatted_address" : "Merida, Yucatan, Mexico",
         "geometry" : {
            "bounds" : {
               "northeast" : {
                  "lat" : 21.1911037,
                  "lng" : -89.4513034
               },
               "southwest" : {
                  "lat" : 20.6971062,
                  "lng" : -89.80119909999999
               }
            },
            "location" : {
               "lat" : 20.9635287,
               "lng" : -89.62735169999999
            },
            "location_type" : "APPROXIMATE",
            "viewport" : {
               "northeast" : {
                  "lat" : 21.1911037,
                  "lng" : -89.4513034
               },
               "southwest" : {
                  "lat" : 20.6971062,
                  "lng" : -89.80119909999999
               }
            }
         },
         "place_id" : "ChIJw-tDGH5xVo8RlhT3Q4Yk3bI",
         "types" : [ "administrative_area_level_2", "political" ]
      },
      {
         "address_components" : [
            {
               "long_name" : "Yucatan",
               "short_name" : "Yuc.",
               "types" : [ "administrative_area_level_1", "political" ]
            },
            {
               "long_name" : "Mexico",
               "short_name" : "MX",
               "types" : [ "country", "political" ]
            }
         ],
         "formatted_address" : "Yucatan, Mexico",
         "geometry" : {
            "bounds" : {
               "northeast" : {
                  "lat" : 22.6137999,
                  "lng" : -87.5331451
               },
               "southwest" : {
                  "lat" : 19.551174,
                  "lng" : -92.32629999999999
               }
            },
            "location" : {
               "lat" : 20.7098786,
               "lng" : -89.0943377
            },
            "location_type" : "APPROXIMATE",
            "viewport" : {
               "northeast" : {
                  "lat" : 22.6137999,
                  "lng" : -87.5331451
               },
               "southwest" : {
                  "lat" : 19.551174,
                  "lng" : -92.32629999999999
               }
            }
         },
         "place_id" : "ChIJ7QTWqvgPVI8RCj0IMXUhzMw",
         "types" : [ "administrative_area_level_1", "political" ]
      },
      {
         "address_components" : [
            {
               "long_name" : "Mexico",
               "short_name" : "MX",
               "types" : [ "country", "political" ]
            }
         ],
         "formatted_address" : "Mexico",
         "geometry" : {
            "bounds" : {
               "northeast" : {
                  "lat" : 32.7186534,
                  "lng" : -86.5887
               },
               "southwest" : {
                  "lat" : 14.3895,
                  "lng" : -118.6523001
               }
            },
            "location" : {
               "lat" : 23.634501,
               "lng" : -102.552784
            },
            "location_type" : "APPROXIMATE",
            "viewport" : {
               "northeast" : {
                  "lat" : 32.7186534,
                  "lng" : -86.5887
               },
               "southwest" : {
                  "lat" : 14.3895,
                  "lng" : -118.6523001
               }
            }
         },
         "place_id" : "ChIJU1NoiDs6BIQREZgJa760ZO0",
         "types" : [ "country", "political" ]
      }
   ],
   "status" : "OK"
}
