{
   "plus_code" : {
      "compound_code" : "34PJ+8M Clayton VIC, Australia",
      "global_code" : "4RJ734PJ+8M"
   },
   "results" : [
      {
         "address_components" : [
            {
               "long_name" : "Australia",
               "short_name" : "AU",
               "types" : [ "country", "political" ]
            },
            {
               "long_name" : "Clayton",
               "short_name" : "Clayton",
               "types" : [ "locality", "political" ]
            },
            {
               "long_name" : "Monash City",
               "short_name" : "Monash",
               "types" : [ "administrative_area_level_2", "political" ]
            },
            {
               "long_name" : "Victoria",
               "short_name" : "VIC",
               "types" : [ "administrative_area_level_1", "political" ]
            },
            {
               "long_name" : "3800",
               "short_name" : "3800",
               "types" : [ "postal_code" ]
            }
         ],
         "formatted_address" : "Clayton VIC 3800, Australia",
         "geometry" : {
            "location" : {
               "lat" : -37.914165,
               "lng" : 145.1316678
            },
            "location_type" : "GEOMETRIC_CENTER",
            "viewport" : {
               "northeast" : {
                  "lat" : -37.91281601970849,
                  "lng" : 145.1330167802915
               },
               "southwest" : {
                  "lat" : -37.91551398029149,
                  "lng" : 145.1303188197085
               }
            }
         },
         "place_id" : "ChIJAYPXfc5q1moRUOgquoIMVps",
         "plus_code" : {
            "compound_code" : "34PJ+8M Clayton, Victoria, Australia",
            "global_code" : "4RJ734PJ+8M"
         },
         "types" : [
            "bus_station",
            "establishment",
            "point_of_interest",
            "transit_station"
         ]
      },
      {
         "address_components" : [
            {
               "long_name" : "73",
               "short_name" : "73",
               "types" : [ "street_number" ]
            },
            {
               "long_name" : "Wellington Road",
               "short_name" : "Wellington Rd",
               "types" : [ "route" ]
            },
            {
               "long_name" : "Clayton",
               "short_name" : "Clayton",
               "types" : [ "locality", "political" ]
            },
            {
               "long_name" : "Monash City",
               "short_name" : "Monash",
               "types" : [ "administrative_area_level_2", "political" ]
            },
            {
               "long_name" : "Victoria",
               "short_name" : "VIC",
               "types" : [ "administrative_area_level_1", "political" ]
            },
            {
               "long_name" : "Australia",
               "short_name" : "AU",
               "types" : [ "country", "political" ]
            },
            {
               "long_name" : "3168",
               "short_name" : "3168",
               "types" : [ "postal_code" ]
            }
         ],
         "formatted_address" : "73 Wellington Rd, Clayton VIC 3168, Australia",
         "geometry" : {
            "bounds" : {
               "northeast" : {
                  "lat" : -37.91423109999999,
                  "lng" : 145.1310679
               },
               "southwest" : {
                  "lat" : -37.9147486,
                  "lng" : 145.1297479
               }
            },
            "location" : {
               "lat" : -37.91459529999999,
               "lng" : 145.1305434
            },
            "location_type" : "ROOFTOP",
            "viewport" : {
               "northeast" : {
                  "lat" : -37.91314086970849,
                  "lng" : 145.1317568802915
               },
               "southwest" : {
                  "lat" : -37.91583883029149,
                  "lng" : 145.1290589197085
               }
            }
         },
         "place_id" : "ChIJ4ZsORM5q1moRSAl6BDevHQw",
         "types" : [ "premise" ]
      },
      {
         "address_components" : [
            {
               "long_name" : "Unnamed Road",
               "short_name" : "Unnamed Road",
               "types" : [ "route" ]
            },
            {
               "long_name" : "Clayton",
               "short_name" : "Clayton",
               "types" : [ "locality", "political" ]
            },
            {
               "long_name" : "Monash City",
               "short_name" : "Monash",
               "types" : [ "administrative_area_level_2", "political" ]
            },
            {
               "long_name" : "Victoria",
               "short_name" : "VIC",
               "types" : [ "administrative_area_level_1", "political" ]
            },
            {
               "long_name" : "Australia",
               "short_name" : "AU",
               "types" : [ "country", "political" ]
            },
            {
               "long_name" : "3800",
               "short_name" : "3800",
               "types" : [ "postal_code" ]
            }
         ],
         "formatted_address" : "Unnamed Road, Clayton VIC 3800, Australia",
         "geometry" : {
            "bounds" : {
               "northeast" : {
                  "lat" : -37.9134383,
                  "lng" : 145.1316764
               },
               "southwest" : {
                  "lat" : -37.9145957,
                  "lng" : 145.1314685
               }
            },
            "location" : {
               "lat" : -37.914017,
               "lng" : 145.1315724
            },
            "location_type" : "GEOMETRIC_CENTER",
            "viewport" : {
               "northeast" : {
                  "lat" : -37.91266801970851,
                  "lng" : 145.1329214302915
               },
               "southwest" : {
                  "lat" : -37.9153659802915,
                  "lng" : 145.1302234697085
               }
            }
         },
         "place_id" : "ChIJXxF-h85q1moRKpqSnKte4FE",
         "types" : [ "route" ]
      },
      {
         "address_components" : [
            {
               "long_name" : "3800",
               "short_name" : "3800",
               "types" : [ "postal_code" ]
            },
            {
               "long_name" : "Clayton",
               "short_name" : "Clayton",
               "types" : [ "locality", "political" ]
            },
            {
               "long_name" : "Monash City",
               "short_name" : "Monash",
               "types" : [ "administrative_area_level_2", "political" ]
            },
            {
               "long_name" : "Victoria",
               "short_name" : "VIC",
               "types" : [ "administrative_area_level_1", "political" ]
            },
            {
               "long_name" : "Australia",
               "short_name" : "AU",
               "types" : [ "country", "political" ]
            }
         ],
         "formatted_address" : "Clayton VIC 3800, Australia",
         "geometry" : {
            "bounds" : {
               "northeast" : {
                  "lat" : -37.905095,
                  "lng" : 145.1419489
               },
               "southwest" : {
                  "lat" : -37.9162862,
                  "lng" : 145.1277864
               }
            },
            "location" : {
               "lat" : -37.9104511,
               "lng" : 145.1348243
            },
            "location_type" : "APPROXIMATE",
            "viewport" : {
               "northeast" : {
                  "lat" : -37.905095,
                  "lng" : 145.1419489
               },
               "southwest" : {
                  "lat" : -37.9162862,
                  "lng" : 145.1277864
               }
            }
         },
         "place_id" : "ChIJDzAN8ctq1moRIIjngcuInsA",
         "types" : [ "postal_code" ]
      },
      {
         "address_components" : [
            {
               "long_name" : "Clayton",
               "short_name" : "Clayton",
               "types" : [ "locality", "political" ]
            },
            {
               "long_name" : "Monash City",
               "short_name" : "Monash",
               "types" : [ "administrative_area_level_2", "political" ]
            },
            {
               "long_name" : "Victoria",
               "short_name" : "VIC",
               "types" : [ "administrative_area_level_1", "political" ]
            },
            {
               "long_name" : "Australia",
               "short_name" : "AU",
               "types" : [ "country", "political" ]
            },
            {
               "long_name" : "3168",
               "short_name" : "3168",
               "types" : [ "postal_code" ]
            }
         ],
         "formatted_address" : "Clayton VIC 3168, Australia",
         "geometry" : {
            "bounds" : {
               "northeast" : {
                  "lat" : -37.8991518,
                  "lng" : 145.151616
               },
               "southwest" : {
                  "lat" : -37.9313859,
                  "lng" : 145.1075208
               }
            },
            "location" : {
               "lat" : -37.915,
               "lng" : 145.13
            },
            "location_type" : "APPROXIMATE",
            "viewport" : {
               "northeast" : {
                  "lat" : -37.8991518,
                  "lng" : 145.151616
               },
               "southwest" : {
                  "lat" : -37.9313859,
                  "lng" : 145.1075208
               }
            }
         },
         "place_id" : "ChIJhemuV9Zq1moRwN2MIXVWBAU",
         "types" : [ "locality", "political" ]
      },
      {
         "address_components" : [
            {
               "long_name" : "Monash City",
               "short_name" : "Monash",
               "types" : [ "administrative_area_level_2", "political" ]
            },
            {
               "long_name" : "Victoria",
               "short_name" : "VIC",
               "types" : [ "administrative_area_level_1", "political" ]
            },
            {
               "long_name" : "Australia",
               "short_name" : "AU",
               "types" : [ "country", "political" ]
            }
         ],
         "formatted_address" : "Monash, VIC, Australia",
         "geometry" : {
            "bounds" : {
               "northeast" : {
                  "lat" : -37.8533495,
                  "lng" : 145.22013
               },
               "southwest" : {
                  "lat" : -37.9401482,
                  "lng" : 145.0742074
               }
            },
            "location" : {
               "lat" : -37.9015913,
               "lng" : 145.1155133
            },
            "location_type" : "APPROXIMATE",
            "viewport" : {
               "northeast" : {
                  "lat" : -37.8533495,
                  "lng" : 145.22013
               },
               "southwest" : {
                  "lat" : -37.9401482,
                  "lng" : 145.0742074
               }
            }
         },
         "place_id" : "ChIJAW1BE1cV1moRwkykqCIpKcg",
         "types" : [ "administrative_area_level_2", "political" ]
      },
      {
         "address_components" : [
            {
               "long_name" : "Melbourne",
               "short_name" : "Melbourne",
               "types" : [ "colloquial_area", "locality", "political" ]
            },
            {
               "long_name" : "Victoria",
               "short_name" : "VIC",
               "types" : [ "administrative_area_level_1", "political" ]
            },
            {
               "long_name" : "Australia",
               "short_name" : "AU",
               "types" : [ "country", "political" ]
            }
         ],
         "formatted_address" : "Melbourne VIC, Australia",
         "geometry" : {
            "bounds" : {
               "northeast" : {
                  "lat" : -37.5112737,
                  "lng" : 145.5125288
               },
               "southwest" : {
                  "lat" : -38.4338593,
                  "lng" : 144.5937418
               }
            },
            "location" : {
               "lat" : -37.8136276,
               "lng" : 144.9630576
            },
            "location_type" : "APPROXIMATE",
            "viewport" : {
               "northeast" : {
                  "lat" : -37.5112737,
                  "lng" : 145.5125288
               },
               "southwest" : {
                  "lat" : -38.4338593,
                  "lng" : 144.5937418
               }
            }
         },
         "place_id" : "ChIJ90260rVG1moRkM2MIXVWBAQ",
         "types" : [ "colloquial_area", "locality", "political" ]
      },
      {
         "address_components" : [
            {
               "long_name" : "Victoria",
               "short_name" : "Victoria",
               "types" : [ "administrative_area_level_1", "political" ]
            },
            {
               "long_name" : "Australia",
               "short_name" : "AU",
               "types" : [ "country", "political" ]
            }
         ],
         "formatted_address" : "Victoria, Australia",
         "geometry" : {
            "bounds" : {
               "northeast" : {
                  "lat" : -33.9806474,
                  "lng" : 150.0169685
               },
               "southwest" : {
                  "lat" : -39.18316069999999,
                  "lng" : 140.9616819
               }
            },
            "location" : {
               "lat" : -37.4713077,
               "lng" : 144.7851531
            },
            "location_type" : "APPROXIMATE",
            "viewport" : {
               "northeast" : {
                  "lat" : -33.9806474,
                  "lng" : 150.0169685
               },
               "southwest" : {
                  "lat" : -39.18316069999999,
                  "lng" : 140.9616819
               }
            }
         },
         "place_id" : "ChIJT5UYfksx1GoRNJWCvuL8Tlo",
         "types" : [ "administrative_area_level_1", "political" ]
      },
      {
         "address_components" : [
            {
               "long_name" : "Australia",
               "short_name" : "AU",
               "types" : [ "country", "political" ]
            }
         ],
         "formatted_address" : "Australia",
         "geometry" : {
            "bounds" : {
               "northeast" : {
                  "lat" : -9.187026399999999,
                  "lng" : 159.2872223
               },
               "southwest" : {
                  "lat" : -54.83376579999999,
                  "lng" : 110.9510339
               }
            },
            "location" : {
               "lat" : -25.274398,
               "lng" : 133.775136
            },
            "location_type" : "APPROXIMATE",
            "viewport" : {
               "northeast" : {
                  "lat" : -9.187026399999999,
                  "lng" : 159.2872223
               },
               "southwest" : {
                  "lat" : -54.83376579999999,
                  "lng" : 110.9510339
               }
            }
         },
         "place_id" : "ChIJ38WHZwf9KysRUhNblaFnglM",
         "types" : [ "country", "political" ]
      }
   ],
   "status" : "OK"
}
