{
   "plus_code" : {
      "compound_code" : "3PQ7+FH Uberlândia, State of Minas Gerais, Brazil",
      "global_code" : "58HH3PQ7+FH"
   },
   "results" : [
      {
         "address_components" : [
            {
               "long_name" : "1178",
               "short_name" : "1178",
               "types" : [ "street_number" ]
            },
            {
               "long_name" : "Avenida Engenheiro Diniz",
               "short_name" : "Av. Eng. Diniz",
               "types" : [ "route" ]
            },
            {
               "long_name" : "Martins",
               "short_name" : "Martins",
               "types" : [ "political", "sublocality", "sublocality_level_1" ]
            },
            {
               "long_name" : "Uberlândia",
               "short_name" : "Uberlândia",
               "types" : [ "administrative_area_level_2", "political" ]
            },
            {
               "long_name" : "Minas Gerais",
               "short_name" : "MG",
               "types" : [ "administrative_area_level_1", "political" ]
            },
            {
               "long_name" : "Brazil",
               "short_name" : "BR",
               "types" : [ "country", "political" ]
            },
            {
               "long_name" : "38400-462",
               "short_name" : "38400-462",
               "types" : [ "postal_code" ]
            }
         ],
         "formatted_address" : "Av. Eng. Diniz, 1178 - Martins, Uberlândia - MG, 38400-462, Brazil",
         "geometry" : {
            "location" : {
               "lat" : -18.9112674,
               "lng" : -48.2861008
            },
            "location_type" : "ROOFTOP",
            "viewport" : {
               "northeast" : {
                  "lat" : -18.9099184197085,
                  "lng" : -48.2847518197085
               },
               "southwest" : {
                  "lat" : -18.9126163802915,
                  "lng" : -48.2874497802915
               }
            }
         },
         "place_id" : "ChIJkzVVMXRFpJQRSxTdIMYJiuQ",
         "plus_code" : {
            "compound_code" : "3PQ7+FH Uberlândia, State of Minas Gerais, Brazil",
            "global_code" : "58HH3PQ7+FH"
         },
         "types" : [ "establishment", "point_of_interest", "university" ]
      },
      {
         "address_components" : [
            {
               "long_name" : "1178",
               "short_name" : "1178",
               "types" : [ "street_number" ]
            },
            {
               "long_name" : "Avenida Engenheiro Diniz",
               "short_name" : "Av. Eng. Diniz",
               "types" : [ "route" ]
            },
            {
               "long_name" : "Martins",
               "short_name" : "Martins",
               "types" : [ "political", "sublocality", "sublocality_level_1" ]
            },
            {
               "long_name" : "Uberlândia",
               "short_name" : "Uberlândia",
               "types" : [ "administrative_area_level_2", "political" ]
            },
            {
               "long_name" : "Minas Gerais",
               "short_name" : "MG",
               "types" : [ "administrative_area_level_1", "political" ]
            },
            {
               "long_name" : "Brazil",
               "short_name" : "BR",
               "types" : [ "country", "political" ]
            },
            {
               "long_name" : "38400-462",
               "short_name" : "38400-462",
               "types" : [ "postal_code" ]
            }
         ],
         "formatted_address" : "Av. Eng. Diniz, 1178 - Martins, Uberlândia - MG, 38400-462, Brazil",
         "geometry" : {
            "location" : {
               "lat" : -18.9113019,
               "lng" : -48.2860583
            },
            "location_type" : "ROOFTOP",
            "viewport" : {
               "northeast" : {
                  "lat" : -18.90995291970849,
                  "lng" : -48.2847093197085
               },
               "southwest" : {
                  "lat" : -18.9126508802915,
                  "lng" : -48.2874072802915
               }
            }
         },
         "place_id" : "ChIJt0CDT05EpJQR0ECNsJEy3Y8",
         "plus_code" : {
            "compound_code" : "3PQ7+FH Uberlândia, State of Minas Gerais, Brazil",
            "global_code" : "58HH3PQ7+FH"
         },
         "types" : [ "street_address" ]
      },
      {
         "address_components" : [
            {
               "long_name" : "1185",
               "short_name" : "1185",
               "types" : [ "street_number" ]
            },
            {
               "long_name" : "Avenida Engenheiro Diniz",
               "short_name" : "Av. Eng. Diniz",
               "types" : [ "route" ]
            },
            {
               "long_name" : "Martins",
               "short_name" : "Martins",
               "types" : [ "political", "sublocality", "sublocality_level_1" ]
            },
            {
               "long_name" : "Uberlândia",
               "short_name" : "Uberlândia",
               "types" : [ "administrative_area_level_2", "political" ]
            },
            {
               "long_name" : "Minas Gerais",
               "short_name" : "MG",
               "types" : [ "administrative_area_level_1", "political" ]
            },
            {
               "long_name" : "Brazil",
               "short_name" : "BR",
               "types" : [ "country", "political" ]
            },
            {
               "long_name" : "38400-462",
               "short_name" : "38400-462",
               "types" : [ "postal_code" ]
            }
         ],
         "formatted_address" : "Av. Eng. Diniz, 1185 - Martins, Uberlândia - MG, 38400-462, Brazil",
         "geometry" : {
            "location" : {
               "lat" : -18.9113569,
               "lng" : -48.2860661
            },
            "location_type" : "RANGE_INTERPOLATED",
            "viewport" : {
               "northeast" : {
                  "lat" : -18.9100079197085,
                  "lng" : -48.2847171197085
               },
               "southwest" : {
                  "lat" : -18.9127058802915,
                  "lng" : -48.2874150802915
               }
            }
         },
         "place_id" : "EkNBdi4gRW5nLiBEaW5peiwgMTE4NSAtIE1hcnRpbnMsIFViZXJsw6JuZGlhIC0gTUcsIDM4NDAwLTQ2MiwgQnJhc2lsIhsSGQoUChIJXycuTE5EpJQR8zxIHbtg4IMQoQk",
         "types" : [ "street_address" ]
      },
      {
         "address_components" : [
            {
               "long_name" : "38401-136",
               "short_name" : "38401-136",
               "types" : [ "postal_code" ]
            },
            {
               "long_name" : "Presidente Roosevelt",
               "short_name" : "Pres. Roosevelt",
               "types" : [ "political", "sublocality", "sublocality_level_1" ]
            },
            {
               "long_name" : "Uberlândia",
               "short_name" : "Uberlândia",
               "types" : [ "administrative_area_level_2", "political" ]
            },
            {
               "long_name" : "Minas Gerais",
               "short_name" : "MG",
               "types" : [ "administrative_area_level_1", "political" ]
            },
            {
               "long_name" : "Brazil",
               "short_name" : "BR",
               "types" : [ "country", "political" ]
            }
         ],
         "formatted_address" : "Pres. Roosevelt, Uberlândia - MG, 38401-136, Brazil",
         "geometry" : {
            "bounds" : {
               "northeast" : {
                  "lat" : -18.8957991,
                  "lng" : -48.2791757
               },
               "southwest" : {
                  "lat" : -18.9151695,
                  "lng" : -48.2941166
               }
            },
            "location" : {
               "lat" : -18.8990424,
               "lng" : -48.2908553
            },
            "location_type" : "APPROXIMATE",
            "viewport" : {
               "northeast" : {
                  "lat" : -18.8957991,
                  "lng" : -48.2791757
               },
               "southwest" : {
                  "lat" : -18.9151695,
                  "lng" : -48.2941166
               }
            }
         },
         "place_id" : "ChIJZflnIzpEpJQR25DiGuIBURg",
         "types" : [ "postal_code" ]
      },
      {
         "address_components" : [
            {
               "long_name" : "Martins",
               "short_name" : "Martins",
               "types" : [ "political", "sublocality", "sublocality_level_1" ]
            },
            {
               "long_name" : "Uberlândia",
               "short_name" : "Uberlândia",
               "types" : [ "administrative_area_level_2", "political" ]
            },
            {
               "long_name" : "Minas Gerais",
               "short_name" : "MG",
               "types" : [ "administrative_area_level_1", "political" ]
            },
            {
               "long_name" : "Brazil",
               "short_name" : "BR",
               "types" : [ "country", "political" ]
            }
         ],
         "formatted_address" : "Martins, Uberlândia - MG, Brazil",
         "geometry" : {
            "bounds" : {
               "northeast" : {
                  "lat" : -18.9031769,
                  "lng" : -48.27659329999999
               },
               "southwest" : {
                  "lat" : -18.9195013,
                  "lng" : -48.2893026
               }
            },
            "location" : {
               "lat" : -18.9093652,
               "lng" : -48.2816655
            },
            "location_type" : "APPROXIMATE",
            "viewport" : {
               "northeast" : {
                  "lat" : -18.9031769,
                  "lng" : -48.27659329999999
               },
               "southwest" : {
                  "lat" : -18.9195013,
                  "lng" : -48.2893026
               }
            }
         },
         "place_id" : "ChIJPUnuiE1EpJQRqDmr6BcCfjk",
         "types" : [ "political", "sublocality", "sublocality_level_1" ]
      },
      {
         "address_components" : [
            {
               "long_name" : "38400",
               "short_name" : "38400",
               "types" : [ "postal_code", "postal_code_prefix" ]
            },
            {
               "long_name" : "Uberlândia",
               "short_name" : "Uberlândia",
               "types" : [ "administrative_area_level_2", "political" ]
            },
            {
               "long_name" : "State of Minas Gerais",
               "short_name" : "MG",
               "types" : [ "administrative_area_level_1", "political" ]
            },
            {
               "long_name" : "Brazil",
               "short_name" : "BR",
               "types" : [ "country", "political" ]
            }
         ],
         "formatted_address" : "Uberlândia - State of Minas Gerais, Brazil",
         "geometry" : {
            "bounds" : {
               "northeast" : {
                  "lat" : -18.9034138,
                  "lng" : -48.2652643
               },
               "southwest" : {
                  "lat" : -18.9468343,
                  "lng" : -48.3056596
               }
            },
            "location" : {
               "lat" : -18.9172494,
               "lng" : -48.2841556
            },
            "location_type" : "APPROXIMATE",
            "viewport" : {
               "northeast" : {
                  "lat" : -18.9034138,
                  "lng" : -48.2652643
               },
               "southwest" : {
                  "lat" : -18.9468343,
                  "lng" : -48.3056596
               }
            }
         },
         "place_id" : "ChIJq220GPlEpJQRq0fD_xRklWY",
         "types" : [ "postal_code", "postal_code_prefix" ]
      },
      {
         "address_components" : [
            {
               "long_name" : "Uberlândia",
               "short_name" : "Uberlândia",
               "types" : [ "locality", "political" ]
            },
            {
               "long_name" : "Uberlândia",
               "short_name" : "Uberlândia",
               "types" : [ "administrative_area_level_2", "political" ]
            },
            {
               "long_name" : "State of Minas Gerais",
               "short_name" : "MG",
               "types" : [ "administrative_area_level_1", "political" ]
            },
            {
               "long_name" : "Brazil",
               "short_name" : "BR",
               "types" : [ "country", "political" ]
            }
         ],
         "formatted_address" : "Uberlândia, State of Minas Gerais, Brazil",
         "geometry" : {
            "bounds" : {
               "northeast" : {
                  "lat" : -18.8361149,
                  "lng" : -48.140105
               },
               "southwest" : {
                  "lat" : -19.0080286,
                  "lng" : -48.3870248
               }
            },
            "location" : {
               "lat" : -18.9127534,
               "lng" : -48.275484
            },
            "location_type" : "APPROXIMATE",
            "viewport" : {
               "northeast" : {
                  "lat" : -18.8361149,
                  "lng" : -48.140105
               },
               "southwest" : {
                  "lat" : -19.0080286,
                  "lng" : -48.3870248
               }
            }
         },
         "place_id" : "ChIJ77q7EAxFpJQRnFxtYZMMN64",
         "types" : [ "locality", "political" ]
      },
      {
         "address_components" : [
            {
               "long_name" : "Uberlândia",
               "short_name" : "Uberlândia",
               "types" : [ "administrative_area_level_2", "political" ]
            },
            {
               "long_name" : "State of Minas Gerais",
               "short_name" : "MG",
               "types" : [ "administrative_area_level_1", "political" ]
            },
            {
               "long_name" : "Brazil",
               "short_name" : "BR",
               "types" : [ "country", "political" ]
            }
         ],
         "formatted_address" : "Uberlândia - State of Minas Gerais, Brazil",
         "geometry" : {
            "bounds" : {
               "northeast" : {
                  "lat" : -18.5930709,
                  "lng" : -47.9029368
               },
               "southwest" : {
                  "lat" : -19.4164988,
                  "lng" : -48.82355380000001
               }
            },
            "location" : {
               "lat" : -18.9127432,
               "lng" : -48.275484
            },
            "location_type" : "APPROXIMATE",
            "viewport" : {
               "northeast" : {
                  "lat" : -18.5930709,
                  "lng" : -47.9029368
               },
               "southwest" : {
                  "lat" : -19.4164988,
                  "lng" : -48.82355380000001
               }
            }
         },
         "place_id" : "ChIJXWuNq7NFpJQRhR-c3jhmXZQ",
         "types" : [ "administrative_area_level_2", "political" ]
      },
      {
         "address_components" : [
            {
               "long_name" : "State of Minas Gerais",
               "short_name" : "State of Minas Gerais",
               "types" : [ "administrative_area_level_1", "political" ]
            },
            {
               "long_name" : "Brazil",
               "short_name" : "BR",
               "types" : [ "country", "political" ]
            }
         ],
         "formatted_address" : "State of Minas Gerais, Brazil",
         "geometry" : {
            "bounds" : {
               "northeast" : {
                  "lat" : -14.233183,
                  "lng" : -39.8568263
               },
               "southwest" : {
                  "lat" : -22.9227576,
                  "lng" : -51.0460748
               }
            },
            "location" : {
               "lat" : -18.512178,
               "lng" : -44.5550308
            },
            "location_type" : "APPROXIMATE",
            "viewport" : {
               "northeast" : {
                  "lat" : -14.233183,
                  "lng" : -39.8568263
               },
               "southwest" : {
                  "lat" : -22.9227576,
                  "lng" : -51.0460748
               }
            }
         },
         "place_id" : "ChIJiUIyZaGQpgARs-edN8lwIRE",
         "types" : [ "administrative_area_level_1", "political" ]
      },
      {
         "address_components" : [
            {
               "long_name" : "Brazil",
               "short_name" : "BR",
               "types" : [ "country", "political" ]
            }
         ],
         "formatted_address" : "Brazil",
         "geometry" : {
            "bounds" : {
               "northeast" : {
                  "lat" : 5.2717863,
                  "lng" : -28.650543
               },
               "southwest" : {
                  "lat" : -34.0891,
                  "lng" : -73.9828169
               }
            },
            "location" : {
               "lat" : -14.235004,
               "lng" : -51.92528
            },
            "location_type" : "APPROXIMATE",
            "viewport" : {
               "northeast" : {
                  "lat" : 5.2717863,
                  "lng" : -28.650543
               },
               "southwest" : {
                  "lat" : -34.0891,
                  "lng" : -73.9828169
               }
            }
         },
         "place_id" : "ChIJzyjM68dZnAARYz4p8gYVWik",
         "types" : [ "country", "political" ]
      }
   ],
   "status" : "OK"
}
