{
   "plus_code" : {
      "compound_code" : "7VW2+G3 Singapore",
      "global_code" : "6PH57VW2+G3"
   },
   "results" : [
      {
         "address_components" : [
            {
               "long_name" : "70",
               "short_name" : "70",
               "types" : [ "street_number" ]
            },
            {
               "long_name" : "Stamford Road",
               "short_name" : "Stamford Rd",
               "types" : [ "route" ]
            },
            {
               "long_name" : "Museum",
               "short_name" : "Museum",
               "types" : [ "neighborhood", "political" ]
            },
            {
               "long_name" : "Singapore",
               "short_name" : "Singapore",
               "types" : [ "locality", "political" ]
            },
            {
               "long_name" : "Singapore",
               "short_name" : "SG",
               "types" : [ "country", "political" ]
            },
            {
               "long_name" : "178901",
               "short_name" : "178901",
               "types" : [ "postal_code" ]
            }
         ],
         "formatted_address" : "70 Stamford Rd, Singapore 178901",
         "geometry" : {
            "bounds" : {
               "northeast" : {
                  "lat" : 1.2969641,
                  "lng" : 103.8505539
               },
               "southwest" : {
                  "lat" : 1.2959183,
                  "lng" : 103.849747
               }
            },
            "location" : {
               "lat" : 1.2962946,
               "lng" : 103.8499767
            },
            "location_type" : "ROOFTOP",
            "viewport" : {
               "northeast" : {
                  "lat" : 1.297790180291502,
                  "lng" : 103.8514994302915
               },
               "southwest" : {
                  "lat" : 1.295092219708498,
                  "lng" : 103.8488014697085
               }
            }
         },
         "place_id" : "ChIJU6DTmKQZ2jERK9JFZ1nRurE",
         "types" : [ "premise" ]
      },
      {
         "address_components" : [
            {
               "long_name" : "81",
               "short_name" : "81",
               "types" : [ "street_number" ]
            },
            {
               "long_name" : "Victoria Street",
               "short_name" : "Victoria St",
               "types" : [ "route" ]
            },
            {
               "long_name" : "Museum",
               "short_name" : "Museum",
               "types" : [ "neighborhood", "political" ]
            },
            {
               "long_name" : "Singapore",
               "short_name" : "Singapore",
               "types" : [ "locality", "political" ]
            },
            {
               "long_name" : "Singapore",
               "short_name" : "SG",
               "types" : [ "country", "political" ]
            },
            {
               "long_name" : "188065",
               "short_name" : "188065",
               "types" : [ "postal_code" ]
            }
         ],
         "formatted_address" : "81 Victoria St, Singapore 188065",
         "geometry" : {
            "location" : {
               "lat" : 1.2962727,
               "lng" : 103.8501578
            },
            "location_type" : "ROOFTOP",
            "viewport" : {
               "northeast" : {
                  "lat" : 1.297621680291502,
                  "lng" : 103.8515067802915
               },
               "southwest" : {
                  "lat" : 1.294923719708498,
                  "lng" : 103.8488088197085
               }
            }
         },
         "place_id" : "ChIJGddBg6MZ2jERACsxW7Ovm_4",
         "plus_code" : {
            "compound_code" : "7VW2+G3 Singapore",
            "global_code" : "6PH57VW2+G3"
         },
         "types" : [ "establishment", "point_of_interest", "university" ]
      },
      {
         "address_components" : [
            {
               "long_name" : "70",
               "short_name" : "70",
               "types" : [ "street_number" ]
            },
            {
               "long_name" : "Stamford Road",
               "short_name" : "Stamford Rd",
               "types" : [ "route" ]
            },
            {
               "long_name" : "Museum",
               "short_name" : "Museum",
               "types" : [ "neighborhood", "political" ]
            },
            {
               "long_name" : "Singapore",
               "short_name" : "Singapore",
               "types" : [ "locality", "political" ]
            },
            {
               "long_name" : "Singapore",
               "short_name" : "SG",
               "types" : [ "country", "political" ]
            },
            {
               "long_name" : "178901",
               "short_name" : "178901",
               "types" : [ "postal_code" ]
            }
         ],
         "formatted_address" : "70 Stamford Rd, Singapore 178901",
         "geometry" : {
            "location" : {
               "lat" : 1.2962824,
               "lng" : 103.8501448
            },
            "location_type" : "ROOFTOP",
            "viewport" : {
               "northeast" : {
                  "lat" : 1.297631380291502,
                  "lng" : 103.8514937802915
               },
               "southwest" : {
                  "lat" : 1.294933419708498,
                  "lng" : 103.8487958197085
               }
            }
         },
         "place_id" : "ChIJxdxUfaMZ2jERg78FloQVrgY",
         "plus_code" : {
            "compound_code" : "7VW2+G3 Singapore",
            "global_code" : "6PH57VW2+G3"
         },
         "types" : [ "street_address" ]
      },
      {
         "address_components" : [
            {
               "long_name" : "89",
               "short_name" : "89",
               "types" : [ "street_number" ]
            },
            {
               "long_name" : "Stamford Road",
               "short_name" : "Stamford Rd",
               "types" : [ "route" ]
            },
            {
               "long_name" : "Singapore",
               "short_name" : "SG",
               "types" : [ "country", "political" ]
            }
         ],
         "formatted_address" : "89 Stamford Rd, Singapore",
         "geometry" : {
            "location" : {
               "lat" : 1.2956368,
               "lng" : 103.8502099
            },
            "location_type" : "RANGE_INTERPOLATED",
            "viewport" : {
               "northeast" : {
                  "lat" : 1.296985780291502,
                  "lng" : 103.8515588802915
               },
               "southwest" : {
                  "lat" : 1.294287819708498,
                  "lng" : 103.8488609197085
               }
            }
         },
         "place_id" : "Ehk4OSBTdGFtZm9yZCBSZCwgU2luZ2Fwb3JlIhoSGAoUChIJM5HFgqMZ2jERR621ZDydB-EQWQ",
         "types" : [ "street_address" ]
      },
      {
         "address_components" : [
            {
               "long_name" : "Museum",
               "short_name" : "Museum",
               "types" : [ "neighborhood", "political" ]
            },
            {
               "long_name" : "Singapore",
               "short_name" : "Singapore",
               "types" : [ "locality", "political" ]
            },
            {
               "long_name" : "Singapore",
               "short_name" : "SG",
               "types" : [ "country", "political" ]
            }
         ],
         "formatted_address" : "Museum, Singapore",
         "geometry" : {
            "bounds" : {
               "northeast" : {
                  "lat" : 1.301877,
                  "lng" : 103.852328
               },
               "southwest" : {
                  "lat" : 1.290165,
                  "lng" : 103.8413678
               }
            },
            "location" : {
               "lat" : 1.2988627,
               "lng" : 103.843797
            },
            "location_type" : "APPROXIMATE",
            "viewport" : {
               "northeast" : {
                  "lat" : 1.301877,
                  "lng" : 103.852328
               },
               "southwest" : {
                  "lat" : 1.290165,
                  "lng" : 103.8413678
               }
            }
         },
         "place_id" : "ChIJmaRJ96IZ2jERIKXarqz3AAU",
         "types" : [ "neighborhood", "political" ]
      },
      {
         "address_components" : [
            {
               "long_name" : "Singapore",
               "short_name" : "Singapore",
               "types" : [ "locality", "political" ]
            },
            {
               "long_name" : "Singapore",
               "short_name" : "SG",
               "types" : [ "country", "political" ]
            }
         ],
         "formatted_address" : "Singapore",
         "geometry" : {
            "bounds" : {
               "northeast" : {
                  "lat" : 1.4708809,
                  "lng" : 104.0415799
               },
               "southwest" : {
                  "lat" : 1.216611,
                  "lng" : 103.6065099
               }
            },
            "location" : {
               "lat" : 1.3553794,
               "lng" : 103.8677444
            },
            "location_type" : "APPROXIMATE",
            "viewport" : {
               "northeast" : {
                  "lat" : 1.4708809,
                  "lng" : 104.0415799
               },
               "southwest" : {
                  "lat" : 1.216611,
                  "lng" : 103.6065099
               }
            }
         },
         "place_id" : "ChIJyY4rtGcX2jERIKTarqz3AAQ",
         "types" : [ "locality", "political" ]
      },
      {
         "address_components" : [
            {
               "long_name" : "Singapore",
               "short_name" : "SG",
               "types" : [ "country", "political" ]
            }
         ],
         "formatted_address" : "Singapore",
         "geometry" : {
            "bounds" : {
               "northeast" : {
                  "lat" : 1.4784001,
                  "lng" : 104.0945001
               },
               "southwest" : {
                  "lat" : 1.1496,
                  "lng" : 103.594
               }
            },
            "location" : {
               "lat" : 1.352083,
               "lng" : 103.819836
            },
            "location_type" : "APPROXIMATE",
            "viewport" : {
               "northeast" : {
                  "lat" : 1.4784001,
                  "lng" : 104.0945001
               },
               "southwest" : {
                  "lat" : 1.1496,
                  "lng" : 103.594
               }
            }
         },
         "place_id" : "ChIJdZOLiiMR2jERxPWrUs9peIg",
         "types" : [ "country", "political" ]
      }
   ],
   "status" : "OK"
}
