{
   "plus_code" : {
      "compound_code" : "M86H+J7 Redstone Arsenal, AL, USA",
      "global_code" : "866MM86H+J7"
   },
   "results" : [
      {
         "address_components" : [
            {
               "long_name" : "Marshall Space Flight Ctr",
               "short_name" : "Marshall Space Flight Ctr",
               "types" : [ "route" ]
            },
            {
               "long_name" : "Huntsville",
               "short_name" : "Huntsville",
               "types" : [ "locality", "political" ]
            },
            {
               "long_name" : "Madison County",
               "short_name" : "Madison County",
               "types" : [ "administrative_area_level_2", "political" ]
            },
            {
               "long_name" : "Alabama",
               "short_name" : "AL",
               "types" : [ "administrative_area_level_1", "political" ]
            },
            {
               "long_name" : "United States",
               "short_name" : "US",
               "types" : [ "country", "political" ]
            },
            {
               "long_name" : "35811",
               "short_name" : "35811",
               "types" : [ "postal_code" ]
            }
         ],
         "formatted_address" : "Marshall Space Flight Ctr, Huntsville, AL 35811, USA",
         "geometry" : {
            "location" : {
               "lat" : 34.6615005,
               "lng" : -86.67186009999999
            },
            "location_type" : "GEOMETRIC_CENTER",
            "viewport" : {
               "northeast" : {
                  "lat" : 34.6628494802915,
                  "lng" : -86.67051111970848
               },
               "southwest" : {
                  "lat" : 34.6601515197085,
                  "lng" : -86.6732090802915
               }
            }
         },
         "place_id" : "ChIJ2YiqBgVuYogR4X0gVd5x1AE",
         "types" : [ "establishment", "point_of_interest" ]
      },
      {
         "address_components" : [
            {
               "long_name" : "4200",
               "short_name" : "4200",
               "types" : [ "street_number" ]
            },
            {
               "long_name" : "Rideout Road",
               "short_name" : "Rideout Rd",
               "types" : [ "route" ]
            },
            {
               "long_name" : "Huntsville",
               "short_name" : "Huntsville",
               "types" : [ "locality", "political" ]
            },
            {
               "long_name" : "Madison County",
               "short_name" : "Madison County",
               "types" : [ "administrative_area_level_2", "political" ]
            },
            {
               "long_name" : "Alabama",
               "short_name" : "AL",
               "types" : [ "administrative_area_level_1", "political" ]
            },
            {
               "long_name" : "United States",
               "short_name" : "US",
               "types" : [ "country", "political" ]
            },
            {
               "long_name" : "35808",
               "short_name" : "35808",
               "types" : [ "postal_code" ]
            }
         ],
         "formatted_address" : "4200 Rideout Rd, Huntsville, AL 35808, USA",
         "geometry" : {
            "bounds" : {
               "northeast" : {
                  "lat" : 34.6618249,
                  "lng" : -86.67091189999999
               },
               "southwest" : {
                  "lat" : 34.6611275,
                  "lng" : -86.67169509999999
               }
            },
            "location" : {
               "lat" : 34.6616323,
               "lng" : -86.6713391
            },
            "location_type" : "ROOFTOP",
            "viewport" : {
               "northeast" : {
                  "lat" : 34.6628251802915,
                  "lng" : -86.6699545197085
               },
               "southwest" : {
                  "lat" : 34.6601272197085,
                  "lng" : -86.6726524802915
               }
            }
         },
         "place_id" : "ChIJfwTUphJuYogRES0O54szYUk",
         "types" : [ "premise" ]
      },
      {
         "address_components" : [
            {
               "long_name" : "4200",
               "short_name" : "4200",
               "types" : [ "street_number" ]
            },
            {
               "long_name" : "Rideout Road",
               "short_name" : "Rideout Rd",
               "types" : [ "route" ]
            },
            {
               "long_name" : "Huntsville",
               "short_name" : "Huntsville",
               "types" : [ "locality", "political" ]
            },
            {
               "long_name" : "Alabama",
               "short_name" : "AL",
               "types" : [ "administrative_area_level_1", "political" ]
            },
            {
               "long_name" : "United States",
               "short_name" : "US",
               "types" : [ "country", "political" ]
            },
            {
               "long_name" : "35808",
               "short_name" : "35808",
               "types" : [ "postal_code" ]
            }
         ],
         "formatted_address" : "4200 Rideout Rd, Huntsville, AL 35808, USA",
         "geometry" : {
            "location" : {
               "lat" : 34.66164759999999,
               "lng" : -86.67255279999999
            },
            "location_type" : "RANGE_INTERPOLATED",
            "viewport" : {
               "northeast" : {
                  "lat" : 34.66299658029149,
                  "lng" : -86.67120381970848
               },
               "southwest" : {
                  "lat" : 34.66029861970849,
                  "lng" : -86.67390178029149
               }
            }
         },
         "place_id" : "Eio0MjAwIFJpZGVvdXQgUmQsIEh1bnRzdmlsbGUsIEFMIDM1ODA4LCBVU0EiGxIZChQKEgllMjLBEm5iiBEmeGcJAGGT0xDoIA",
         "types" : [ "street_address" ]
      },
      {
         "address_components" : [
            {
               "long_name" : "35808",
               "short_name" : "35808",
               "types" : [ "postal_code" ]
            },
            {
               "long_name" : "Huntsville",
               "short_name" : "Huntsville",
               "types" : [ "locality", "political" ]
            },
            {
               "long_name" : "Madison County",
               "short_name" : "Madison County",
               "types" : [ "administrative_area_level_2", "political" ]
            },
            {
               "long_name" : "Alabama",
               "short_name" : "AL",
               "types" : [ "administrative_area_level_1", "political" ]
            },
            {
               "long_name" : "United States",
               "short_name" : "US",
               "types" : [ "country", "political" ]
            }
         ],
         "formatted_address" : "Huntsville, AL 35808, USA",
         "geometry" : {
            "bounds" : {
               "northeast" : {
                  "lat" : 34.709442,
                  "lng" : -86.60272200000001
               },
               "southwest" : {
                  "lat" : 34.608385,
                  "lng" : -86.69899699999999
               }
            },
            "location" : {
               "lat" : 34.6729904,
               "lng" : -86.65103289999999
            },
            "location_type" : "APPROXIMATE",
            "viewport" : {
               "northeast" : {
                  "lat" : 34.709442,
                  "lng" : -86.60272200000001
               },
               "southwest" : {
                  "lat" : 34.608385,
                  "lng" : -86.69899699999999
               }
            }
         },
         "place_id" : "ChIJ72C-9xpyYogR42rsg6JDSUI",
         "types" : [ "postal_code" ]
      },
      {
         "address_components" : [
            {
               "long_name" : "Madison County",
               "short_name" : "Madison County",
               "types" : [ "administrative_area_level_2", "political" ]
            },
            {
               "long_name" : "Alabama",
               "short_name" : "AL",
               "types" : [ "administrative_area_level_1", "political" ]
            },
            {
               "long_name" : "United States",
               "short_name" : "US",
               "types" : [ "country", "political" ]
            }
         ],
         "formatted_address" : "Madison County, AL, USA",
         "geometry" : {
            "bounds" : {
               "northeast" : {
                  "lat" : 34.992365,
                  "lng" : -86.2557709
               },
               "southwest" : {
                  "lat" : 34.475633,
                  "lng" : -86.7900559
               }
            },
            "location" : {
               "lat" : 34.72397309999999,
               "lng" : -86.49965460000001
            },
            "location_type" : "APPROXIMATE",
            "viewport" : {
               "northeast" : {
                  "lat" : 34.992365,
                  "lng" : -86.2557709
               },
               "southwest" : {
                  "lat" : 34.475633,
                  "lng" : -86.7900559
               }
            }
         },
         "place_id" : "ChIJD42VzuAUYogRzlLGpknYs44",
         "types" : [ "administrative_area_level_2", "political" ]
      },
      {
         "address_components" : [
            {
               "long_name" : "Alabama",
               "short_name" : "Alabama",
               "types" : [ "administrative_area_level_1", "political" ]
            },
            {
               "long_name" : "United States",
               "short_name" : "US",
               "types" : [ "country", "political" ]
            }
         ],
         "formatted_address" : "Alabama, USA",
         "geometry" : {
            "bounds" : {
               "northeast" : {
                  "lat" : 35.008028,
                  "lng" : -84.888246
               },
               "southwest" : {
                  "lat" : 30.144425,
                  "lng" : -88.4732269
               }
            },
            "location" : {
               "lat" : 32.3182314,
               "lng" : -86.902298
            },
            "location_type" : "APPROXIMATE",
            "viewport" : {
               "northeast" : {
                  "lat" : 35.008028,
                  "lng" : -84.888246
               },
               "southwest" : {
                  "lat" : 30.144425,
                  "lng" : -88.4732269
               }
            }
         },
         "place_id" : "ChIJdf5LHzR_hogR6czIUzU0VV4",
         "types" : [ "administrative_area_level_1", "political" ]
      },
      {
         "address_components" : [
            {
               "long_name" : "United States",
               "short_name" : "US",
               "types" : [ "country", "political" ]
            }
         ],
         "formatted_address" : "United States",
         "geometry" : {
            "bounds" : {
               "northeast" : {
                  "lat" : 71.5388001,
                  "lng" : -66.885417
               },
               "southwest" : {
                  "lat" : 18.7763,
                  "lng" : 170.5957
               }
            },
            "location" : {
               "lat" : 37.09024,
               "lng" : -95.712891
            },
            "location_type" : "APPROXIMATE",
            "viewport" : {
               "northeast" : {
                  "lat" : 71.5388001,
                  "lng" : -66.885417
               },
               "southwest" : {
                  "lat" : 18.7763,
                  "lng" : 170.5957
               }
            }
         },
         "place_id" : "ChIJCzYy5IS16lQRQrfeQ5K5Oxw",
         "types" : [ "country", "political" ]
      }
   ],
   "status" : "OK"
}
