{
   "plus_code" : {
      "compound_code" : "Q6FM+MV Jamshedpur, Jharkhand, India",
      "global_code" : "7MJ8Q6FM+MV"
   },
   "results" : [
      {
         "address_components" : [
            {
               "long_name" : "Jamshedpur",
               "short_name" : "Jamshedpur",
               "types" : [ "locality", "political" ]
            },
            {
               "long_name" : "Jharkhand",
               "short_name" : "JH",
               "types" : [ "administrative_area_level_1", "political" ]
            },
            {
               "long_name" : "India",
               "short_name" : "IN",
               "types" : [ "country", "political" ]
            },
            {
               "long_name" : "831008",
               "short_name" : "831008",
               "types" : [ "postal_code" ]
            }
         ],
         "formatted_address" : "P.O. Indranagar, Jamshedpur, Jharkhand 831008, India",
         "geometry" : {
            "location" : {
               "lat" : 22.7741536,
               "lng" : 86.2346828
            },
            "location_type" : "GEOMETRIC_CENTER",
            "viewport" : {
               "northeast" : {
                  "lat" : 22.7755025802915,
                  "lng" : 86.23603178029151
               },
               "southwest" : {
                  "lat" : 22.7728046197085,
                  "lng" : 86.23333381970849
               }
            }
         },
         "place_id" : "ChIJO9H_mMni9TkRQTGh0vJjwS0",
         "types" : [ "establishment", "point_of_interest", "store" ]
      },
      {
         "address_components" : [
            {
               "long_name" : "Unnamed Road",
               "short_name" : "Unnamed Road",
               "types" : [ "route" ]
            },
            {
               "long_name" : "Indra Nagar",
               "short_name" : "Indra Nagar",
               "types" : [ "political", "sublocality", "sublocality_level_2" ]
            },
            {
               "long_name" : "Telco Colony",
               "short_name" : "Telco Colony",
               "types" : [ "political", "sublocality", "sublocality_level_1" ]
            },
            {
               "long_name" : "Jamshedpur",
               "short_name" : "Jamshedpur",
               "types" : [ "locality", "political" ]
            },
            {
               "long_name" : "East Singhbhum",
               "short_name" : "East Singhbhum",
               "types" : [ "administrative_area_level_2", "political" ]
            },
            {
               "long_name" : "Jharkhand",
               "short_name" : "JH",
               "types" : [ "administrative_area_level_1", "political" ]
            },
            {
               "long_name" : "India",
               "short_name" : "IN",
               "types" : [ "country", "political" ]
            },
            {
               "long_name" : "831004",
               "short_name" : "831004",
               "types" : [ "postal_code" ]
            }
         ],
         "formatted_address" : "Unnamed Road, Indra Nagar, Telco Colony, Jamshedpur, Jharkhand 831004, India",
         "geometry" : {
            "bounds" : {
               "northeast" : {
                  "lat" : 22.7755191,
                  "lng" : 86.2361636
               },
               "southwest" : {
                  "lat" : 22.7738263,
                  "lng" : 86.23596909999999
               }
            },
            "location" : {
               "lat" : 22.7746727,
               "lng" : 86.23606629999999
            },
            "location_type" : "GEOMETRIC_CENTER",
            "viewport" : {
               "northeast" : {
                  "lat" : 22.7760216802915,
                  "lng" : 86.2374153302915
               },
               "southwest" : {
                  "lat" : 22.7733237197085,
                  "lng" : 86.23471736970848
               }
            }
         },
         "place_id" : "ChIJb5y518ni9TkRBqkQCsYyGnQ",
         "types" : [ "route" ]
      },
      {
         "address_components" : [
            {
               "long_name" : "Tata Motors",
               "short_name" : "Tata Motors",
               "types" : [ "political", "sublocality", "sublocality_level_2" ]
            },
            {
               "long_name" : "Telco Colony",
               "short_name" : "Telco Colony",
               "types" : [ "political", "sublocality", "sublocality_level_1" ]
            },
            {
               "long_name" : "Jamshedpur",
               "short_name" : "Jamshedpur",
               "types" : [ "locality", "political" ]
            },
            {
               "long_name" : "East Singhbhum",
               "short_name" : "East Singhbhum",
               "types" : [ "administrative_area_level_2", "political" ]
            },
            {
               "long_name" : "Jharkhand",
               "short_name" : "JH",
               "types" : [ "administrative_area_level_1", "political" ]
            },
            {
               "long_name" : "India",
               "short_name" : "IN",
               "types" : [ "country", "political" ]
            }
         ],
         "formatted_address" : "Tata Motors, Telco Colony, Jamshedpur, Jharkhand, India",
         "geometry" : {
            "bounds" : {
               "northeast" : {
                  "lat" : 22.7762589,
                  "lng" : 86.25864589999999
               },
               "southwest" : {
                  "lat" : 22.7473191,
                  "lng" : 86.22330409999999
               }
            },
            "location" : {
               "lat" : 22.7634584,
               "lng" : 86.23871440000001
            },
            "location_type" : "APPROXIMATE",
            "viewport" : {
               "northeast" : {
                  "lat" : 22.7762589,
                  "lng" : 86.25864589999999
               },
               "southwest" : {
                  "lat" : 22.7473191,
                  "lng" : 86.22330409999999
               }
            }
         },
         "place_id" : "ChIJvwRw9Ev99TkRVKZoZR2VbDI",
         "types" : [ "political", "sublocality", "sublocality_level_2" ]
      },
      {
         "address_components" : [
            {
               "long_name" : "Kalimali",
               "short_name" : "Kalimali",
               "types" : [ "locality", "political" ]
            },
            {
               "long_name" : "East Singhbhum",
               "short_name" : "East Singhbhum",
               "types" : [ "administrative_area_level_2", "political" ]
            },
            {
               "long_name" : "Jharkhand",
               "short_name" : "JH",
               "types" : [ "administrative_area_level_1", "political" ]
            },
            {
               "long_name" : "India",
               "short_name" : "IN",
               "types" : [ "country", "political" ]
            }
         ],
         "formatted_address" : "Kalimali, Jharkhand, India",
         "geometry" : {
            "bounds" : {
               "northeast" : {
                  "lat" : 22.7911901,
                  "lng" : 86.2431699
               },
               "southwest" : {
                  "lat" : 22.7594299,
                  "lng" : 86.20680999999999
               }
            },
            "location" : {
               "lat" : 22.7751184,
               "lng" : 86.2285536
            },
            "location_type" : "APPROXIMATE",
            "viewport" : {
               "northeast" : {
                  "lat" : 22.7911901,
                  "lng" : 86.2431699
               },
               "southwest" : {
                  "lat" : 22.7594299,
                  "lng" : 86.20680999999999
               }
            }
         },
         "place_id" : "ChIJvdlqNNDi9TkRTh2Ek2YweUs",
         "types" : [ "locality", "political" ]
      },
      {
         "address_components" : [
            {
               "long_name" : "Telco Colony",
               "short_name" : "Telco Colony",
               "types" : [ "political", "sublocality", "sublocality_level_1" ]
            },
            {
               "long_name" : "Jamshedpur",
               "short_name" : "Jamshedpur",
               "types" : [ "locality", "political" ]
            },
            {
               "long_name" : "East Singhbhum",
               "short_name" : "East Singhbhum",
               "types" : [ "administrative_area_level_2", "political" ]
            },
            {
               "long_name" : "Jharkhand",
               "short_name" : "JH",
               "types" : [ "administrative_area_level_1", "political" ]
            },
            {
               "long_name" : "India",
               "short_name" : "IN",
               "types" : [ "country", "political" ]
            }
         ],
         "formatted_address" : "Telco Colony, Jamshedpur, Jharkhand, India",
         "geometry" : {
            "bounds" : {
               "northeast" : {
                  "lat" : 22.7841058,
                  "lng" : 86.261139
               },
               "southwest" : {
                  "lat" : 22.7473191,
                  "lng" : 86.22330409999999
               }
            },
            "location" : {
               "lat" : 22.7718928,
               "lng" : 86.2550055
            },
            "location_type" : "APPROXIMATE",
            "viewport" : {
               "northeast" : {
                  "lat" : 22.7841058,
                  "lng" : 86.261139
               },
               "southwest" : {
                  "lat" : 22.7473191,
                  "lng" : 86.22330409999999
               }
            }
         },
         "place_id" : "ChIJ9yWX4K7i9TkR9ii7xxkYt6M",
         "types" : [ "political", "sublocality", "sublocality_level_1" ]
      },
      {
         "address_components" : [
            {
               "long_name" : "831004",
               "short_name" : "831004",
               "types" : [ "postal_code" ]
            },
            {
               "long_name" : "East Singhbhum",
               "short_name" : "East Singhbhum",
               "types" : [ "administrative_area_level_2", "political" ]
            },
            {
               "long_name" : "Jharkhand",
               "short_name" : "JH",
               "types" : [ "administrative_area_level_1", "political" ]
            },
            {
               "long_name" : "India",
               "short_name" : "IN",
               "types" : [ "country", "political" ]
            }
         ],
         "formatted_address" : "Jharkhand 831004, India",
         "geometry" : {
            "bounds" : {
               "northeast" : {
                  "lat" : 22.8023303,
                  "lng" : 86.31746529999999
               },
               "southwest" : {
                  "lat" : 22.7601006,
                  "lng" : 86.2212997
               }
            },
            "location" : {
               "lat" : 22.7794565,
               "lng" : 86.28695069999999
            },
            "location_type" : "APPROXIMATE",
            "viewport" : {
               "northeast" : {
                  "lat" : 22.8023303,
                  "lng" : 86.31746529999999
               },
               "southwest" : {
                  "lat" : 22.7601006,
                  "lng" : 86.2212997
               }
            }
         },
         "place_id" : "ChIJ1fdlshEI9jkRZ_5E7Zodqw4",
         "types" : [ "postal_code" ]
      },
      {
         "address_components" : [
            {
               "long_name" : "East Singhbhum",
               "short_name" : "East Singhbhum",
               "types" : [ "administrative_area_level_2", "political" ]
            },
            {
               "long_name" : "Jharkhand",
               "short_name" : "JH",
               "types" : [ "administrative_area_level_1", "political" ]
            },
            {
               "long_name" : "India",
               "short_name" : "IN",
               "types" : [ "country", "political" ]
            }
         ],
         "formatted_address" : "East Singhbhum, Jharkhand, India",
         "geometry" : {
            "bounds" : {
               "northeast" : {
                  "lat" : 23.0156299,
                  "lng" : 86.893
               },
               "southwest" : {
                  "lat" : 22.21007,
                  "lng" : 86.0655699
               }
            },
            "location" : {
               "lat" : 22.4866756,
               "lng" : 86.49965460000001
            },
            "location_type" : "APPROXIMATE",
            "viewport" : {
               "northeast" : {
                  "lat" : 23.0156299,
                  "lng" : 86.893
               },
               "southwest" : {
                  "lat" : 22.21007,
                  "lng" : 86.0655699
               }
            }
         },
         "place_id" : "ChIJawSW3hsd9jkREfiZG3uAZnY",
         "types" : [ "administrative_area_level_2", "political" ]
      },
      {
         "address_components" : [
            {
               "long_name" : "Jharkhand",
               "short_name" : "Jharkhand",
               "types" : [ "administrative_area_level_1", "political" ]
            },
            {
               "long_name" : "India",
               "short_name" : "IN",
               "types" : [ "country", "political" ]
            }
         ],
         "formatted_address" : "Jharkhand, India",
         "geometry" : {
            "bounds" : {
               "northeast" : {
                  "lat" : 25.328823,
                  "lng" : 87.947529
               },
               "southwest" : {
                  "lat" : 21.9729309,
                  "lng" : 83.32382799999999
               }
            },
            "location" : {
               "lat" : 23.6101808,
               "lng" : 85.2799354
            },
            "location_type" : "APPROXIMATE",
            "viewport" : {
               "northeast" : {
                  "lat" : 25.328823,
                  "lng" : 87.947529
               },
               "southwest" : {
                  "lat" : 21.9729309,
                  "lng" : 83.32382799999999
               }
            }
         },
         "place_id" : "ChIJVwhI34YjizkRBJDi7gm4xWI",
         "types" : [ "administrative_area_level_1", "political" ]
      },
      {
         "address_components" : [
            {
               "long_name" : "India",
               "short_name" : "IN",
               "types" : [ "country", "political" ]
            }
         ],
         "formatted_address" : "India",
         "geometry" : {
            "bounds" : {
               "northeast" : {
                  "lat" : 35.513327,
                  "lng" : 97.39535869999999
               },
               "southwest" : {
                  "lat" : 6.4626999,
                  "lng" : 68.1097
               }
            },
            "location" : {
               "lat" : 20.593684,
               "lng" : 78.96288
            },
            "location_type" : "APPROXIMATE",
            "viewport" : {
               "northeast" : {
                  "lat" : 35.513327,
                  "lng" : 97.39535869999999
               },
               "southwest" : {
                  "lat" : 6.4626999,
                  "lng" : 68.1097
               }
            }
         },
         "place_id" : "ChIJkbeSa_BfYzARphNChaFPjNc",
         "types" : [ "country", "political" ]
      }
   ],
   "status" : "OK"
}
