{
   "plus_code" : {
      "compound_code" : "W7G2+5C Dallas, TX, USA",
      "global_code" : "8645W7G2+5C"
   },
   "results" : [
      {
         "address_components" : [
            {
               "long_name" : "13020",
               "short_name" : "13020",
               "types" : [ "street_number" ]
            },
            {
               "long_name" : "T I Boulevard",
               "short_name" : "T I Blvd",
               "types" : [ "route" ]
            },
            {
               "long_name" : "Dallas",
               "short_name" : "Dallas",
               "types" : [ "locality", "political" ]
            },
            {
               "long_name" : "Dallas County",
               "short_name" : "Dallas County",
               "types" : [ "administrative_area_level_2", "political" ]
            },
            {
               "long_name" : "Texas",
               "short_name" : "TX",
               "types" : [ "administrative_area_level_1", "political" ]
            },
            {
               "long_name" : "United States",
               "short_name" : "US",
               "types" : [ "country", "political" ]
            },
            {
               "long_name" : "75243",
               "short_name" : "75243",
               "types" : [ "postal_code" ]
            }
         ],
         "formatted_address" : "13020 T I Blvd, Dallas, TX 75243, USA",
         "geometry" : {
            "location" : {
               "lat" : 32.9254144,
               "lng" : -96.74892609999999
            },
            "location_type" : "ROOFTOP",
            "viewport" : {
               "northeast" : {
                  "lat" : 32.9267633802915,
                  "lng" : -96.74757711970848
               },
               "southwest" : {
                  "lat" : 32.9240654197085,
                  "lng" : -96.75027508029149
               }
            }
         },
         "place_id" : "ChIJcY6k9IkfTIYR5zl9Dbi2RCI",
         "plus_code" : {
            "compound_code" : "W7G2+5C Dallas, Texas, United States",
            "global_code" : "8645W7G2+5C"
         },
         "types" : [ "street_address" ]
      },
      {
         "address_components" : [
            {
               "long_name" : "13020",
               "short_name" : "13020",
               "types" : [ "street_number" ]
            },
            {
               "long_name" : "T I Boulevard",
               "short_name" : "T I Blvd",
               "types" : [ "route" ]
            },
            {
               "long_name" : "Dallas",
               "short_name" : "Dallas",
               "types" : [ "locality", "political" ]
            },
            {
               "long_name" : "Dallas County",
               "short_name" : "Dallas County",
               "types" : [ "administrative_area_level_2", "political" ]
            },
            {
               "long_name" : "Texas",
               "short_name" : "TX",
               "types" : [ "administrative_area_level_1", "political" ]
            },
            {
               "long_name" : "United States",
               "short_name" : "US",
               "types" : [ "country", "political" ]
            },
            {
               "long_name" : "75243",
               "short_name" : "75243",
               "types" : [ "postal_code" ]
            }
         ],
         "formatted_address" : "13020 T I Blvd, Dallas, TX 75243, USA",
         "geometry" : {
            "location" : {
               "lat" : 32.9254144,
               "lng" : -96.74892609999999
            },
            "location_type" : "ROOFTOP",
            "viewport" : {
               "northeast" : {
                  "lat" : 32.9267633802915,
                  "lng" : -96.74757711970848
               },
               "southwest" : {
                  "lat" : 32.9240654197085,
                  "lng" : -96.75027508029149
               }
            }
         },
         "place_id" : "ChIJ8-_O-4kfTIYRG7H9uJVS4z4",
         "plus_code" : {
            "compound_code" : "W7G2+5C Dallas, Texas, United States",
            "global_code" : "8645W7G2+5C"
         },
         "types" : [ "establishment", "point_of_interest" ]
      },
      {
         "address_components" : [
            {
               "long_name" : "13190",
               "short_name" : "13190",
               "types" : [ "street_number" ]
            },
            {
               "long_name" : "T I Boulevard",
               "short_name" : "T I Blvd",
               "types" : [ "route" ]
            },
            {
               "long_name" : "Dallas",
               "short_name" : "Dallas",
               "types" : [ "locality", "political" ]
            },
            {
               "long_name" : "Texas",
               "short_name" : "TX",
               "types" : [ "administrative_area_level_1", "political" ]
            },
            {
               "long_name" : "United States",
               "short_name" : "US",
               "types" : [ "country", "political" ]
            },
            {
               "long_name" : "75243",
               "short_name" : "75243",
               "types" : [ "postal_code" ]
            }
         ],
         "formatted_address" : "13190 T I Blvd, Dallas, TX 75243, USA",
         "geometry" : {
            "location" : {
               "lat" : 32.9254453,
               "lng" : -96.74931789999999
            },
            "location_type" : "RANGE_INTERPOLATED",
            "viewport" : {
               "northeast" : {
                  "lat" : 32.9267942802915,
                  "lng" : -96.74796891970848
               },
               "southwest" : {
                  "lat" : 32.9240963197085,
                  "lng" : -96.75066688029149
               }
            }
         },
         "place_id" : "EiUxMzE5MCBUIEkgQmx2ZCwgRGFsbGFzLCBUWCA3NTI0MywgVVNBIhsSGQoUChIJ1Uz4_YkfTIYRCiH7wxu2rE4Qhmc",
         "types" : [ "street_address" ]
      },
      {
         "address_components" : [
            {
               "long_name" : "75243",
               "short_name" : "75243",
               "types" : [ "postal_code" ]
            },
            {
               "long_name" : "Dallas",
               "short_name" : "Dallas",
               "types" : [ "locality", "political" ]
            },
            {
               "long_name" : "Dallas County",
               "short_name" : "Dallas County",
               "types" : [ "administrative_area_level_2", "political" ]
            },
            {
               "long_name" : "Texas",
               "short_name" : "TX",
               "types" : [ "administrative_area_level_1", "political" ]
            },
            {
               "long_name" : "United States",
               "short_name" : "US",
               "types" : [ "country", "political" ]
            }
         ],
         "formatted_address" : "Dallas, TX 75243, USA",
         "geometry" : {
            "bounds" : {
               "northeast" : {
                  "lat" : 32.9399741,
                  "lng" : -96.69784009999999
               },
               "southwest" : {
                  "lat" : 32.892519,
                  "lng" : -96.7713079
               }
            },
            "location" : {
               "lat" : 32.9087285,
               "lng" : -96.7386946
            },
            "location_type" : "APPROXIMATE",
            "viewport" : {
               "northeast" : {
                  "lat" : 32.9399741,
                  "lng" : -96.69784009999999
               },
               "southwest" : {
                  "lat" : 32.892519,
                  "lng" : -96.7713079
               }
            }
         },
         "place_id" : "ChIJcdHGDuwfTIYRidB_AAGlHcY",
         "types" : [ "postal_code" ]
      },
      {
         "address_components" : [
            {
               "long_name" : "Dallas",
               "short_name" : "Dallas",
               "types" : [ "locality", "political" ]
            },
            {
               "long_name" : "Dallas County",
               "short_name" : "Dallas County",
               "types" : [ "administrative_area_level_2", "political" ]
            },
            {
               "long_name" : "Texas",
               "short_name" : "TX",
               "types" : [ "administrative_area_level_1", "political" ]
            },
            {
               "long_name" : "United States",
               "short_name" : "US",
               "types" : [ "country", "political" ]
            }
         ],
         "formatted_address" : "Dallas, TX, USA",
         "geometry" : {
            "bounds" : {
               "northeast" : {
                  "lat" : 33.0237921,
                  "lng" : -96.4637379
               },
               "southwest" : {
                  "lat" : 32.617537,
                  "lng" : -96.999347
               }
            },
            "location" : {
               "lat" : 32.7766642,
               "lng" : -96.79698789999999
            },
            "location_type" : "APPROXIMATE",
            "viewport" : {
               "northeast" : {
                  "lat" : 33.0237921,
                  "lng" : -96.4637379
               },
               "southwest" : {
                  "lat" : 32.617537,
                  "lng" : -96.999347
               }
            }
         },
         "place_id" : "ChIJS5dFe_cZTIYRj2dH9qSb7Lk",
         "types" : [ "locality", "political" ]
      },
      {
         "address_components" : [
            {
               "long_name" : "Dallas County",
               "short_name" : "Dallas County",
               "types" : [ "administrative_area_level_2", "political" ]
            },
            {
               "long_name" : "Texas",
               "short_name" : "TX",
               "types" : [ "administrative_area_level_1", "political" ]
            },
            {
               "long_name" : "United States",
               "short_name" : "US",
               "types" : [ "country", "political" ]
            }
         ],
         "formatted_address" : "Dallas County, TX, USA",
         "geometry" : {
            "bounds" : {
               "northeast" : {
                  "lat" : 32.9893279,
                  "lng" : -96.5168659
               },
               "southwest" : {
                  "lat" : 32.5452141,
                  "lng" : -97.03838499999999
               }
            },
            "location" : {
               "lat" : 32.8024682,
               "lng" : -96.83509989999999
            },
            "location_type" : "APPROXIMATE",
            "viewport" : {
               "northeast" : {
                  "lat" : 32.9893279,
                  "lng" : -96.5168659
               },
               "southwest" : {
                  "lat" : 32.5452141,
                  "lng" : -97.03838499999999
               }
            }
         },
         "place_id" : "ChIJgUO9Ukq_ToYRh9ndnDaZsUc",
         "types" : [ "administrative_area_level_2", "political" ]
      },
      {
         "address_components" : [
            {
               "long_name" : "Texas",
               "short_name" : "Texas",
               "types" : [ "administrative_area_level_1", "political" ]
            },
            {
               "long_name" : "United States",
               "short_name" : "US",
               "types" : [ "country", "political" ]
            }
         ],
         "formatted_address" : "Texas, USA",
         "geometry" : {
            "bounds" : {
               "northeast" : {
                  "lat" : 36.5007041,
                  "lng" : -93.5080389
               },
               "southwest" : {
                  "lat" : 25.8371638,
                  "lng" : -106.6456461
               }
            },
            "location" : {
               "lat" : 31.9685988,
               "lng" : -99.9018131
            },
            "location_type" : "APPROXIMATE",
            "viewport" : {
               "northeast" : {
                  "lat" : 36.5007041,
                  "lng" : -93.5080389
               },
               "southwest" : {
                  "lat" : 25.8371638,
                  "lng" : -106.6456461
               }
            }
         },
         "place_id" : "ChIJSTKCCzZwQIYRPN4IGI8c6xY",
         "types" : [ "administrative_area_level_1", "political" ]
      },
      {
         "address_components" : [
            {
               "long_name" : "United States",
               "short_name" : "US",
               "types" : [ "country", "political" ]
            }
         ],
         "formatted_address" : "United States",
         "geometry" : {
            "bounds" : {
               "northeast" : {
                  "lat" : 71.5388001,
                  "lng" : -66.885417
               },
               "southwest" : {
                  "lat" : 18.7763,
                  "lng" : 170.5957
               }
            },
            "location" : {
               "lat" : 37.09024,
               "lng" : -95.712891
            },
            "location_type" : "APPROXIMATE",
            "viewport" : {
               "northeast" : {
                  "lat" : 71.5388001,
                  "lng" : -66.885417
               },
               "southwest" : {
                  "lat" : 18.7763,
                  "lng" : 170.5957
               }
            }
         },
         "place_id" : "ChIJCzYy5IS16lQRQrfeQ5K5Oxw",
         "types" : [ "country", "political" ]
      }
   ],
   "status" : "OK"
}
