{
   "plus_code" : {
      "compound_code" : "J6FF+GQ Norwich, UK",
      "global_code" : "9F43J6FF+GQ"
   },
   "results" : [
      {
         "address_components" : [
            {
               "long_name" : "Norwich",
               "short_name" : "Norwich",
               "types" : [ "locality", "political" ]
            },
            {
               "long_name" : "United Kingdom",
               "short_name" : "GB",
               "types" : [ "country", "political" ]
            },
            {
               "long_name" : "NR4 7UA",
               "short_name" : "NR4 7UA",
               "types" : [ "postal_code" ]
            }
         ],
         "formatted_address" : "Norwich Research Park, Norwich NR4 7UA, United Kingdom",
         "geometry" : {
            "location" : {
               "lat" : 52.62379869999999,
               "lng" : 1.2244204
            },
            "location_type" : "GEOMETRIC_CENTER",
            "viewport" : {
               "northeast" : {
                  "lat" : 52.62514768029149,
                  "lng" : 1.225769380291502
               },
               "southwest" : {
                  "lat" : 52.62244971970849,
                  "lng" : 1.223071419708498
               }
            }
         },
         "place_id" : "ChIJ0x_fW8_g2UcRPwWtyPxT69w",
         "plus_code" : {
            "compound_code" : "J6FF+GQ Norwich, United Kingdom",
            "global_code" : "9F43J6FF+GQ"
         },
         "types" : [ "establishment", "point_of_interest" ]
      },
      {
         "address_components" : [
            {
               "long_name" : "Colney Lane",
               "short_name" : "Colney Ln",
               "types" : [ "route" ]
            },
            {
               "long_name" : "Norwich",
               "short_name" : "Norwich",
               "types" : [ "postal_town" ]
            },
            {
               "long_name" : "Norfolk",
               "short_name" : "Norfolk",
               "types" : [ "administrative_area_level_2", "political" ]
            },
            {
               "long_name" : "England",
               "short_name" : "England",
               "types" : [ "administrative_area_level_1", "political" ]
            },
            {
               "long_name" : "United Kingdom",
               "short_name" : "GB",
               "types" : [ "country", "political" ]
            },
            {
               "long_name" : "NR4 7YY",
               "short_name" : "NR4 7YY",
               "types" : [ "postal_code" ]
            }
         ],
         "formatted_address" : "Colney Ln, Norwich NR4 7YY, UK",
         "geometry" : {
            "bounds" : {
               "northeast" : {
                  "lat" : 52.62375650000001,
                  "lng" : 1.2233303
               },
               "southwest" : {
                  "lat" : 52.6229892,
                  "lng" : 1.2225867
               }
            },
            "location" : {
               "lat" : 52.6233728,
               "lng" : 1.2229585
            },
            "location_type" : "GEOMETRIC_CENTER",
            "viewport" : {
               "northeast" : {
                  "lat" : 52.62472183029151,
                  "lng" : 1.224307480291502
               },
               "southwest" : {
                  "lat" : 52.62202386970851,
                  "lng" : 1.221609519708498
               }
            }
         },
         "place_id" : "ChIJrST9M8Xg2UcRJMC79mDXuc8",
         "types" : [ "route" ]
      },
      {
         "address_components" : [
            {
               "long_name" : "NR4 7UT",
               "short_name" : "NR4 7UT",
               "types" : [ "postal_code" ]
            },
            {
               "long_name" : "Norwich",
               "short_name" : "Norwich",
               "types" : [ "postal_town" ]
            },
            {
               "long_name" : "Norfolk",
               "short_name" : "Norfolk",
               "types" : [ "administrative_area_level_2", "political" ]
            },
            {
               "long_name" : "England",
               "short_name" : "England",
               "types" : [ "administrative_area_level_1", "political" ]
            },
            {
               "long_name" : "United Kingdom",
               "short_name" : "GB",
               "types" : [ "country", "political" ]
            }
         ],
         "formatted_address" : "Norwich NR4 7UT, UK",
         "geometry" : {
            "bounds" : {
               "northeast" : {
                  "lat" : 52.6251831,
                  "lng" : 1.2325206
               },
               "southwest" : {
                  "lat" : 52.6206509,
                  "lng" : 1.2231168
               }
            },
            "location" : {
               "lat" : 52.6238192,
               "lng" : 1.2245325
            },
            "location_type" : "APPROXIMATE",
            "viewport" : {
               "northeast" : {
                  "lat" : 52.6251831,
                  "lng" : 1.2325206
               },
               "southwest" : {
                  "lat" : 52.6206509,
                  "lng" : 1.2231168
               }
            }
         },
         "place_id" : "ChIJIY_63Nrg2UcRe5cmYX_Jpkw",
         "types" : [ "postal_code" ]
      },
      {
         "address_components" : [
            {
               "long_name" : "Colney",
               "short_name" : "Colney",
               "types" : [ "administrative_area_level_4", "political" ]
            },
            {
               "long_name" : "Norwich",
               "short_name" : "Norwich",
               "types" : [ "postal_town" ]
            },
            {
               "long_name" : "Norfolk",
               "short_name" : "Norfolk",
               "types" : [ "administrative_area_level_2", "political" ]
            },
            {
               "long_name" : "England",
               "short_name" : "England",
               "types" : [ "administrative_area_level_1", "political" ]
            },
            {
               "long_name" : "United Kingdom",
               "short_name" : "GB",
               "types" : [ "country", "political" ]
            }
         ],
         "formatted_address" : "Colney, Norwich, UK",
         "geometry" : {
            "bounds" : {
               "northeast" : {
                  "lat" : 52.6371341,
                  "lng" : 1.2327415
               },
               "southwest" : {
                  "lat" : 52.6099229,
                  "lng" : 1.1973829
               }
            },
            "location" : {
               "lat" : 52.6190881,
               "lng" : 1.2136788
            },
            "location_type" : "APPROXIMATE",
            "viewport" : {
               "northeast" : {
                  "lat" : 52.6371341,
                  "lng" : 1.2327415
               },
               "southwest" : {
                  "lat" : 52.6099229,
                  "lng" : 1.1973829
               }
            }
         },
         "place_id" : "ChIJeRyJQ8bg2UcRHiSxDbAwEDc",
         "types" : [ "administrative_area_level_4", "political" ]
      },
      {
         "address_components" : [
            {
               "long_name" : "NR4",
               "short_name" : "NR4",
               "types" : [ "postal_code", "postal_code_prefix" ]
            },
            {
               "long_name" : "Norwich",
               "short_name" : "Norwich",
               "types" : [ "postal_town" ]
            },
            {
               "long_name" : "Norfolk",
               "short_name" : "Norfolk",
               "types" : [ "administrative_area_level_2", "political" ]
            },
            {
               "long_name" : "England",
               "short_name" : "England",
               "types" : [ "administrative_area_level_1", "political" ]
            },
            {
               "long_name" : "United Kingdom",
               "short_name" : "GB",
               "types" : [ "country", "political" ]
            }
         ],
         "formatted_address" : "Norwich NR4, UK",
         "geometry" : {
            "bounds" : {
               "northeast" : {
                  "lat" : 52.6484235,
                  "lng" : 1.3236366
               },
               "southwest" : {
                  "lat" : 52.58332979999999,
                  "lng" : 1.1960696
               }
            },
            "location" : {
               "lat" : 52.60004379999999,
               "lng" : 1.247209
            },
            "location_type" : "APPROXIMATE",
            "viewport" : {
               "northeast" : {
                  "lat" : 52.6484235,
                  "lng" : 1.3236366
               },
               "southwest" : {
                  "lat" : 52.58332979999999,
                  "lng" : 1.1960696
               }
            }
         },
         "place_id" : "ChIJzcy7p7Xg2UcRSnBc8zHbRuc",
         "types" : [ "postal_code", "postal_code_prefix" ]
      },
      {
         "address_components" : [
            {
               "long_name" : "Norwich",
               "short_name" : "Norwich",
               "types" : [ "locality", "political" ]
            },
            {
               "long_name" : "Norwich",
               "short_name" : "Norwich",
               "types" : [ "postal_town" ]
            },
            {
               "long_name" : "Norfolk",
               "short_name" : "Norfolk",
               "types" : [ "administrative_area_level_2", "political" ]
            },
            {
               "long_name" : "England",
               "short_name" : "England",
               "types" : [ "administrative_area_level_1", "political" ]
            },
            {
               "long_name" : "United Kingdom",
               "short_name" : "GB",
               "types" : [ "country", "political" ]
            }
         ],
         "formatted_address" : "Norwich, UK",
         "geometry" : {
            "bounds" : {
               "northeast" : {
                  "lat" : 52.6858357,
                  "lng" : 1.3786135
               },
               "southwest" : {
                  "lat" : 52.5944502,
                  "lng" : 1.1950855
               }
            },
            "location" : {
               "lat" : 52.6308859,
               "lng" : 1.297355
            },
            "location_type" : "APPROXIMATE",
            "viewport" : {
               "northeast" : {
                  "lat" : 52.6858357,
                  "lng" : 1.3786135
               },
               "southwest" : {
                  "lat" : 52.5944502,
                  "lng" : 1.1950855
               }
            }
         },
         "place_id" : "ChIJE_UzUdWq0EcRL0USDuClTGg",
         "types" : [ "locality", "political" ]
      },
      {
         "address_components" : [
            {
               "long_name" : "South Norfolk District",
               "short_name" : "South Norfolk District",
               "types" : [ "administrative_area_level_3", "political" ]
            },
            {
               "long_name" : "Norfolk",
               "short_name" : "Norfolk",
               "types" : [ "administrative_area_level_2", "political" ]
            },
            {
               "long_name" : "England",
               "short_name" : "England",
               "types" : [ "administrative_area_level_1", "political" ]
            },
            {
               "long_name" : "United Kingdom",
               "short_name" : "GB",
               "types" : [ "country", "political" ]
            }
         ],
         "formatted_address" : "South Norfolk District, UK",
         "geometry" : {
            "bounds" : {
               "northeast" : {
                  "lat" : 52.6785175,
                  "lng" : 1.682626
               },
               "southwest" : {
                  "lat" : 52.355367,
                  "lng" : 0.9470054000000001
               }
            },
            "location" : {
               "lat" : 52.48281859999999,
               "lng" : 1.2294872
            },
            "location_type" : "APPROXIMATE",
            "viewport" : {
               "northeast" : {
                  "lat" : 52.6785175,
                  "lng" : 1.682626
               },
               "southwest" : {
                  "lat" : 52.355367,
                  "lng" : 0.9470054000000001
               }
            }
         },
         "place_id" : "ChIJASqpVmTv2UcRIOPBu6gcDgQ",
         "types" : [ "administrative_area_level_3", "political" ]
      },
      {
         "address_components" : [
            {
               "long_name" : "Norwich",
               "short_name" : "Norwich",
               "types" : [ "postal_town" ]
            },
            {
               "long_name" : "Norfolk",
               "short_name" : "Norfolk",
               "types" : [ "administrative_area_level_2", "political" ]
            },
            {
               "long_name" : "England",
               "short_name" : "England",
               "types" : [ "administrative_area_level_1", "political" ]
            },
            {
               "long_name" : "United Kingdom",
               "short_name" : "GB",
               "types" : [ "country", "political" ]
            }
         ],
         "formatted_address" : "Norwich, UK",
         "geometry" : {
            "bounds" : {
               "northeast" : {
                  "lat" : 52.9269711,
                  "lng" : 1.6435661
               },
               "southwest" : {
                  "lat" : 52.4064229,
                  "lng" : 0.8157593999999999
               }
            },
            "location" : {
               "lat" : 52.65358209999999,
               "lng" : 1.2371039
            },
            "location_type" : "APPROXIMATE",
            "viewport" : {
               "northeast" : {
                  "lat" : 52.9269711,
                  "lng" : 1.6435661
               },
               "southwest" : {
                  "lat" : 52.4064229,
                  "lng" : 0.8157593999999999
               }
            }
         },
         "place_id" : "ChIJt2-AXk7g2UcRi1eUn-Dwujc",
         "types" : [ "postal_town" ]
      },
      {
         "address_components" : [
            {
               "long_name" : "Norfolk",
               "short_name" : "Norfolk",
               "types" : [ "administrative_area_level_2", "political" ]
            },
            {
               "long_name" : "England",
               "short_name" : "England",
               "types" : [ "administrative_area_level_1", "political" ]
            },
            {
               "long_name" : "United Kingdom",
               "short_name" : "GB",
               "types" : [ "country", "political" ]
            }
         ],
         "formatted_address" : "Norfolk, UK",
         "geometry" : {
            "bounds" : {
               "northeast" : {
                  "lat" : 52.9927044,
                  "lng" : 1.7454611
               },
               "southwest" : {
                  "lat" : 52.355367,
                  "lng" : 0.1535552
               }
            },
            "location" : {
               "lat" : 52.6139686,
               "lng" : 0.8864021
            },
            "location_type" : "APPROXIMATE",
            "viewport" : {
               "northeast" : {
                  "lat" : 52.9927044,
                  "lng" : 1.7454611
               },
               "southwest" : {
                  "lat" : 52.355367,
                  "lng" : 0.1535552
               }
            }
         },
         "place_id" : "ChIJ39UebIqp0EcRHxKMavHIeTU",
         "types" : [ "administrative_area_level_2", "political" ]
      },
      {
         "address_components" : [
            {
               "long_name" : "England",
               "short_name" : "England",
               "types" : [ "administrative_area_level_1", "political" ]
            },
            {
               "long_name" : "United Kingdom",
               "short_name" : "GB",
               "types" : [ "country", "political" ]
            }
         ],
         "formatted_address" : "England, UK",
         "geometry" : {
            "bounds" : {
               "northeast" : {
                  "lat" : 55.81165979999999,
                  "lng" : 1.7629159
               },
               "southwest" : {
                  "lat" : 49.8647411,
                  "lng" : -6.4185458
               }
            },
            "location" : {
               "lat" : 52.3555177,
               "lng" : -1.1743197
            },
            "location_type" : "APPROXIMATE",
            "viewport" : {
               "northeast" : {
                  "lat" : 55.81165979999999,
                  "lng" : 1.7629159
               },
               "southwest" : {
                  "lat" : 49.8647411,
                  "lng" : -6.4185458
               }
            }
         },
         "place_id" : "ChIJ39UebIqp0EcRqI4tMyWV4fQ",
         "types" : [ "administrative_area_level_1", "political" ]
      },
      {
         "address_components" : [
            {
               "long_name" : "United Kingdom",
               "short_name" : "GB",
               "types" : [ "country", "political" ]
            }
         ],
         "formatted_address" : "United Kingdom",
         "geometry" : {
            "bounds" : {
               "northeast" : {
                  "lat" : 60.91569999999999,
                  "lng" : 33.9165549
               },
               "southwest" : {
                  "lat" : 34.5614,
                  "lng" : -8.8988999
               }
            },
            "location" : {
               "lat" : 55.378051,
               "lng" : -3.435973
            },
            "location_type" : "APPROXIMATE",
            "viewport" : {
               "northeast" : {
                  "lat" : 60.91569999999999,
                  "lng" : 33.9165549
               },
               "southwest" : {
                  "lat" : 34.5614,
                  "lng" : -8.8988999
               }
            }
         },
         "place_id" : "ChIJqZHHQhE7WgIReiWIMkOg-MQ",
         "types" : [ "country", "political" ]
      }
   ],
   "status" : "OK"
}
