{
   "plus_code" : {
      "compound_code" : "MM4Q+HV Seattle, WA, USA",
      "global_code" : "84VVMM4Q+HV"
   },
   "results" : [
      {
         "address_components" : [
            {
               "long_name" : "4060",
               "short_name" : "4060",
               "types" : [ "street_number" ]
            },
            {
               "long_name" : "George Washington Lane Northeast",
               "short_name" : "George Washington Lane Northeast",
               "types" : [ "route" ]
            },
            {
               "long_name" : "Northeast Seattle",
               "short_name" : "Northeast Seattle",
               "types" : [ "neighborhood", "political" ]
            },
            {
               "long_name" : "Seattle",
               "short_name" : "Seattle",
               "types" : [ "locality", "political" ]
            },
            {
               "long_name" : "King County",
               "short_name" : "King County",
               "types" : [ "administrative_area_level_2", "political" ]
            },
            {
               "long_name" : "Washington",
               "short_name" : "WA",
               "types" : [ "administrative_area_level_1", "political" ]
            },
            {
               "long_name" : "United States",
               "short_name" : "US",
               "types" : [ "country", "political" ]
            },
            {
               "long_name" : "98195",
               "short_name" : "98195",
               "types" : [ "postal_code" ]
            },
            {
               "long_name" : "3080",
               "short_name" : "3080",
               "types" : [ "postal_code_suffix" ]
            }
         ],
         "formatted_address" : "4060 George Washington Lane Northeast, Seattle, WA 98195, USA",
         "geometry" : {
            "location" : {
               "lat" : 47.656462,
               "lng" : -122.310346
            },
            "location_type" : "ROOFTOP",
            "viewport" : {
               "northeast" : {
                  "lat" : 47.6578109802915,
                  "lng" : -122.3089970197085
               },
               "southwest" : {
                  "lat" : 47.6551130197085,
                  "lng" : -122.3116949802915
               }
            }
         },
         "place_id" : "ChIJ9_-_KfMUkFQRky8vzyJ0_m4",
         "plus_code" : {
            "compound_code" : "MM4Q+HV Seattle, Washington, United States",
            "global_code" : "84VVMM4Q+HV"
         },
         "types" : [ "establishment", "library", "point_of_interest" ]
      },
      {
         "address_components" : [
            {
               "long_name" : "4060",
               "short_name" : "4060",
               "types" : [ "street_number" ]
            },
            {
               "long_name" : "George Washington Lane Northeast",
               "short_name" : "George Washington Lane Northeast",
               "types" : [ "route" ]
            },
            {
               "long_name" : "Northeast Seattle",
               "short_name" : "Northeast Seattle",
               "types" : [ "neighborhood", "political" ]
            },
            {
               "long_name" : "Seattle",
               "short_name" : "Seattle",
               "types" : [ "locality", "political" ]
            },
            {
               "long_name" : "King County",
               "short_name" : "King County",
               "types" : [ "administrative_area_level_2", "political" ]
            },
            {
               "long_name" : "Washington",
               "short_name" : "WA",
               "types" : [ "administrative_area_level_1", "political" ]
            },
            {
               "long_name" : "United States",
               "short_name" : "US",
               "types" : [ "country", "political" ]
            },
            {
               "long_name" : "98105",
               "short_name" : "98105",
               "types" : [ "postal_code" ]
            }
         ],
         "formatted_address" : "4060 George Washington Lane Northeast, Seattle, WA 98105, USA",
         "geometry" : {
            "location" : {
               "lat" : 47.6564729,
               "lng" : -122.3103597
            },
            "location_type" : "ROOFTOP",
            "viewport" : {
               "northeast" : {
                  "lat" : 47.6578218802915,
                  "lng" : -122.3090107197085
               },
               "southwest" : {
                  "lat" : 47.6551239197085,
                  "lng" : -122.3117086802915
               }
            }
         },
         "place_id" : "ChIJc-sFKPMUkFQRII-LSA6K2SU",
         "plus_code" : {
            "compound_code" : "MM4Q+HV Seattle, Washington, United States",
            "global_code" : "84VVMM4Q+HV"
         },
         "types" : [ "street_address" ]
      },
      {
         "address_components" : [
            {
               "long_name" : "4060",
               "short_name" : "4060",
               "types" : [ "street_number" ]
            },
            {
               "long_name" : "George Washington Lane Northeast",
               "short_name" : "George Washington Lane Northeast",
               "types" : [ "route" ]
            },
            {
               "long_name" : "Seattle",
               "short_name" : "Seattle",
               "types" : [ "locality", "political" ]
            },
            {
               "long_name" : "Washington",
               "short_name" : "WA",
               "types" : [ "administrative_area_level_1", "political" ]
            },
            {
               "long_name" : "United States",
               "short_name" : "US",
               "types" : [ "country", "political" ]
            },
            {
               "long_name" : "98105",
               "short_name" : "98105",
               "types" : [ "postal_code" ]
            }
         ],
         "formatted_address" : "4060 George Washington Lane Northeast, Seattle, WA 98105, USA",
         "geometry" : {
            "location" : {
               "lat" : 47.6570068,
               "lng" : -122.3104032
            },
            "location_type" : "RANGE_INTERPOLATED",
            "viewport" : {
               "northeast" : {
                  "lat" : 47.65835578029151,
                  "lng" : -122.3090542197085
               },
               "southwest" : {
                  "lat" : 47.65565781970851,
                  "lng" : -122.3117521802915
               }
            }
         },
         "place_id" : "Ej00MDYwIEdlb3JnZSBXYXNoaW5ndG9uIExhbmUgTm9ydGhlYXN0LCBTZWF0dGxlLCBXQSA5ODEwNSwgVVNBIhsSGQoUChIJ_2qFMvMUkFQRu7Ff0Mwo0TUQ3B8",
         "types" : [ "street_address" ]
      },
      {
         "address_components" : [
            {
               "long_name" : "University District",
               "short_name" : "University District",
               "types" : [ "neighborhood", "political" ]
            },
            {
               "long_name" : "Seattle",
               "short_name" : "Seattle",
               "types" : [ "locality", "political" ]
            },
            {
               "long_name" : "King County",
               "short_name" : "King County",
               "types" : [ "administrative_area_level_2", "political" ]
            },
            {
               "long_name" : "Washington",
               "short_name" : "WA",
               "types" : [ "administrative_area_level_1", "political" ]
            },
            {
               "long_name" : "United States",
               "short_name" : "US",
               "types" : [ "country", "political" ]
            }
         ],
         "formatted_address" : "University District, Seattle, WA, USA",
         "geometry" : {
            "bounds" : {
               "northeast" : {
                  "lat" : 47.6743199,
                  "lng" : -122.2864358
               },
               "southwest" : {
                  "lat" : 47.6474201,
                  "lng" : -122.3222372
               }
            },
            "location" : {
               "lat" : 47.6627771,
               "lng" : -122.3138767
            },
            "location_type" : "APPROXIMATE",
            "viewport" : {
               "northeast" : {
                  "lat" : 47.6743199,
                  "lng" : -122.2864358
               },
               "southwest" : {
                  "lat" : 47.6474201,
                  "lng" : -122.3222372
               }
            }
         },
         "place_id" : "ChIJDxOEC4wUkFQRJmbHppH7LE0",
         "types" : [ "neighborhood", "political" ]
      },
      {
         "address_components" : [
            {
               "long_name" : "98105",
               "short_name" : "98105",
               "types" : [ "postal_code" ]
            },
            {
               "long_name" : "Seattle",
               "short_name" : "Seattle",
               "types" : [ "locality", "political" ]
            },
            {
               "long_name" : "King County",
               "short_name" : "King County",
               "types" : [ "administrative_area_level_2", "political" ]
            },
            {
               "long_name" : "Washington",
               "short_name" : "WA",
               "types" : [ "administrative_area_level_1", "political" ]
            },
            {
               "long_name" : "United States",
               "short_name" : "US",
               "types" : [ "country", "political" ]
            }
         ],
         "formatted_address" : "Seattle, WA 98105, USA",
         "geometry" : {
            "bounds" : {
               "northeast" : {
                  "lat" : 47.69031589999999,
                  "lng" : -122.226235
               },
               "southwest" : {
                  "lat" : 47.640375,
                  "lng" : -122.4155019
               }
            },
            "location" : {
               "lat" : 47.6614244,
               "lng" : -122.2683743
            },
            "location_type" : "APPROXIMATE",
            "viewport" : {
               "northeast" : {
                  "lat" : 47.69031589999999,
                  "lng" : -122.226235
               },
               "southwest" : {
                  "lat" : 47.640375,
                  "lng" : -122.4155019
               }
            }
         },
         "place_id" : "ChIJTy7Ir4MUkFQRQva-Rh3kSWg",
         "types" : [ "postal_code" ]
      },
      {
         "address_components" : [
            {
               "long_name" : "Seattle",
               "short_name" : "Seattle",
               "types" : [ "locality", "political" ]
            },
            {
               "long_name" : "King County",
               "short_name" : "King County",
               "types" : [ "administrative_area_level_2", "political" ]
            },
            {
               "long_name" : "Washington",
               "short_name" : "WA",
               "types" : [ "administrative_area_level_1", "political" ]
            },
            {
               "long_name" : "United States",
               "short_name" : "US",
               "types" : [ "country", "political" ]
            }
         ],
         "formatted_address" : "Seattle, WA, USA",
         "geometry" : {
            "bounds" : {
               "northeast" : {
                  "lat" : 47.734145,
                  "lng" : -122.2244331
               },
               "southwest" : {
                  "lat" : 47.4919119,
                  "lng" : -122.4596959
               }
            },
            "location" : {
               "lat" : 47.6062095,
               "lng" : -122.3320708
            },
            "location_type" : "APPROXIMATE",
            "viewport" : {
               "northeast" : {
                  "lat" : 47.734145,
                  "lng" : -122.2244331
               },
               "southwest" : {
                  "lat" : 47.4919119,
                  "lng" : -122.4596959
               }
            }
         },
         "place_id" : "ChIJVTPokywQkFQRmtVEaUZlJRA",
         "types" : [ "locality", "political" ]
      },
      {
         "address_components" : [
            {
               "long_name" : "King County",
               "short_name" : "King County",
               "types" : [ "administrative_area_level_2", "political" ]
            },
            {
               "long_name" : "Washington",
               "short_name" : "WA",
               "types" : [ "administrative_area_level_1", "political" ]
            },
            {
               "long_name" : "United States",
               "short_name" : "US",
               "types" : [ "country", "political" ]
            }
         ],
         "formatted_address" : "King County, WA, USA",
         "geometry" : {
            "bounds" : {
               "northeast" : {
                  "lat" : 47.780328,
                  "lng" : -121.065709
               },
               "southwest" : {
                  "lat" : 47.084457,
                  "lng" : -122.5410681
               }
            },
            "location" : {
               "lat" : 47.5480339,
               "lng" : -121.9836029
            },
            "location_type" : "APPROXIMATE",
            "viewport" : {
               "northeast" : {
                  "lat" : 47.780328,
                  "lng" : -121.065709
               },
               "southwest" : {
                  "lat" : 47.084457,
                  "lng" : -122.5410681
               }
            }
         },
         "place_id" : "ChIJN3gtg4xckFQRPuBki2urgOI",
         "types" : [ "administrative_area_level_2", "political" ]
      },
      {
         "address_components" : [
            {
               "long_name" : "Washington",
               "short_name" : "Washington",
               "types" : [ "administrative_area_level_1", "political" ]
            },
            {
               "long_name" : "United States",
               "short_name" : "US",
               "types" : [ "country", "political" ]
            }
         ],
         "formatted_address" : "Washington, USA",
         "geometry" : {
            "bounds" : {
               "northeast" : {
                  "lat" : 49.0024305,
                  "lng" : -116.91558
               },
               "southwest" : {
                  "lat" : 45.543541,
                  "lng" : -124.8489739
               }
            },
            "location" : {
               "lat" : 47.7510741,
               "lng" : -120.7401385
            },
            "location_type" : "APPROXIMATE",
            "viewport" : {
               "northeast" : {
                  "lat" : 49.0024305,
                  "lng" : -116.91558
               },
               "southwest" : {
                  "lat" : 45.543541,
                  "lng" : -124.8489739
               }
            }
         },
         "place_id" : "ChIJ-bDD5__lhVQRuvNfbGh4QpQ",
         "types" : [ "administrative_area_level_1", "political" ]
      },
      {
         "address_components" : [
            {
               "long_name" : "United States",
               "short_name" : "US",
               "types" : [ "country", "political" ]
            }
         ],
         "formatted_address" : "United States",
         "geometry" : {
            "bounds" : {
               "northeast" : {
                  "lat" : 71.5388001,
                  "lng" : -66.885417
               },
               "southwest" : {
                  "lat" : 18.7763,
                  "lng" : 170.5957
               }
            },
            "location" : {
               "lat" : 37.09024,
               "lng" : -95.712891
            },
            "location_type" : "APPROXIMATE",
            "viewport" : {
               "northeast" : {
                  "lat" : 71.5388001,
                  "lng" : -66.885417
               },
               "southwest" : {
                  "lat" : 18.7763,
                  "lng" : 170.5957
               }
            }
         },
         "place_id" : "ChIJCzYy5IS16lQRQrfeQ5K5Oxw",
         "types" : [ "country", "political" ]
      }
   ],
   "status" : "OK"
}
