{
   "plus_code" : {
      "compound_code" : "WX5C+F5 Chapel Hill, NC, USA",
      "global_code" : "8772WX5C+F5"
   },
   "results" : [
      {
         "address_components" : [
            {
               "long_name" : "General Administration Building",
               "short_name" : "General Administration Building",
               "types" : [ "premise" ]
            },
            {
               "long_name" : "300",
               "short_name" : "300",
               "types" : [ "street_number" ]
            },
            {
               "long_name" : "South Building",
               "short_name" : "South Bldg",
               "types" : [ "route" ]
            },
            {
               "long_name" : "Chapel Hill",
               "short_name" : "Chapel Hill",
               "types" : [ "locality", "political" ]
            },
            {
               "long_name" : "Chapel Hill",
               "short_name" : "Chapel Hill",
               "types" : [ "administrative_area_level_3", "political" ]
            },
            {
               "long_name" : "Orange County",
               "short_name" : "Orange County",
               "types" : [ "administrative_area_level_2", "political" ]
            },
            {
               "long_name" : "North Carolina",
               "short_name" : "NC",
               "types" : [ "administrative_area_level_1", "political" ]
            },
            {
               "long_name" : "United States",
               "short_name" : "US",
               "types" : [ "country", "political" ]
            },
            {
               "long_name" : "27514",
               "short_name" : "27514",
               "types" : [ "postal_code" ]
            }
         ],
         "formatted_address" : "General Administration Building, 300 South Bldg, Chapel Hill, NC 27514, USA",
         "geometry" : {
            "bounds" : {
               "northeast" : {
                  "lat" : 35.9089328,
                  "lng" : -79.02904339999999
               },
               "southwest" : {
                  "lat" : 35.9080276,
                  "lng" : -79.0300458
               }
            },
            "location" : {
               "lat" : 35.9086945,
               "lng" : -79.0294639
            },
            "location_type" : "ROOFTOP",
            "viewport" : {
               "northeast" : {
                  "lat" : 35.9098291802915,
                  "lng" : -79.0281956197085
               },
               "southwest" : {
                  "lat" : 35.9071312197085,
                  "lng" : -79.0308935802915
               }
            }
         },
         "place_id" : "ChIJKxeIy5nCrIkR4gxnmNypuXw",
         "types" : [ "premise" ]
      },
      {
         "address_components" : [
            {
               "long_name" : "910",
               "short_name" : "910",
               "types" : [ "street_number" ]
            },
            {
               "long_name" : "Raleigh Road",
               "short_name" : "Raleigh Rd",
               "types" : [ "route" ]
            },
            {
               "long_name" : "Chapel Hill",
               "short_name" : "Chapel Hill",
               "types" : [ "locality", "political" ]
            },
            {
               "long_name" : "North Carolina",
               "short_name" : "NC",
               "types" : [ "administrative_area_level_1", "political" ]
            },
            {
               "long_name" : "United States",
               "short_name" : "US",
               "types" : [ "country", "political" ]
            },
            {
               "long_name" : "27514",
               "short_name" : "27514",
               "types" : [ "postal_code" ]
            }
         ],
         "formatted_address" : "3916, 910 Raleigh Rd, Chapel Hill, NC 27514, United States",
         "geometry" : {
            "location" : {
               "lat" : 35.908746,
               "lng" : -79.0295977
            },
            "location_type" : "ROOFTOP",
            "viewport" : {
               "northeast" : {
                  "lat" : 35.9100949802915,
                  "lng" : -79.0282487197085
               },
               "southwest" : {
                  "lat" : 35.9073970197085,
                  "lng" : -79.03094668029151
               }
            }
         },
         "place_id" : "ChIJl3ZDM5jCrIkR3oHSPtrtHpA",
         "plus_code" : {
            "compound_code" : "WX5C+F5 Chapel Hill, NC, United States",
            "global_code" : "8772WX5C+F5"
         },
         "types" : [ "establishment", "point_of_interest", "university" ]
      },
      {
         "address_components" : [
            {
               "long_name" : "910",
               "short_name" : "910",
               "types" : [ "street_number" ]
            },
            {
               "long_name" : "Raleigh Road",
               "short_name" : "Raleigh Rd",
               "types" : [ "route" ]
            },
            {
               "long_name" : "Chapel Hill",
               "short_name" : "Chapel Hill",
               "types" : [ "locality", "political" ]
            },
            {
               "long_name" : "Chapel Hill",
               "short_name" : "Chapel Hill",
               "types" : [ "administrative_area_level_3", "political" ]
            },
            {
               "long_name" : "Orange County",
               "short_name" : "Orange County",
               "types" : [ "administrative_area_level_2", "political" ]
            },
            {
               "long_name" : "North Carolina",
               "short_name" : "NC",
               "types" : [ "administrative_area_level_1", "political" ]
            },
            {
               "long_name" : "United States",
               "short_name" : "US",
               "types" : [ "country", "political" ]
            },
            {
               "long_name" : "27514",
               "short_name" : "27514",
               "types" : [ "postal_code" ]
            },
            {
               "long_name" : "3916",
               "short_name" : "3916",
               "types" : [ "postal_code_suffix" ]
            }
         ],
         "formatted_address" : "910 Raleigh Rd, Chapel Hill, NC 27514, USA",
         "geometry" : {
            "location" : {
               "lat" : 35.9086945,
               "lng" : -79.0294639
            },
            "location_type" : "ROOFTOP",
            "viewport" : {
               "northeast" : {
                  "lat" : 35.91004348029149,
                  "lng" : -79.0281149197085
               },
               "southwest" : {
                  "lat" : 35.9073455197085,
                  "lng" : -79.03081288029151
               }
            }
         },
         "place_id" : "ChIJEb9XLJjCrIkRxk3A6FmyKEo",
         "plus_code" : {
            "compound_code" : "WX5C+F6 Chapel Hill, NC, United States",
            "global_code" : "8772WX5C+F6"
         },
         "types" : [ "street_address" ]
      },
      {
         "address_components" : [
            {
               "long_name" : "Raleigh Road",
               "short_name" : "Raleigh Rd",
               "types" : [ "route" ]
            },
            {
               "long_name" : "Chapel Hill",
               "short_name" : "Chapel Hill",
               "types" : [ "locality", "political" ]
            },
            {
               "long_name" : "Chapel Hill",
               "short_name" : "Chapel Hill",
               "types" : [ "administrative_area_level_3", "political" ]
            },
            {
               "long_name" : "Orange County",
               "short_name" : "Orange County",
               "types" : [ "administrative_area_level_2", "political" ]
            },
            {
               "long_name" : "North Carolina",
               "short_name" : "NC",
               "types" : [ "administrative_area_level_1", "political" ]
            },
            {
               "long_name" : "United States",
               "short_name" : "US",
               "types" : [ "country", "political" ]
            },
            {
               "long_name" : "27517",
               "short_name" : "27517",
               "types" : [ "postal_code" ]
            }
         ],
         "formatted_address" : "Raleigh Rd, Chapel Hill, NC 27517, USA",
         "geometry" : {
            "bounds" : {
               "northeast" : {
                  "lat" : 35.9094251,
                  "lng" : -79.0292841
               },
               "southwest" : {
                  "lat" : 35.9091628,
                  "lng" : -79.0305005
               }
            },
            "location" : {
               "lat" : 35.909294,
               "lng" : -79.0298923
            },
            "location_type" : "GEOMETRIC_CENTER",
            "viewport" : {
               "northeast" : {
                  "lat" : 35.9106429302915,
                  "lng" : -79.02854331970849
               },
               "southwest" : {
                  "lat" : 35.9079449697085,
                  "lng" : -79.0312412802915
               }
            }
         },
         "place_id" : "ChIJ93QgMJjCrIkRECu30ZVvboY",
         "types" : [ "route" ]
      },
      {
         "address_components" : [
            {
               "long_name" : "27514",
               "short_name" : "27514",
               "types" : [ "postal_code" ]
            },
            {
               "long_name" : "Chapel Hill",
               "short_name" : "Chapel Hill",
               "types" : [ "locality", "political" ]
            },
            {
               "long_name" : "Orange County",
               "short_name" : "Orange County",
               "types" : [ "administrative_area_level_2", "political" ]
            },
            {
               "long_name" : "North Carolina",
               "short_name" : "NC",
               "types" : [ "administrative_area_level_1", "political" ]
            },
            {
               "long_name" : "United States",
               "short_name" : "US",
               "types" : [ "country", "political" ]
            }
         ],
         "formatted_address" : "Chapel Hill, NC 27514, USA",
         "geometry" : {
            "bounds" : {
               "northeast" : {
                  "lat" : 36.040617,
                  "lng" : -79.000325
               },
               "southwest" : {
                  "lat" : 35.8781439,
                  "lng" : -79.08076989999999
               }
            },
            "location" : {
               "lat" : 35.9722081,
               "lng" : -79.04755589999999
            },
            "location_type" : "APPROXIMATE",
            "viewport" : {
               "northeast" : {
                  "lat" : 36.040617,
                  "lng" : -79.000325
               },
               "southwest" : {
                  "lat" : 35.8781439,
                  "lng" : -79.08076989999999
               }
            }
         },
         "place_id" : "ChIJ74Zks2jCrIkRUtUnd9ZxFxY",
         "types" : [ "postal_code" ]
      },
      {
         "address_components" : [
            {
               "long_name" : "Chapel Hill",
               "short_name" : "Chapel Hill",
               "types" : [ "locality", "political" ]
            },
            {
               "long_name" : "Chapel Hill",
               "short_name" : "Chapel Hill",
               "types" : [ "administrative_area_level_3", "political" ]
            },
            {
               "long_name" : "Orange County",
               "short_name" : "Orange County",
               "types" : [ "administrative_area_level_2", "political" ]
            },
            {
               "long_name" : "North Carolina",
               "short_name" : "NC",
               "types" : [ "administrative_area_level_1", "political" ]
            },
            {
               "long_name" : "United States",
               "short_name" : "US",
               "types" : [ "country", "political" ]
            }
         ],
         "formatted_address" : "Chapel Hill, NC, USA",
         "geometry" : {
            "bounds" : {
               "northeast" : {
                  "lat" : 35.972366,
                  "lng" : -78.9954109
               },
               "southwest" : {
                  "lat" : 35.869552,
                  "lng" : -79.08317099999999
               }
            },
            "location" : {
               "lat" : 35.9131996,
               "lng" : -79.05584450000001
            },
            "location_type" : "APPROXIMATE",
            "viewport" : {
               "northeast" : {
                  "lat" : 35.972366,
                  "lng" : -78.9954109
               },
               "southwest" : {
                  "lat" : 35.869552,
                  "lng" : -79.08317099999999
               }
            }
         },
         "place_id" : "ChIJp35uIRzDrIkRy-RDBOC6A38",
         "types" : [ "locality", "political" ]
      },
      {
         "address_components" : [
            {
               "long_name" : "Chapel Hill",
               "short_name" : "Chapel Hill",
               "types" : [ "administrative_area_level_3", "political" ]
            },
            {
               "long_name" : "Orange County",
               "short_name" : "Orange County",
               "types" : [ "administrative_area_level_2", "political" ]
            },
            {
               "long_name" : "North Carolina",
               "short_name" : "NC",
               "types" : [ "administrative_area_level_1", "political" ]
            },
            {
               "long_name" : "United States",
               "short_name" : "US",
               "types" : [ "country", "political" ]
            }
         ],
         "formatted_address" : "Chapel Hill, NC, USA",
         "geometry" : {
            "bounds" : {
               "northeast" : {
                  "lat" : 36.0317,
                  "lng" : -78.987121
               },
               "southwest" : {
                  "lat" : 35.8606679,
                  "lng" : -79.148578
               }
            },
            "location" : {
               "lat" : 35.9791445,
               "lng" : -79.06450559999999
            },
            "location_type" : "APPROXIMATE",
            "viewport" : {
               "northeast" : {
                  "lat" : 36.0317,
                  "lng" : -78.987121
               },
               "southwest" : {
                  "lat" : 35.8606679,
                  "lng" : -79.148578
               }
            }
         },
         "place_id" : "ChIJzdWC-9bcrIkRm87x5L6hBl0",
         "types" : [ "administrative_area_level_3", "political" ]
      },
      {
         "address_components" : [
            {
               "long_name" : "Orange County",
               "short_name" : "Orange County",
               "types" : [ "administrative_area_level_2", "political" ]
            },
            {
               "long_name" : "North Carolina",
               "short_name" : "NC",
               "types" : [ "administrative_area_level_1", "political" ]
            },
            {
               "long_name" : "United States",
               "short_name" : "US",
               "types" : [ "country", "political" ]
            }
         ],
         "formatted_address" : "Orange County, NC, USA",
         "geometry" : {
            "bounds" : {
               "northeast" : {
                  "lat" : 36.243866,
                  "lng" : -78.95079
               },
               "southwest" : {
                  "lat" : 35.8606679,
                  "lng" : -79.264594
               }
            },
            "location" : {
               "lat" : 36.0263022,
               "lng" : -79.10969009999999
            },
            "location_type" : "APPROXIMATE",
            "viewport" : {
               "northeast" : {
                  "lat" : 36.243866,
                  "lng" : -78.95079
               },
               "southwest" : {
                  "lat" : 35.8606679,
                  "lng" : -79.264594
               }
            }
         },
         "place_id" : "ChIJEejT22XdrIkRPupCdcVJt0k",
         "types" : [ "administrative_area_level_2", "political" ]
      },
      {
         "address_components" : [
            {
               "long_name" : "North Carolina",
               "short_name" : "North Carolina",
               "types" : [ "administrative_area_level_1", "political" ]
            },
            {
               "long_name" : "United States",
               "short_name" : "US",
               "types" : [ "country", "political" ]
            }
         ],
         "formatted_address" : "North Carolina, USA",
         "geometry" : {
            "bounds" : {
               "northeast" : {
                  "lat" : 36.5881568,
                  "lng" : -75.400119
               },
               "southwest" : {
                  "lat" : 33.7528778,
                  "lng" : -84.32186899999999
               }
            },
            "location" : {
               "lat" : 35.7595731,
               "lng" : -79.01929969999999
            },
            "location_type" : "APPROXIMATE",
            "viewport" : {
               "northeast" : {
                  "lat" : 36.5881568,
                  "lng" : -75.400119
               },
               "southwest" : {
                  "lat" : 33.7528778,
                  "lng" : -84.32186899999999
               }
            }
         },
         "place_id" : "ChIJgRo4_MQfVIgRGa4i6fUwP60",
         "types" : [ "administrative_area_level_1", "political" ]
      },
      {
         "address_components" : [
            {
               "long_name" : "United States",
               "short_name" : "US",
               "types" : [ "country", "political" ]
            }
         ],
         "formatted_address" : "United States",
         "geometry" : {
            "bounds" : {
               "northeast" : {
                  "lat" : 71.5388001,
                  "lng" : -66.885417
               },
               "southwest" : {
                  "lat" : 18.7763,
                  "lng" : 170.5957
               }
            },
            "location" : {
               "lat" : 37.09024,
               "lng" : -95.712891
            },
            "location_type" : "APPROXIMATE",
            "viewport" : {
               "northeast" : {
                  "lat" : 71.5388001,
                  "lng" : -66.885417
               },
               "southwest" : {
                  "lat" : 18.7763,
                  "lng" : 170.5957
               }
            }
         },
         "place_id" : "ChIJCzYy5IS16lQRQrfeQ5K5Oxw",
         "types" : [ "country", "political" ]
      }
   ],
   "status" : "OK"
}
