{
   "plus_code" : {
      "compound_code" : "4453+GF Tsukuba, Ibaraki Prefecture, Japan",
      "global_code" : "8R824453+GF"
   },
   "results" : [
      {
         "address_components" : [
            {
               "long_name" : "１−１",
               "short_name" : "１−１",
               "types" : [ "premise" ]
            },
            {
               "long_name" : "1 Chome",
               "short_name" : "1 Chome",
               "types" : [ "political", "sublocality", "sublocality_level_3" ]
            },
            {
               "long_name" : "Tennodai",
               "short_name" : "Tennodai",
               "types" : [ "political", "sublocality", "sublocality_level_2" ]
            },
            {
               "long_name" : "Tsukuba",
               "short_name" : "Tsukuba",
               "types" : [ "locality", "political" ]
            },
            {
               "long_name" : "Ibaraki Prefecture",
               "short_name" : "Ibaraki Prefecture",
               "types" : [ "administrative_area_level_1", "political" ]
            },
            {
               "long_name" : "Japan",
               "short_name" : "JP",
               "types" : [ "country", "political" ]
            },
            {
               "long_name" : "305-8577",
               "short_name" : "305-8577",
               "types" : [ "postal_code" ]
            }
         ],
         "formatted_address" : "1 Chome-１−１ Tennodai, Tsukuba, Ibaraki Prefecture 305-8577, Japan",
         "geometry" : {
            "location" : {
               "lat" : 36.10882369999999,
               "lng" : 140.103652
            },
            "location_type" : "ROOFTOP",
            "viewport" : {
               "northeast" : {
                  "lat" : 36.11017268029149,
                  "lng" : 140.1050009802915
               },
               "southwest" : {
                  "lat" : 36.10747471970849,
                  "lng" : 140.1023030197085
               }
            }
         },
         "place_id" : "ChIJC3v1mf8LImARuLQvY-dArRw",
         "plus_code" : {
            "compound_code" : "4453+GF Tsukuba, Ibaraki Prefecture, Japan",
            "global_code" : "8R824453+GF"
         },
         "types" : [ "establishment", "point_of_interest", "school", "university" ]
      },
      {
         "address_components" : [
            {
               "long_name" : "Unnamed Road",
               "short_name" : "Unnamed Road",
               "types" : [ "route" ]
            },
            {
               "long_name" : "1 Chome",
               "short_name" : "1 Chome",
               "types" : [ "political", "sublocality", "sublocality_level_3" ]
            },
            {
               "long_name" : "Tennōdai",
               "short_name" : "Tennōdai",
               "types" : [ "political", "sublocality", "sublocality_level_2" ]
            },
            {
               "long_name" : "Tsukuba-shi",
               "short_name" : "Tsukuba-shi",
               "types" : [ "locality", "political" ]
            },
            {
               "long_name" : "Ibaraki-ken",
               "short_name" : "Ibaraki-ken",
               "types" : [ "administrative_area_level_1", "political" ]
            },
            {
               "long_name" : "Japan",
               "short_name" : "JP",
               "types" : [ "country", "political" ]
            },
            {
               "long_name" : "305-0006",
               "short_name" : "305-0006",
               "types" : [ "postal_code" ]
            }
         ],
         "formatted_address" : "Unnamed Road, 1 Chome Tennōdai, Tsukuba-shi, Ibaraki-ken 305-0006, Japan",
         "geometry" : {
            "bounds" : {
               "northeast" : {
                  "lat" : 36.1093208,
                  "lng" : 140.1047203
               },
               "southwest" : {
                  "lat" : 36.107571,
                  "lng" : 140.1039928
               }
            },
            "location" : {
               "lat" : 36.1084459,
               "lng" : 140.1043566
            },
            "location_type" : "GEOMETRIC_CENTER",
            "viewport" : {
               "northeast" : {
                  "lat" : 36.1097948802915,
                  "lng" : 140.1057055302915
               },
               "southwest" : {
                  "lat" : 36.1070969197085,
                  "lng" : 140.1030075697085
               }
            }
         },
         "place_id" : "ChIJHdM37gYMImARXpHH_BzWNmI",
         "types" : [ "route" ]
      },
      {
         "address_components" : [
            {
               "long_name" : "1 Chome",
               "short_name" : "1 Chome",
               "types" : [ "political", "sublocality", "sublocality_level_3" ]
            },
            {
               "long_name" : "Tennodai",
               "short_name" : "Tennodai",
               "types" : [ "political", "sublocality", "sublocality_level_2" ]
            },
            {
               "long_name" : "Tsukuba",
               "short_name" : "Tsukuba",
               "types" : [ "locality", "political" ]
            },
            {
               "long_name" : "Ibaraki Prefecture",
               "short_name" : "Ibaraki Prefecture",
               "types" : [ "administrative_area_level_1", "political" ]
            },
            {
               "long_name" : "Japan",
               "short_name" : "JP",
               "types" : [ "country", "political" ]
            },
            {
               "long_name" : "305-0006",
               "short_name" : "305-0006",
               "types" : [ "postal_code" ]
            }
         ],
         "formatted_address" : "1 Chome Tennodai, Tsukuba, Ibaraki Prefecture 305-0006, Japan",
         "geometry" : {
            "bounds" : {
               "northeast" : {
                  "lat" : 36.1153409,
                  "lng" : 140.1075125
               },
               "southwest" : {
                  "lat" : 36.1056593,
                  "lng" : 140.0926472
               }
            },
            "location" : {
               "lat" : 36.1092108,
               "lng" : 140.1017983
            },
            "location_type" : "APPROXIMATE",
            "viewport" : {
               "northeast" : {
                  "lat" : 36.1153409,
                  "lng" : 140.1075125
               },
               "southwest" : {
                  "lat" : 36.1056593,
                  "lng" : 140.0926472
               }
            }
         },
         "place_id" : "ChIJTVTqdv8LImARlquAuFml79Y",
         "types" : [ "political", "sublocality", "sublocality_level_3" ]
      },
      {
         "address_components" : [
            {
               "long_name" : "Tennodai",
               "short_name" : "Tennodai",
               "types" : [ "political", "sublocality", "sublocality_level_2" ]
            },
            {
               "long_name" : "Tsukuba",
               "short_name" : "Tsukuba",
               "types" : [ "locality", "political" ]
            },
            {
               "long_name" : "Ibaraki Prefecture",
               "short_name" : "Ibaraki Prefecture",
               "types" : [ "administrative_area_level_1", "political" ]
            },
            {
               "long_name" : "Japan",
               "short_name" : "JP",
               "types" : [ "country", "political" ]
            },
            {
               "long_name" : "305-0006",
               "short_name" : "305-0006",
               "types" : [ "postal_code" ]
            }
         ],
         "formatted_address" : "Tennodai, Tsukuba, Ibaraki Prefecture 305-0006, Japan",
         "geometry" : {
            "bounds" : {
               "northeast" : {
                  "lat" : 36.1273463,
                  "lng" : 140.1075153
               },
               "southwest" : {
                  "lat" : 36.1056639,
                  "lng" : 140.0889712
               }
            },
            "location" : {
               "lat" : 36.1095774,
               "lng" : 140.1011761
            },
            "location_type" : "APPROXIMATE",
            "viewport" : {
               "northeast" : {
                  "lat" : 36.1273463,
                  "lng" : 140.1075153
               },
               "southwest" : {
                  "lat" : 36.1056639,
                  "lng" : 140.0889712
               }
            }
         },
         "place_id" : "ChIJn17JfVQJImAR-eyd-PDGriE",
         "types" : [ "political", "sublocality", "sublocality_level_2" ]
      },
      {
         "address_components" : [
            {
               "long_name" : "305-0006",
               "short_name" : "305-0006",
               "types" : [ "postal_code" ]
            },
            {
               "long_name" : "Tennodai",
               "short_name" : "Tennodai",
               "types" : [ "political", "sublocality", "sublocality_level_2" ]
            },
            {
               "long_name" : "Tsukuba",
               "short_name" : "Tsukuba",
               "types" : [ "locality", "political" ]
            },
            {
               "long_name" : "Ibaraki Prefecture",
               "short_name" : "Ibaraki Prefecture",
               "types" : [ "administrative_area_level_1", "political" ]
            },
            {
               "long_name" : "Japan",
               "short_name" : "JP",
               "types" : [ "country", "political" ]
            }
         ],
         "formatted_address" : "305-0006, Japan",
         "geometry" : {
            "bounds" : {
               "northeast" : {
                  "lat" : 36.1273511,
                  "lng" : 140.1075153
               },
               "southwest" : {
                  "lat" : 36.1056593,
                  "lng" : 140.0889712
               }
            },
            "location" : {
               "lat" : 36.1145901,
               "lng" : 140.0983826
            },
            "location_type" : "APPROXIMATE",
            "viewport" : {
               "northeast" : {
                  "lat" : 36.1273511,
                  "lng" : 140.1075153
               },
               "southwest" : {
                  "lat" : 36.1056593,
                  "lng" : 140.0889712
               }
            }
         },
         "place_id" : "ChIJSdsSCFMJImARVdUHuZiy7cg",
         "types" : [ "postal_code" ]
      },
      {
         "address_components" : [
            {
               "long_name" : "Tsukuba",
               "short_name" : "Tsukuba",
               "types" : [ "locality", "political" ]
            },
            {
               "long_name" : "Ibaraki Prefecture",
               "short_name" : "Ibaraki Prefecture",
               "types" : [ "administrative_area_level_1", "political" ]
            },
            {
               "long_name" : "Japan",
               "short_name" : "JP",
               "types" : [ "country", "political" ]
            }
         ],
         "formatted_address" : "Tsukuba, Ibaraki Prefecture, Japan",
         "geometry" : {
            "bounds" : {
               "northeast" : {
                  "lat" : 36.2367219,
                  "lng" : 140.1732956
               },
               "southwest" : {
                  "lat" : 35.9473773,
                  "lng" : 139.9957871
               }
            },
            "location" : {
               "lat" : 36.0834857,
               "lng" : 140.0766423
            },
            "location_type" : "APPROXIMATE",
            "viewport" : {
               "northeast" : {
                  "lat" : 36.2367219,
                  "lng" : 140.1732956
               },
               "southwest" : {
                  "lat" : 35.9473773,
                  "lng" : 139.9957871
               }
            }
         },
         "place_id" : "ChIJaQuD6-sLImARg7fEMay-UGo",
         "types" : [ "locality", "political" ]
      },
      {
         "address_components" : [
            {
               "long_name" : "Ibaraki Prefecture",
               "short_name" : "Ibaraki Prefecture",
               "types" : [ "administrative_area_level_1", "political" ]
            },
            {
               "long_name" : "Japan",
               "short_name" : "JP",
               "types" : [ "country", "political" ]
            }
         ],
         "formatted_address" : "Ibaraki Prefecture, Japan",
         "geometry" : {
            "bounds" : {
               "northeast" : {
                  "lat" : 36.9439968,
                  "lng" : 140.8495381
               },
               "southwest" : {
                  "lat" : 35.740146,
                  "lng" : 139.6874577
               }
            },
            "location" : {
               "lat" : 36.3418112,
               "lng" : 140.4467935
            },
            "location_type" : "APPROXIMATE",
            "viewport" : {
               "northeast" : {
                  "lat" : 36.9439968,
                  "lng" : 140.8495381
               },
               "southwest" : {
                  "lat" : 35.740146,
                  "lng" : 139.6874577
               }
            }
         },
         "place_id" : "ChIJF8In71sYImARgMV4m4P7Spo",
         "types" : [ "administrative_area_level_1", "political" ]
      },
      {
         "address_components" : [
            {
               "long_name" : "Japan",
               "short_name" : "JP",
               "types" : [ "country", "political" ]
            }
         ],
         "formatted_address" : "Japan",
         "geometry" : {
            "bounds" : {
               "northeast" : {
                  "lat" : 45.6412626,
                  "lng" : 154.0031455
               },
               "southwest" : {
                  "lat" : 20.3585295,
                  "lng" : 122.8554688
               }
            },
            "location" : {
               "lat" : 36.204824,
               "lng" : 138.252924
            },
            "location_type" : "APPROXIMATE",
            "viewport" : {
               "northeast" : {
                  "lat" : 45.6412626,
                  "lng" : 154.0031455
               },
               "southwest" : {
                  "lat" : 20.3585295,
                  "lng" : 122.8554688
               }
            }
         },
         "place_id" : "ChIJLxl_1w9OZzQRRFJmfNR1QvU",
         "types" : [ "country", "political" ]
      }
   ],
   "status" : "OK"
}
