{
   "plus_code" : {
      "compound_code" : "VF22+VV Woluwe-Saint-Lambert, Belgium",
      "global_code" : "9F26VF22+VV"
   },
   "results" : [
      {
         "address_components" : [
            {
               "long_name" : "10",
               "short_name" : "10",
               "types" : [ "street_number" ]
            },
            {
               "long_name" : "Avenue Hippocrate",
               "short_name" : "Avenue Hippocrate",
               "types" : [ "route" ]
            },
            {
               "long_name" : "Woluwe-Saint-Lambert",
               "short_name" : "Woluwe-St.-Lambert",
               "types" : [ "locality", "political" ]
            },
            {
               "long_name" : "Bruxelles",
               "short_name" : "Bruxelles",
               "types" : [ "administrative_area_level_1", "political" ]
            },
            {
               "long_name" : "Belgium",
               "short_name" : "BE",
               "types" : [ "country", "political" ]
            },
            {
               "long_name" : "1200",
               "short_name" : "1200",
               "types" : [ "postal_code" ]
            }
         ],
         "formatted_address" : "Avenue Hippocrate 10, 1200 Woluwe-Saint-Lambert, Belgium",
         "geometry" : {
            "location" : {
               "lat" : 50.8521389,
               "lng" : 4.4521403
            },
            "location_type" : "ROOFTOP",
            "viewport" : {
               "northeast" : {
                  "lat" : 50.8534878802915,
                  "lng" : 4.453489280291502
               },
               "southwest" : {
                  "lat" : 50.8507899197085,
                  "lng" : 4.450791319708499
               }
            }
         },
         "place_id" : "ChIJm2Vo2IXcw0cR3sVZJhQ7gtI",
         "plus_code" : {
            "compound_code" : "VF22+VV Woluwe-Saint-Lambert, Belgium",
            "global_code" : "9F26VF22+VV"
         },
         "types" : [ "establishment", "hospital", "point_of_interest" ]
      },
      {
         "address_components" : [
            {
               "long_name" : "10",
               "short_name" : "10",
               "types" : [ "street_number" ]
            },
            {
               "long_name" : "Hippokrateslaan",
               "short_name" : "Hippokrateslaan",
               "types" : [ "route" ]
            },
            {
               "long_name" : "Sint-Lambrechts-Woluwe",
               "short_name" : "St.-Lambrechts-Woluwe",
               "types" : [ "locality", "political" ]
            },
            {
               "long_name" : "Brussels Hoofdstedelijk Gewest",
               "short_name" : "Brussels Hoofdstedelijk Gewest",
               "types" : [ "administrative_area_level_1", "political" ]
            },
            {
               "long_name" : "Belgium",
               "short_name" : "BE",
               "types" : [ "country", "political" ]
            },
            {
               "long_name" : "1200",
               "short_name" : "1200",
               "types" : [ "postal_code" ]
            }
         ],
         "formatted_address" : "Hippokrateslaan 10, 1200 Sint-Lambrechts-Woluwe, Belgium",
         "geometry" : {
            "location" : {
               "lat" : 50.8521222,
               "lng" : 4.4517285
            },
            "location_type" : "ROOFTOP",
            "viewport" : {
               "northeast" : {
                  "lat" : 50.85347118029151,
                  "lng" : 4.453077480291502
               },
               "southwest" : {
                  "lat" : 50.85077321970851,
                  "lng" : 4.450379519708498
               }
            }
         },
         "place_id" : "ChIJa4XAy4Xcw0cR_BSN2dyb4e8",
         "plus_code" : {
            "compound_code" : "VF22+RM Woluwe-Saint-Lambert, Belgium",
            "global_code" : "9F26VF22+RM"
         },
         "types" : [ "street_address" ]
      },
      {
         "address_components" : [
            {
               "long_name" : "Hippokrateslaan",
               "short_name" : "Hippokrateslaan",
               "types" : [ "route" ]
            },
            {
               "long_name" : "Sint-Lambrechts-Woluwe",
               "short_name" : "St.-Lambrechts-Woluwe",
               "types" : [ "locality", "political" ]
            },
            {
               "long_name" : "Brussels Hoofdstedelijk Gewest",
               "short_name" : "Brussels Hoofdstedelijk Gewest",
               "types" : [ "administrative_area_level_1", "political" ]
            },
            {
               "long_name" : "Belgium",
               "short_name" : "BE",
               "types" : [ "country", "political" ]
            },
            {
               "long_name" : "1200",
               "short_name" : "1200",
               "types" : [ "postal_code" ]
            }
         ],
         "formatted_address" : "Hippokrateslaan, 1200 Sint-Lambrechts-Woluwe, Belgium",
         "geometry" : {
            "bounds" : {
               "northeast" : {
                  "lat" : 50.85293679999999,
                  "lng" : 4.4528987
               },
               "southwest" : {
                  "lat" : 50.8528507,
                  "lng" : 4.452248099999999
               }
            },
            "location" : {
               "lat" : 50.8528938,
               "lng" : 4.4525734
            },
            "location_type" : "GEOMETRIC_CENTER",
            "viewport" : {
               "northeast" : {
                  "lat" : 50.8542427302915,
                  "lng" : 4.453922380291502
               },
               "southwest" : {
                  "lat" : 50.8515447697085,
                  "lng" : 4.451224419708498
               }
            }
         },
         "place_id" : "ChIJ2wNE24Xcw0cRFCso3HgxMb0",
         "types" : [ "route" ]
      },
      {
         "address_components" : [
            {
               "long_name" : "Woluwe-Saint-Lambert",
               "short_name" : "Woluwe-Saint-Lambert",
               "types" : [ "locality", "political" ]
            },
            {
               "long_name" : "Brussels",
               "short_name" : "Brussels",
               "types" : [ "administrative_area_level_1", "political" ]
            },
            {
               "long_name" : "Belgium",
               "short_name" : "BE",
               "types" : [ "country", "political" ]
            },
            {
               "long_name" : "1200",
               "short_name" : "1200",
               "types" : [ "postal_code" ]
            }
         ],
         "formatted_address" : "1200 Woluwe-Saint-Lambert, Belgium",
         "geometry" : {
            "bounds" : {
               "northeast" : {
                  "lat" : 50.86321,
                  "lng" : 4.4617001
               },
               "southwest" : {
                  "lat" : 50.83382,
                  "lng" : 4.3999099
               }
            },
            "location" : {
               "lat" : 50.8489094,
               "lng" : 4.4320883
            },
            "location_type" : "APPROXIMATE",
            "viewport" : {
               "northeast" : {
                  "lat" : 50.86321,
                  "lng" : 4.4617001
               },
               "southwest" : {
                  "lat" : 50.83382,
                  "lng" : 4.3999099
               }
            }
         },
         "place_id" : "ChIJn_DuA1nbw0cRQtv8Zckaajw",
         "types" : [ "locality", "political" ]
      },
      {
         "address_components" : [
            {
               "long_name" : "1200",
               "short_name" : "1200",
               "types" : [ "postal_code" ]
            },
            {
               "long_name" : "Brussels",
               "short_name" : "Brussels",
               "types" : [ "administrative_area_level_1", "political" ]
            },
            {
               "long_name" : "Belgium",
               "short_name" : "BE",
               "types" : [ "country", "political" ]
            }
         ],
         "formatted_address" : "1200, Belgium",
         "geometry" : {
            "bounds" : {
               "northeast" : {
                  "lat" : 50.86307189999999,
                  "lng" : 4.4629024
               },
               "southwest" : {
                  "lat" : 50.8337598,
                  "lng" : 4.3999935
               }
            },
            "location" : {
               "lat" : 50.850308,
               "lng" : 4.4278228
            },
            "location_type" : "APPROXIMATE",
            "viewport" : {
               "northeast" : {
                  "lat" : 50.86307189999999,
                  "lng" : 4.4629024
               },
               "southwest" : {
                  "lat" : 50.8337598,
                  "lng" : 4.3999935
               }
            }
         },
         "place_id" : "ChIJNa8iqqHcw0cRG4NyYbv66KY",
         "types" : [ "postal_code" ]
      },
      {
         "address_components" : [
            {
               "long_name" : "Brussels",
               "short_name" : "Brussels",
               "types" : [ "administrative_area_level_1", "locality", "political" ]
            },
            {
               "long_name" : "Belgium",
               "short_name" : "BE",
               "types" : [ "country", "political" ]
            }
         ],
         "formatted_address" : "Brussels, Belgium",
         "geometry" : {
            "bounds" : {
               "northeast" : {
                  "lat" : 50.91370999999999,
                  "lng" : 4.4822099
               },
               "southwest" : {
                  "lat" : 50.76369,
                  "lng" : 4.2446001
               }
            },
            "location" : {
               "lat" : 50.8503463,
               "lng" : 4.3517211
            },
            "location_type" : "APPROXIMATE",
            "viewport" : {
               "northeast" : {
                  "lat" : 50.91370999999999,
                  "lng" : 4.4822099
               },
               "southwest" : {
                  "lat" : 50.76369,
                  "lng" : 4.2446001
               }
            }
         },
         "place_id" : "ChIJ_58PdIbEw0cRMIBML6uZAAE",
         "types" : [ "administrative_area_level_1", "locality", "political" ]
      },
      {
         "address_components" : [
            {
               "long_name" : "Belgium",
               "short_name" : "BE",
               "types" : [ "country", "political" ]
            }
         ],
         "formatted_address" : "Belgium",
         "geometry" : {
            "bounds" : {
               "northeast" : {
                  "lat" : 51.5051449,
                  "lng" : 6.408124099999999
               },
               "southwest" : {
                  "lat" : 49.497013,
                  "lng" : 2.5240999
               }
            },
            "location" : {
               "lat" : 50.503887,
               "lng" : 4.469936
            },
            "location_type" : "APPROXIMATE",
            "viewport" : {
               "northeast" : {
                  "lat" : 51.5051449,
                  "lng" : 6.408124099999999
               },
               "southwest" : {
                  "lat" : 49.497013,
                  "lng" : 2.5240999
               }
            }
         },
         "place_id" : "ChIJl5fz7WR9wUcR8g_mObTy60c",
         "types" : [ "country", "political" ]
      }
   ],
   "status" : "OK"
}
