{
   "plus_code" : {
      "compound_code" : "FXW4+HQ Seoul, South Korea",
      "global_code" : "8Q98FXW4+HQ"
   },
   "results" : [
      {
         "address_components" : [
            {
               "long_name" : "369",
               "short_name" : "369",
               "types" : [ "premise" ]
            },
            {
               "long_name" : "Sang-doro",
               "short_name" : "Sang-doro",
               "types" : [ "political", "sublocality", "sublocality_level_4" ]
            },
            {
               "long_name" : "Sangdo-dong",
               "short_name" : "Sangdo-dong",
               "types" : [ "political", "sublocality", "sublocality_level_2" ]
            },
            {
               "long_name" : "Dongjak-gu",
               "short_name" : "Dongjak-gu",
               "types" : [ "political", "sublocality", "sublocality_level_1" ]
            },
            {
               "long_name" : "Seoul",
               "short_name" : "Seoul",
               "types" : [ "administrative_area_level_1", "political" ]
            },
            {
               "long_name" : "South Korea",
               "short_name" : "KR",
               "types" : [ "country", "political" ]
            },
            {
               "long_name" : "156-030",
               "short_name" : "156-030",
               "types" : [ "postal_code" ]
            }
         ],
         "formatted_address" : "369 Sang-doro, Sangdo-dong, Dongjak-gu, Seoul, South Korea",
         "geometry" : {
            "location" : {
               "lat" : 37.496375,
               "lng" : 126.956879
            },
            "location_type" : "ROOFTOP",
            "viewport" : {
               "northeast" : {
                  "lat" : 37.4977239802915,
                  "lng" : 126.9582279802915
               },
               "southwest" : {
                  "lat" : 37.4950260197085,
                  "lng" : 126.9555300197085
               }
            }
         },
         "place_id" : "ChIJzUGSjdahfDURxZ5P_MX-EdM",
         "plus_code" : {
            "compound_code" : "FXW4+HQ Seoul, South Korea",
            "global_code" : "8Q98FXW4+HQ"
         },
         "types" : [ "establishment", "point_of_interest", "university" ]
      },
      {
         "address_components" : [
            {
               "long_name" : "511",
               "short_name" : "511",
               "types" : [ "premise" ]
            },
            {
               "long_name" : "Sangdo-dong",
               "short_name" : "Sangdo-dong",
               "types" : [ "political", "sublocality", "sublocality_level_2" ]
            },
            {
               "long_name" : "Dongjak-gu",
               "short_name" : "Dongjak-gu",
               "types" : [ "political", "sublocality", "sublocality_level_1" ]
            },
            {
               "long_name" : "Seoul",
               "short_name" : "Seoul",
               "types" : [ "administrative_area_level_1", "political" ]
            },
            {
               "long_name" : "South Korea",
               "short_name" : "KR",
               "types" : [ "country", "political" ]
            },
            {
               "long_name" : "156-030",
               "short_name" : "156-030",
               "types" : [ "postal_code" ]
            }
         ],
         "formatted_address" : "511 Sangdo-dong, Dongjak-gu, Seoul, South Korea",
         "geometry" : {
            "location" : {
               "lat" : 37.4963462,
               "lng" : 126.9568865
            },
            "location_type" : "ROOFTOP",
            "viewport" : {
               "northeast" : {
                  "lat" : 37.49769518029149,
                  "lng" : 126.9582354802915
               },
               "southwest" : {
                  "lat" : 37.49499721970849,
                  "lng" : 126.9555375197085
               }
            }
         },
         "place_id" : "ChIJCRu1idahfDURP91nbpZkYnM",
         "plus_code" : {
            "compound_code" : "FXW4+GQ Seoul, South Korea",
            "global_code" : "8Q98FXW4+GQ"
         },
         "types" : [ "street_address" ]
      },
      {
         "address_components" : [
            {
               "long_name" : "Sangdo-ro 55-gil",
               "short_name" : "Sangdo-ro 55-gil",
               "types" : [ "political", "sublocality", "sublocality_level_4" ]
            },
            {
               "long_name" : "Sangdo 1(il)-dong",
               "short_name" : "Sangdo 1(il)-dong",
               "types" : [ "political", "sublocality", "sublocality_level_2" ]
            },
            {
               "long_name" : "Dongjak-gu",
               "short_name" : "Dongjak-gu",
               "types" : [ "political", "sublocality", "sublocality_level_1" ]
            },
            {
               "long_name" : "Seoul",
               "short_name" : "Seoul",
               "types" : [ "administrative_area_level_1", "political" ]
            },
            {
               "long_name" : "South Korea",
               "short_name" : "KR",
               "types" : [ "country", "political" ]
            },
            {
               "long_name" : "156-030",
               "short_name" : "156-030",
               "types" : [ "postal_code" ]
            }
         ],
         "formatted_address" : "Sangdo-ro 55-gil, Sangdo 1(il)-dong, Dongjak-gu, Seoul, South Korea",
         "geometry" : {
            "bounds" : {
               "northeast" : {
                  "lat" : 37.4982165,
                  "lng" : 126.9609829
               },
               "southwest" : {
                  "lat" : 37.49542539999999,
                  "lng" : 126.9534162
               }
            },
            "location" : {
               "lat" : 37.4972478,
               "lng" : 126.9562425
            },
            "location_type" : "APPROXIMATE",
            "viewport" : {
               "northeast" : {
                  "lat" : 37.4982165,
                  "lng" : 126.9609829
               },
               "southwest" : {
                  "lat" : 37.49542539999999,
                  "lng" : 126.9534162
               }
            }
         },
         "place_id" : "ChIJR8ye89ahfDURo0BToMgFqfc",
         "types" : [ "political", "sublocality", "sublocality_level_4" ]
      },
      {
         "address_components" : [
            {
               "long_name" : "Sangdo 1(il)-dong",
               "short_name" : "Sangdo 1(il)-dong",
               "types" : [ "political", "sublocality", "sublocality_level_2" ]
            },
            {
               "long_name" : "Dongjak-gu",
               "short_name" : "Dongjak-gu",
               "types" : [ "political", "sublocality", "sublocality_level_1" ]
            },
            {
               "long_name" : "Seoul",
               "short_name" : "Seoul",
               "types" : [ "administrative_area_level_1", "political" ]
            },
            {
               "long_name" : "South Korea",
               "short_name" : "KR",
               "types" : [ "country", "political" ]
            }
         ],
         "formatted_address" : "Sangdo 1(il)-dong, Dongjak-gu, Seoul, South Korea",
         "geometry" : {
            "bounds" : {
               "northeast" : {
                  "lat" : 37.50869540000001,
                  "lng" : 126.9643616
               },
               "southwest" : {
                  "lat" : 37.4904658,
                  "lng" : 126.9462101
               }
            },
            "location" : {
               "lat" : 37.498071,
               "lng" : 126.9530576
            },
            "location_type" : "APPROXIMATE",
            "viewport" : {
               "northeast" : {
                  "lat" : 37.50869540000001,
                  "lng" : 126.9643616
               },
               "southwest" : {
                  "lat" : 37.4904658,
                  "lng" : 126.9462101
               }
            }
         },
         "place_id" : "ChIJJ_4mwdehfDURAvsHDJ9CRsw",
         "types" : [ "political", "sublocality", "sublocality_level_2" ]
      },
      {
         "address_components" : [
            {
               "long_name" : "156-030",
               "short_name" : "156-030",
               "types" : [ "postal_code" ]
            },
            {
               "long_name" : "Sangdo-dong",
               "short_name" : "Sangdo-dong",
               "types" : [ "political", "sublocality", "sublocality_level_2" ]
            },
            {
               "long_name" : "Dongjak-gu",
               "short_name" : "Dongjak-gu",
               "types" : [ "political", "sublocality", "sublocality_level_1" ]
            },
            {
               "long_name" : "Seoul",
               "short_name" : "Seoul",
               "types" : [ "administrative_area_level_1", "political" ]
            },
            {
               "long_name" : "South Korea",
               "short_name" : "KR",
               "types" : [ "country", "political" ]
            }
         ],
         "formatted_address" : "Sangdo-dong, Dongjak-gu, Seoul, South Korea",
         "geometry" : {
            "bounds" : {
               "northeast" : {
                  "lat" : 37.50869540000001,
                  "lng" : 126.9643616
               },
               "southwest" : {
                  "lat" : 37.4904658,
                  "lng" : 126.9277389
               }
            },
            "location" : {
               "lat" : 37.497246,
               "lng" : 126.9460462
            },
            "location_type" : "APPROXIMATE",
            "viewport" : {
               "northeast" : {
                  "lat" : 37.50869540000001,
                  "lng" : 126.9643616
               },
               "southwest" : {
                  "lat" : 37.4904658,
                  "lng" : 126.9277389
               }
            }
         },
         "place_id" : "ChIJu_f7iHmffDUR8HPhipj88d4",
         "types" : [ "postal_code" ]
      },
      {
         "address_components" : [
            {
               "long_name" : "Dongjak-gu",
               "short_name" : "Dongjak-gu",
               "types" : [ "political", "sublocality", "sublocality_level_1" ]
            },
            {
               "long_name" : "Seoul",
               "short_name" : "Seoul",
               "types" : [ "administrative_area_level_1", "political" ]
            },
            {
               "long_name" : "South Korea",
               "short_name" : "KR",
               "types" : [ "country", "political" ]
            }
         ],
         "formatted_address" : "Dongjak-gu, Seoul, South Korea",
         "geometry" : {
            "bounds" : {
               "northeast" : {
                  "lat" : 37.5188231,
                  "lng" : 126.985609
               },
               "southwest" : {
                  "lat" : 37.4754009,
                  "lng" : 126.9031469
               }
            },
            "location" : {
               "lat" : 37.512402,
               "lng" : 126.9392525
            },
            "location_type" : "APPROXIMATE",
            "viewport" : {
               "northeast" : {
                  "lat" : 37.5188231,
                  "lng" : 126.985609
               },
               "southwest" : {
                  "lat" : 37.4754009,
                  "lng" : 126.9031469
               }
            }
         },
         "place_id" : "ChIJgYYqF3iffDURmGQzSoStNBU",
         "types" : [ "political", "sublocality", "sublocality_level_1" ]
      },
      {
         "address_components" : [
            {
               "long_name" : "Seoul",
               "short_name" : "Seoul",
               "types" : [ "administrative_area_level_1", "political" ]
            },
            {
               "long_name" : "South Korea",
               "short_name" : "KR",
               "types" : [ "country", "political" ]
            }
         ],
         "formatted_address" : "Seoul, South Korea",
         "geometry" : {
            "bounds" : {
               "northeast" : {
                  "lat" : 37.7017495,
                  "lng" : 127.1835899
               },
               "southwest" : {
                  "lat" : 37.4259627,
                  "lng" : 126.7645827
               }
            },
            "location" : {
               "lat" : 37.566535,
               "lng" : 126.9779692
            },
            "location_type" : "APPROXIMATE",
            "viewport" : {
               "northeast" : {
                  "lat" : 37.7017495,
                  "lng" : 127.1835899
               },
               "southwest" : {
                  "lat" : 37.4259627,
                  "lng" : 126.7645827
               }
            }
         },
         "place_id" : "ChIJzzlcLQGifDURm_JbQKHsEX4",
         "types" : [ "administrative_area_level_1", "political" ]
      },
      {
         "address_components" : [
            {
               "long_name" : "Seoul",
               "short_name" : "Seoul",
               "types" : [ "locality", "political" ]
            },
            {
               "long_name" : "Seoul",
               "short_name" : "Seoul",
               "types" : [ "administrative_area_level_1", "political" ]
            },
            {
               "long_name" : "South Korea",
               "short_name" : "KR",
               "types" : [ "country", "political" ]
            }
         ],
         "formatted_address" : "Seoul, South Korea",
         "geometry" : {
            "bounds" : {
               "northeast" : {
                  "lat" : 37.7017495,
                  "lng" : 127.1835899
               },
               "southwest" : {
                  "lat" : 37.4259627,
                  "lng" : 126.7645827
               }
            },
            "location" : {
               "lat" : 37.566535,
               "lng" : 126.9779692
            },
            "location_type" : "APPROXIMATE",
            "viewport" : {
               "northeast" : {
                  "lat" : 37.7017495,
                  "lng" : 127.1835899
               },
               "southwest" : {
                  "lat" : 37.4259627,
                  "lng" : 126.7645827
               }
            }
         },
         "place_id" : "ChIJzWXFYYuifDUR64Pq5LTtioU",
         "types" : [ "locality", "political" ]
      },
      {
         "address_components" : [
            {
               "long_name" : "South Korea",
               "short_name" : "KR",
               "types" : [ "country", "political" ]
            }
         ],
         "formatted_address" : "South Korea",
         "geometry" : {
            "bounds" : {
               "northeast" : {
                  "lat" : 38.63400000000001,
                  "lng" : 131.1603
               },
               "southwest" : {
                  "lat" : 33.0041,
                  "lng" : 124.5863
               }
            },
            "location" : {
               "lat" : 35.907757,
               "lng" : 127.766922
            },
            "location_type" : "APPROXIMATE",
            "viewport" : {
               "northeast" : {
                  "lat" : 38.63400000000001,
                  "lng" : 131.1603
               },
               "southwest" : {
                  "lat" : 33.0041,
                  "lng" : 124.5863
               }
            }
         },
         "place_id" : "ChIJm7oRy-tVZDURS9uIugCbJJE",
         "types" : [ "country", "political" ]
      }
   ],
   "status" : "OK"
}
