{
   "plus_code" : {
      "compound_code" : "2FQV+4W Bielefeld, Germany",
      "global_code" : "9F4C2FQV+4W"
   },
   "results" : [
      {
         "address_components" : [
            {
               "long_name" : "25",
               "short_name" : "25",
               "types" : [ "street_number" ]
            },
            {
               "long_name" : "Universitätsstraße",
               "short_name" : "Universitätsstraße",
               "types" : [ "route" ]
            },
            {
               "long_name" : "Bielefeld",
               "short_name" : "BI",
               "types" : [ "locality", "political" ]
            },
            {
               "long_name" : "Germany",
               "short_name" : "DE",
               "types" : [ "country", "political" ]
            },
            {
               "long_name" : "33615",
               "short_name" : "33615",
               "types" : [ "postal_code" ]
            }
         ],
         "formatted_address" : "Universität Bielefeld, Universitätsstraße 25, 33615 Bielefeld, Germany",
         "geometry" : {
            "location" : {
               "lat" : 52.0378003,
               "lng" : 8.4947572
            },
            "location_type" : "ROOFTOP",
            "viewport" : {
               "northeast" : {
                  "lat" : 52.0391492802915,
                  "lng" : 8.496106180291504
               },
               "southwest" : {
                  "lat" : 52.0364513197085,
                  "lng" : 8.493408219708499
               }
            }
         },
         "place_id" : "ChIJp0ulQbQiukcR4K5fe9-z1ks",
         "plus_code" : {
            "compound_code" : "2FQV+4W Bielefeld, Germany",
            "global_code" : "9F4C2FQV+4W"
         },
         "types" : [ "establishment", "point_of_interest" ]
      },
      {
         "address_components" : [
            {
               "long_name" : "Universitätshauptgebäude",
               "short_name" : "Universitätshauptgebäude",
               "types" : [ "premise" ]
            },
            {
               "long_name" : "25",
               "short_name" : "25",
               "types" : [ "street_number" ]
            },
            {
               "long_name" : "Universitätsstraße",
               "short_name" : "Universitätsstraße",
               "types" : [ "route" ]
            },
            {
               "long_name" : "Schildesche",
               "short_name" : "Schildesche",
               "types" : [ "political", "sublocality", "sublocality_level_1" ]
            },
            {
               "long_name" : "Bielefeld",
               "short_name" : "BI",
               "types" : [ "locality", "political" ]
            },
            {
               "long_name" : "Detmold",
               "short_name" : "Detmold",
               "types" : [ "administrative_area_level_2", "political" ]
            },
            {
               "long_name" : "Nordrhein-Westfalen",
               "short_name" : "NRW",
               "types" : [ "administrative_area_level_1", "political" ]
            },
            {
               "long_name" : "Germany",
               "short_name" : "DE",
               "types" : [ "country", "political" ]
            },
            {
               "long_name" : "33615",
               "short_name" : "33615",
               "types" : [ "postal_code" ]
            }
         ],
         "formatted_address" : "Universitätshauptgebäude, Universitätsstraße 25, 33615 Bielefeld, Germany",
         "geometry" : {
            "bounds" : {
               "northeast" : {
                  "lat" : 52.0394417,
                  "lng" : 8.4964551
               },
               "southwest" : {
                  "lat" : 52.0359151,
                  "lng" : 8.490455299999999
               }
            },
            "location" : {
               "lat" : 52.0367238,
               "lng" : 8.4952413
            },
            "location_type" : "ROOFTOP",
            "viewport" : {
               "northeast" : {
                  "lat" : 52.0394417,
                  "lng" : 8.4964551
               },
               "southwest" : {
                  "lat" : 52.0359151,
                  "lng" : 8.490455299999999
               }
            }
         },
         "place_id" : "ChIJgekiO7QiukcRNy44S3W-VBk",
         "types" : [ "premise" ]
      },
      {
         "address_components" : [
            {
               "long_name" : "Bildungsgang",
               "short_name" : "Bildungsgang",
               "types" : [ "route" ]
            },
            {
               "long_name" : "Bielefeld",
               "short_name" : "BI",
               "types" : [ "locality", "political" ]
            },
            {
               "long_name" : "Detmold",
               "short_name" : "Detmold",
               "types" : [ "administrative_area_level_2", "political" ]
            },
            {
               "long_name" : "Nordrhein-Westfalen",
               "short_name" : "NRW",
               "types" : [ "administrative_area_level_1", "political" ]
            },
            {
               "long_name" : "Germany",
               "short_name" : "DE",
               "types" : [ "country", "political" ]
            },
            {
               "long_name" : "33615",
               "short_name" : "33615",
               "types" : [ "postal_code" ]
            }
         ],
         "formatted_address" : "Bildungsgang, 33615 Bielefeld, Germany",
         "geometry" : {
            "bounds" : {
               "northeast" : {
                  "lat" : 52.03803540000001,
                  "lng" : 8.495089699999999
               },
               "southwest" : {
                  "lat" : 52.0376004,
                  "lng" : 8.494665699999999
               }
            },
            "location" : {
               "lat" : 52.0378179,
               "lng" : 8.4948777
            },
            "location_type" : "GEOMETRIC_CENTER",
            "viewport" : {
               "northeast" : {
                  "lat" : 52.0391668802915,
                  "lng" : 8.496226680291501
               },
               "southwest" : {
                  "lat" : 52.0364689197085,
                  "lng" : 8.493528719708497
               }
            }
         },
         "place_id" : "ChIJ1XCSQbQiukcR_hGc3OTUTxI",
         "types" : [ "route" ]
      },
      {
         "address_components" : [
            {
               "long_name" : "33615",
               "short_name" : "33615",
               "types" : [ "postal_code" ]
            },
            {
               "long_name" : "Bielefeld",
               "short_name" : "BI",
               "types" : [ "locality", "political" ]
            },
            {
               "long_name" : "Detmold",
               "short_name" : "Detmold",
               "types" : [ "administrative_area_level_2", "political" ]
            },
            {
               "long_name" : "North Rhine-Westphalia",
               "short_name" : "NRW",
               "types" : [ "administrative_area_level_1", "political" ]
            },
            {
               "long_name" : "Germany",
               "short_name" : "DE",
               "types" : [ "country", "political" ]
            }
         ],
         "formatted_address" : "33615 Bielefeld, Germany",
         "geometry" : {
            "bounds" : {
               "northeast" : {
                  "lat" : 52.0535539,
                  "lng" : 8.530572099999999
               },
               "southwest" : {
                  "lat" : 52.016179,
                  "lng" : 8.484888999999999
               }
            },
            "location" : {
               "lat" : 52.0303012,
               "lng" : 8.5079382
            },
            "location_type" : "APPROXIMATE",
            "viewport" : {
               "northeast" : {
                  "lat" : 52.0535539,
                  "lng" : 8.530572099999999
               },
               "southwest" : {
                  "lat" : 52.016179,
                  "lng" : 8.484888999999999
               }
            }
         },
         "place_id" : "ChIJYWehmEk9ukcRgGpbkYTyJxw",
         "types" : [ "postal_code" ]
      },
      {
         "address_components" : [
            {
               "long_name" : "Bielefeld",
               "short_name" : "Bielefeld",
               "types" : [ "locality", "political" ]
            },
            {
               "long_name" : "Detmold",
               "short_name" : "Detmold",
               "types" : [ "administrative_area_level_2", "political" ]
            },
            {
               "long_name" : "North Rhine-Westphalia",
               "short_name" : "NRW",
               "types" : [ "administrative_area_level_1", "political" ]
            },
            {
               "long_name" : "Germany",
               "short_name" : "DE",
               "types" : [ "country", "political" ]
            }
         ],
         "formatted_address" : "Bielefeld, Germany",
         "geometry" : {
            "bounds" : {
               "northeast" : {
                  "lat" : 52.11477,
                  "lng" : 8.6633885
               },
               "southwest" : {
                  "lat" : 51.914853,
                  "lng" : 8.377830399999999
               }
            },
            "location" : {
               "lat" : 52.0302285,
               "lng" : 8.532470800000002
            },
            "location_type" : "APPROXIMATE",
            "viewport" : {
               "northeast" : {
                  "lat" : 52.11477,
                  "lng" : 8.6633885
               },
               "southwest" : {
                  "lat" : 51.914853,
                  "lng" : 8.377830399999999
               }
            }
         },
         "place_id" : "ChIJ8xmb4RE9ukcRzsfHbHK1P0w",
         "types" : [ "locality", "political" ]
      },
      {
         "address_components" : [
            {
               "long_name" : "Detmold",
               "short_name" : "Detmold",
               "types" : [ "administrative_area_level_2", "political" ]
            },
            {
               "long_name" : "North Rhine-Westphalia",
               "short_name" : "NRW",
               "types" : [ "administrative_area_level_1", "political" ]
            },
            {
               "long_name" : "Germany",
               "short_name" : "DE",
               "types" : [ "country", "political" ]
            }
         ],
         "formatted_address" : "Detmold, Germany",
         "geometry" : {
            "bounds" : {
               "northeast" : {
                  "lat" : 52.53146959999999,
                  "lng" : 9.461634900000002
               },
               "southwest" : {
                  "lat" : 51.441563,
                  "lng" : 8.075595099999999
               }
            },
            "location" : {
               "lat" : 51.85526369999999,
               "lng" : 8.8911421
            },
            "location_type" : "APPROXIMATE",
            "viewport" : {
               "northeast" : {
                  "lat" : 52.53146959999999,
                  "lng" : 9.461634900000002
               },
               "southwest" : {
                  "lat" : 51.441563,
                  "lng" : 8.075595099999999
               }
            }
         },
         "place_id" : "ChIJEbi-0QNBukcRoy2sOKYLwzY",
         "types" : [ "administrative_area_level_2", "political" ]
      },
      {
         "address_components" : [
            {
               "long_name" : "North Rhine-Westphalia",
               "short_name" : "North Rhine-Westphalia",
               "types" : [ "administrative_area_level_1", "political" ]
            },
            {
               "long_name" : "Germany",
               "short_name" : "DE",
               "types" : [ "country", "political" ]
            }
         ],
         "formatted_address" : "North Rhine-Westphalia, Germany",
         "geometry" : {
            "bounds" : {
               "northeast" : {
                  "lat" : 52.53146959999999,
                  "lng" : 9.461634900000002
               },
               "southwest" : {
                  "lat" : 50.322701,
                  "lng" : 5.8663425
               }
            },
            "location" : {
               "lat" : 51.43323669999999,
               "lng" : 7.661593799999999
            },
            "location_type" : "APPROXIMATE",
            "viewport" : {
               "northeast" : {
                  "lat" : 52.53146959999999,
                  "lng" : 9.461634900000002
               },
               "southwest" : {
                  "lat" : 50.322701,
                  "lng" : 5.8663425
               }
            }
         },
         "place_id" : "ChIJoUhCjnwWuUcRX4_XT34yTC8",
         "types" : [ "administrative_area_level_1", "political" ]
      },
      {
         "address_components" : [
            {
               "long_name" : "Germany",
               "short_name" : "DE",
               "types" : [ "country", "political" ]
            }
         ],
         "formatted_address" : "Germany",
         "geometry" : {
            "bounds" : {
               "northeast" : {
                  "lat" : 55.0815,
                  "lng" : 15.0418962
               },
               "southwest" : {
                  "lat" : 47.2701115,
                  "lng" : 5.8663425
               }
            },
            "location" : {
               "lat" : 51.165691,
               "lng" : 10.451526
            },
            "location_type" : "APPROXIMATE",
            "viewport" : {
               "northeast" : {
                  "lat" : 55.0815,
                  "lng" : 15.0418962
               },
               "southwest" : {
                  "lat" : 47.2701115,
                  "lng" : 5.8663425
               }
            }
         },
         "place_id" : "ChIJa76xwh5ymkcRW-WRjmtd6HU",
         "types" : [ "country", "political" ]
      }
   ],
   "status" : "OK"
}
