{
   "plus_code" : {
      "compound_code" : "XR46+J2 Philadelphia, PA, USA",
      "global_code" : "87F6XR46+J2"
   },
   "results" : [
      {
         "address_components" : [
            {
               "long_name" : "3141",
               "short_name" : "3141",
               "types" : [ "street_number" ]
            },
            {
               "long_name" : "Chestnut Street",
               "short_name" : "Chestnut St",
               "types" : [ "route" ]
            },
            {
               "long_name" : "University City",
               "short_name" : "University City",
               "types" : [ "neighborhood", "political" ]
            },
            {
               "long_name" : "Philadelphia",
               "short_name" : "Philadelphia",
               "types" : [ "locality", "political" ]
            },
            {
               "long_name" : "Philadelphia County",
               "short_name" : "Philadelphia County",
               "types" : [ "administrative_area_level_2", "political" ]
            },
            {
               "long_name" : "Pennsylvania",
               "short_name" : "PA",
               "types" : [ "administrative_area_level_1", "political" ]
            },
            {
               "long_name" : "United States",
               "short_name" : "US",
               "types" : [ "country", "political" ]
            },
            {
               "long_name" : "19104",
               "short_name" : "19104",
               "types" : [ "postal_code" ]
            }
         ],
         "formatted_address" : "3141 Chestnut St, Philadelphia, PA 19104, USA",
         "geometry" : {
            "location" : {
               "lat" : 39.9566127,
               "lng" : -75.18994409999999
            },
            "location_type" : "ROOFTOP",
            "viewport" : {
               "northeast" : {
                  "lat" : 39.9579616802915,
                  "lng" : -75.18859511970849
               },
               "southwest" : {
                  "lat" : 39.9552637197085,
                  "lng" : -75.1912930802915
               }
            }
         },
         "place_id" : "ChIJKcBHSE7GxokR8DA8BOQt8w4",
         "plus_code" : {
            "compound_code" : "XR46+J2 Philadelphia, Pennsylvania, United States",
            "global_code" : "87F6XR46+J2"
         },
         "types" : [ "establishment", "point_of_interest", "university" ]
      },
      {
         "address_components" : [
            {
               "long_name" : "3341",
               "short_name" : "3341",
               "types" : [ "street_number" ]
            },
            {
               "long_name" : "Lancaster Avenue",
               "short_name" : "Lancaster Ave",
               "types" : [ "route" ]
            },
            {
               "long_name" : "University City",
               "short_name" : "University City",
               "types" : [ "neighborhood", "political" ]
            },
            {
               "long_name" : "Philadelphia",
               "short_name" : "Philadelphia",
               "types" : [ "locality", "political" ]
            },
            {
               "long_name" : "Philadelphia County",
               "short_name" : "Philadelphia County",
               "types" : [ "administrative_area_level_2", "political" ]
            },
            {
               "long_name" : "Pennsylvania",
               "short_name" : "PA",
               "types" : [ "administrative_area_level_1", "political" ]
            },
            {
               "long_name" : "United States",
               "short_name" : "US",
               "types" : [ "country", "political" ]
            },
            {
               "long_name" : "19104",
               "short_name" : "19104",
               "types" : [ "postal_code" ]
            }
         ],
         "formatted_address" : "3341 Lancaster Ave, Philadelphia, PA 19104, USA",
         "geometry" : {
            "location" : {
               "lat" : 39.9568027,
               "lng" : -75.19006279999999
            },
            "location_type" : "ROOFTOP",
            "viewport" : {
               "northeast" : {
                  "lat" : 39.9581516802915,
                  "lng" : -75.18871381970848
               },
               "southwest" : {
                  "lat" : 39.9554537197085,
                  "lng" : -75.1914117802915
               }
            }
         },
         "place_id" : "ChIJmxtI5FHGxokRbVXfZ730bRA",
         "plus_code" : {
            "compound_code" : "XR45+PX Philadelphia, Pennsylvania, United States",
            "global_code" : "87F6XR45+PX"
         },
         "types" : [ "street_address" ]
      },
      {
         "address_components" : [
            {
               "long_name" : "Lancaster Walk",
               "short_name" : "Lancaster Walk",
               "types" : [ "route" ]
            },
            {
               "long_name" : "University City",
               "short_name" : "University City",
               "types" : [ "neighborhood", "political" ]
            },
            {
               "long_name" : "Philadelphia",
               "short_name" : "Philadelphia",
               "types" : [ "locality", "political" ]
            },
            {
               "long_name" : "Philadelphia County",
               "short_name" : "Philadelphia County",
               "types" : [ "administrative_area_level_2", "political" ]
            },
            {
               "long_name" : "Pennsylvania",
               "short_name" : "PA",
               "types" : [ "administrative_area_level_1", "political" ]
            },
            {
               "long_name" : "United States",
               "short_name" : "US",
               "types" : [ "country", "political" ]
            },
            {
               "long_name" : "19104",
               "short_name" : "19104",
               "types" : [ "postal_code" ]
            }
         ],
         "formatted_address" : "Lancaster Walk, Philadelphia, PA 19104, USA",
         "geometry" : {
            "bounds" : {
               "northeast" : {
                  "lat" : 39.9568672,
                  "lng" : -75.1896864
               },
               "southwest" : {
                  "lat" : 39.9566104,
                  "lng" : -75.1901749
               }
            },
            "location" : {
               "lat" : 39.9567388,
               "lng" : -75.1899306
            },
            "location_type" : "GEOMETRIC_CENTER",
            "viewport" : {
               "northeast" : {
                  "lat" : 39.9580877802915,
                  "lng" : -75.18858166970848
               },
               "southwest" : {
                  "lat" : 39.9553898197085,
                  "lng" : -75.1912796302915
               }
            }
         },
         "place_id" : "ChIJn9AG5FHGxokRJmyZRuDbrmM",
         "types" : [ "route" ]
      },
      {
         "address_components" : [
            {
               "long_name" : "University City",
               "short_name" : "University City",
               "types" : [ "neighborhood", "political" ]
            },
            {
               "long_name" : "Philadelphia",
               "short_name" : "Philadelphia",
               "types" : [ "locality", "political" ]
            },
            {
               "long_name" : "Philadelphia County",
               "short_name" : "Philadelphia County",
               "types" : [ "administrative_area_level_2", "political" ]
            },
            {
               "long_name" : "Pennsylvania",
               "short_name" : "PA",
               "types" : [ "administrative_area_level_1", "political" ]
            },
            {
               "long_name" : "United States",
               "short_name" : "US",
               "types" : [ "country", "political" ]
            }
         ],
         "formatted_address" : "University City, Philadelphia, PA, USA",
         "geometry" : {
            "bounds" : {
               "northeast" : {
                  "lat" : 39.95945,
                  "lng" : -75.1798378
               },
               "southwest" : {
                  "lat" : 39.9410119,
                  "lng" : -75.2090243
               }
            },
            "location" : {
               "lat" : 39.9504406,
               "lng" : -75.1924755
            },
            "location_type" : "APPROXIMATE",
            "viewport" : {
               "northeast" : {
                  "lat" : 39.95945,
                  "lng" : -75.1798378
               },
               "southwest" : {
                  "lat" : 39.9410119,
                  "lng" : -75.2090243
               }
            }
         },
         "place_id" : "ChIJuVAulljGxokRlEVFlNTvCjQ",
         "types" : [ "neighborhood", "political" ]
      },
      {
         "address_components" : [
            {
               "long_name" : "19104",
               "short_name" : "19104",
               "types" : [ "postal_code" ]
            },
            {
               "long_name" : "Philadelphia",
               "short_name" : "Philadelphia",
               "types" : [ "locality", "political" ]
            },
            {
               "long_name" : "Philadelphia County",
               "short_name" : "Philadelphia County",
               "types" : [ "administrative_area_level_2", "political" ]
            },
            {
               "long_name" : "Pennsylvania",
               "short_name" : "PA",
               "types" : [ "administrative_area_level_1", "political" ]
            },
            {
               "long_name" : "United States",
               "short_name" : "US",
               "types" : [ "country", "political" ]
            }
         ],
         "formatted_address" : "Philadelphia, PA 19104, USA",
         "geometry" : {
            "bounds" : {
               "northeast" : {
                  "lat" : 40.03735289999999,
                  "lng" : -75.1791259
               },
               "southwest" : {
                  "lat" : 39.941501,
                  "lng" : -75.214018
               }
            },
            "location" : {
               "lat" : 39.9583587,
               "lng" : -75.1953934
            },
            "location_type" : "APPROXIMATE",
            "viewport" : {
               "northeast" : {
                  "lat" : 40.03735289999999,
                  "lng" : -75.1791259
               },
               "southwest" : {
                  "lat" : 39.941501,
                  "lng" : -75.214018
               }
            }
         },
         "place_id" : "ChIJs7dfFFTGxokRIAr5pPXke4U",
         "types" : [ "postal_code" ]
      },
      {
         "address_components" : [
            {
               "long_name" : "Philadelphia",
               "short_name" : "Philadelphia",
               "types" : [ "locality", "political" ]
            },
            {
               "long_name" : "Philadelphia County",
               "short_name" : "Philadelphia County",
               "types" : [ "administrative_area_level_2", "political" ]
            },
            {
               "long_name" : "Pennsylvania",
               "short_name" : "PA",
               "types" : [ "administrative_area_level_1", "political" ]
            },
            {
               "long_name" : "United States",
               "short_name" : "US",
               "types" : [ "country", "political" ]
            }
         ],
         "formatted_address" : "Philadelphia, PA, USA",
         "geometry" : {
            "bounds" : {
               "northeast" : {
                  "lat" : 40.1379919,
                  "lng" : -74.9557629
               },
               "southwest" : {
                  "lat" : 39.8670041,
                  "lng" : -75.280303
               }
            },
            "location" : {
               "lat" : 39.9525839,
               "lng" : -75.1652215
            },
            "location_type" : "APPROXIMATE",
            "viewport" : {
               "northeast" : {
                  "lat" : 40.1379919,
                  "lng" : -74.9557629
               },
               "southwest" : {
                  "lat" : 39.8670041,
                  "lng" : -75.280303
               }
            }
         },
         "place_id" : "ChIJ60u11Ni3xokRwVg-jNgU9Yk",
         "types" : [ "locality", "political" ]
      },
      {
         "address_components" : [
            {
               "long_name" : "Philadelphia County",
               "short_name" : "Philadelphia County",
               "types" : [ "administrative_area_level_2", "political" ]
            },
            {
               "long_name" : "Philadelphia",
               "short_name" : "Philadelphia",
               "types" : [ "locality", "political" ]
            },
            {
               "long_name" : "Pennsylvania",
               "short_name" : "PA",
               "types" : [ "administrative_area_level_1", "political" ]
            },
            {
               "long_name" : "United States",
               "short_name" : "US",
               "types" : [ "country", "political" ]
            }
         ],
         "formatted_address" : "Philadelphia County, Philadelphia, PA, USA",
         "geometry" : {
            "bounds" : {
               "northeast" : {
                  "lat" : 40.1379919,
                  "lng" : -74.9557629
               },
               "southwest" : {
                  "lat" : 39.8670041,
                  "lng" : -75.280303
               }
            },
            "location" : {
               "lat" : 40.0152766,
               "lng" : -75.1311874
            },
            "location_type" : "APPROXIMATE",
            "viewport" : {
               "northeast" : {
                  "lat" : 40.1379919,
                  "lng" : -74.9557629
               },
               "southwest" : {
                  "lat" : 39.8670041,
                  "lng" : -75.280303
               }
            }
         },
         "place_id" : "ChIJ60u11Ni3xokRhBCHQtzJmsM",
         "types" : [ "administrative_area_level_2", "political" ]
      },
      {
         "address_components" : [
            {
               "long_name" : "Pennsylvania",
               "short_name" : "Pennsylvania",
               "types" : [ "administrative_area_level_1", "political" ]
            },
            {
               "long_name" : "United States",
               "short_name" : "US",
               "types" : [ "country", "political" ]
            }
         ],
         "formatted_address" : "Pennsylvania, USA",
         "geometry" : {
            "bounds" : {
               "northeast" : {
                  "lat" : 42.516072,
                  "lng" : -74.6895018
               },
               "southwest" : {
                  "lat" : 39.7197989,
                  "lng" : -80.51989499999999
               }
            },
            "location" : {
               "lat" : 41.2033216,
               "lng" : -77.1945247
            },
            "location_type" : "APPROXIMATE",
            "viewport" : {
               "northeast" : {
                  "lat" : 42.516072,
                  "lng" : -74.6895018
               },
               "southwest" : {
                  "lat" : 39.7197989,
                  "lng" : -80.51989499999999
               }
            }
         },
         "place_id" : "ChIJieUyHiaALYgRPbQiUEchRsI",
         "types" : [ "administrative_area_level_1", "political" ]
      },
      {
         "address_components" : [
            {
               "long_name" : "United States",
               "short_name" : "US",
               "types" : [ "country", "political" ]
            }
         ],
         "formatted_address" : "United States",
         "geometry" : {
            "bounds" : {
               "northeast" : {
                  "lat" : 71.5388001,
                  "lng" : -66.885417
               },
               "southwest" : {
                  "lat" : 18.7763,
                  "lng" : 170.5957
               }
            },
            "location" : {
               "lat" : 37.09024,
               "lng" : -95.712891
            },
            "location_type" : "APPROXIMATE",
            "viewport" : {
               "northeast" : {
                  "lat" : 71.5388001,
                  "lng" : -66.885417
               },
               "southwest" : {
                  "lat" : 18.7763,
                  "lng" : 170.5957
               }
            }
         },
         "place_id" : "ChIJCzYy5IS16lQRQrfeQ5K5Oxw",
         "types" : [ "country", "political" ]
      }
   ],
   "status" : "OK"
}
