{
   "plus_code" : {
      "compound_code" : "HPCH+G2 Nanming, Guiyang, Guizhou, China",
      "global_code" : "7PR8HPCH+G2"
   },
   "results" : [
      {
         "address_components" : [
            {
               "long_name" : "73",
               "short_name" : "73",
               "types" : [ "street_number" ]
            },
            {
               "long_name" : "Guanshui Road",
               "short_name" : "Guanshui Rd",
               "types" : [ "route" ]
            },
            {
               "long_name" : "Nanming Qu",
               "short_name" : "Nanming Qu",
               "types" : [ "political", "sublocality", "sublocality_level_1" ]
            },
            {
               "long_name" : "Guiyang Shi",
               "short_name" : "Guiyang Shi",
               "types" : [ "locality", "political" ]
            },
            {
               "long_name" : "Guizhou Sheng",
               "short_name" : "Guizhou Sheng",
               "types" : [ "administrative_area_level_1", "political" ]
            },
            {
               "long_name" : "China",
               "short_name" : "CN",
               "types" : [ "country", "political" ]
            },
            {
               "long_name" : "550000",
               "short_name" : "550000",
               "types" : [ "postal_code" ]
            }
         ],
         "formatted_address" : "73 Guanshui Rd, Nanming Qu, Guiyang Shi, Guizhou Sheng, China, 550000",
         "geometry" : {
            "location" : {
               "lat" : 26.5712591,
               "lng" : 106.7275966
            },
            "location_type" : "ROOFTOP",
            "viewport" : {
               "northeast" : {
                  "lat" : 26.5726080802915,
                  "lng" : 106.7289455802915
               },
               "southwest" : {
                  "lat" : 26.5699101197085,
                  "lng" : 106.7262476197085
               }
            }
         },
         "place_id" : "ChIJPRT563RovzYRzCVidtGxEpA",
         "plus_code" : {
            "compound_code" : "HPCH+G2 Nanming, Guiyang, Guizhou, China",
            "global_code" : "7PR8HPCH+G2"
         },
         "types" : [ "establishment", "point_of_interest" ]
      },
      {
         "address_components" : [
            {
               "long_name" : "135",
               "short_name" : "135",
               "types" : [ "street_number" ]
            },
            {
               "long_name" : "Guanshui Road",
               "short_name" : "Guanshui Rd",
               "types" : [ "route" ]
            },
            {
               "long_name" : "Nanming Qu",
               "short_name" : "Nanming Qu",
               "types" : [ "political", "sublocality", "sublocality_level_1" ]
            },
            {
               "long_name" : "Guiyang Shi",
               "short_name" : "Guiyang Shi",
               "types" : [ "locality", "political" ]
            },
            {
               "long_name" : "Guizhou Sheng",
               "short_name" : "Guizhou Sheng",
               "types" : [ "administrative_area_level_1", "political" ]
            },
            {
               "long_name" : "China",
               "short_name" : "CN",
               "types" : [ "country", "political" ]
            },
            {
               "long_name" : "550000",
               "short_name" : "550000",
               "types" : [ "postal_code" ]
            }
         ],
         "formatted_address" : "135 Guanshui Rd, Nanming Qu, Guiyang Shi, Guizhou Sheng, China, 550000",
         "geometry" : {
            "location" : {
               "lat" : 26.57138,
               "lng" : 106.727529
            },
            "location_type" : "ROOFTOP",
            "viewport" : {
               "northeast" : {
                  "lat" : 26.5727289802915,
                  "lng" : 106.7288779802915
               },
               "southwest" : {
                  "lat" : 26.57003101970849,
                  "lng" : 106.7261800197085
               }
            }
         },
         "place_id" : "ChIJSyD97XRovzYRy-TEp8v5BFg",
         "plus_code" : {
            "compound_code" : "HPCH+H2 Nanming, Guiyang, Guizhou, China",
            "global_code" : "7PR8HPCH+H2"
         },
         "types" : [ "street_address" ]
      },
      {
         "address_components" : [
            {
               "long_name" : "46号",
               "short_name" : "46号",
               "types" : [ "street_number" ]
            },
            {
               "long_name" : "Guanshui Road",
               "short_name" : "Guanshui Rd",
               "types" : [ "route" ]
            },
            {
               "long_name" : "Nanming Qu",
               "short_name" : "Nanming Qu",
               "types" : [ "political", "sublocality", "sublocality_level_1" ]
            },
            {
               "long_name" : "Guiyang Shi",
               "short_name" : "Guiyang Shi",
               "types" : [ "locality", "political" ]
            },
            {
               "long_name" : "Guizhou Sheng",
               "short_name" : "Guizhou Sheng",
               "types" : [ "administrative_area_level_1", "political" ]
            },
            {
               "long_name" : "China",
               "short_name" : "CN",
               "types" : [ "country", "political" ]
            }
         ],
         "formatted_address" : "46 Guanshui Rd, Nanming Qu, Guiyang Shi, Guizhou Sheng, China",
         "geometry" : {
            "location" : {
               "lat" : 26.5713025,
               "lng" : 106.7276904
            },
            "location_type" : "RANGE_INTERPOLATED",
            "viewport" : {
               "northeast" : {
                  "lat" : 26.5726514802915,
                  "lng" : 106.7290393802915
               },
               "southwest" : {
                  "lat" : 26.56995351970849,
                  "lng" : 106.7263414197085
               }
            }
         },
         "place_id" : "Ei_kuK3lm73otLXlt57nnIHotLXpmLPluILljZfmmI7ljLrop4LmsLTot680NuWPtyIaEhgKFAoSCccsjBp1aL82ETkUG-nSa5gVEC4",
         "types" : [ "street_address" ]
      },
      {
         "address_components" : [
            {
               "long_name" : "550001",
               "short_name" : "550001",
               "types" : [ "postal_code" ]
            },
            {
               "long_name" : "Yunyan",
               "short_name" : "Yunyan",
               "types" : [ "political", "sublocality", "sublocality_level_1" ]
            },
            {
               "long_name" : "Guiyang",
               "short_name" : "Guiyang",
               "types" : [ "locality", "political" ]
            },
            {
               "long_name" : "Guizhou",
               "short_name" : "Guizhou",
               "types" : [ "administrative_area_level_1", "political" ]
            },
            {
               "long_name" : "China",
               "short_name" : "CN",
               "types" : [ "country", "political" ]
            }
         ],
         "formatted_address" : "Yunyan, Guiyang, Guizhou, China, 550001",
         "geometry" : {
            "bounds" : {
               "northeast" : {
                  "lat" : 26.595487,
                  "lng" : 106.7470537
               },
               "southwest" : {
                  "lat" : 26.5314524,
                  "lng" : 106.6718703
               }
            },
            "location" : {
               "lat" : 26.5862226,
               "lng" : 106.7234842
            },
            "location_type" : "APPROXIMATE",
            "viewport" : {
               "northeast" : {
                  "lat" : 26.595487,
                  "lng" : 106.7470537
               },
               "southwest" : {
                  "lat" : 26.5314524,
                  "lng" : 106.6718703
               }
            }
         },
         "place_id" : "ChIJ69cAqHhovzYRvQqSfS4Tsfc",
         "types" : [ "postal_code" ]
      },
      {
         "address_components" : [
            {
               "long_name" : "Nanming",
               "short_name" : "Nanming",
               "types" : [ "political", "sublocality", "sublocality_level_1" ]
            },
            {
               "long_name" : "Guiyang",
               "short_name" : "Guiyang",
               "types" : [ "locality", "political" ]
            },
            {
               "long_name" : "Guizhou",
               "short_name" : "Guizhou",
               "types" : [ "administrative_area_level_1", "political" ]
            },
            {
               "long_name" : "China",
               "short_name" : "CN",
               "types" : [ "country", "political" ]
            }
         ],
         "formatted_address" : "Nanming, Guiyang, Guizhou, China",
         "geometry" : {
            "bounds" : {
               "northeast" : {
                  "lat" : 26.5888576,
                  "lng" : 106.8079582
               },
               "southwest" : {
                  "lat" : 26.4637678,
                  "lng" : 106.6413848
               }
            },
            "location" : {
               "lat" : 26.567944,
               "lng" : 106.714374
            },
            "location_type" : "APPROXIMATE",
            "viewport" : {
               "northeast" : {
                  "lat" : 26.5888576,
                  "lng" : 106.8079582
               },
               "southwest" : {
                  "lat" : 26.4637678,
                  "lng" : 106.6413848
               }
            }
         },
         "place_id" : "ChIJGQ3NVOZnvzYRRkuNKdXGdNA",
         "types" : [ "political", "sublocality", "sublocality_level_1" ]
      },
      {
         "address_components" : [
            {
               "long_name" : "Guiyang",
               "short_name" : "Guiyang",
               "types" : [ "locality", "political" ]
            },
            {
               "long_name" : "Guizhou",
               "short_name" : "Guizhou",
               "types" : [ "administrative_area_level_1", "political" ]
            },
            {
               "long_name" : "China",
               "short_name" : "CN",
               "types" : [ "country", "political" ]
            }
         ],
         "formatted_address" : "Guiyang, Guizhou, China",
         "geometry" : {
            "bounds" : {
               "northeast" : {
                  "lat" : 27.3578022,
                  "lng" : 107.2792364
               },
               "southwest" : {
                  "lat" : 26.1833961,
                  "lng" : 106.1250924
               }
            },
            "location" : {
               "lat" : 26.647661,
               "lng" : 106.630153
            },
            "location_type" : "APPROXIMATE",
            "viewport" : {
               "northeast" : {
                  "lat" : 27.3578022,
                  "lng" : 107.2792364
               },
               "southwest" : {
                  "lat" : 26.1833961,
                  "lng" : 106.1250924
               }
            }
         },
         "place_id" : "ChIJNxvsVcNnvzYRVWQx2MCBMxc",
         "types" : [ "locality", "political" ]
      },
      {
         "address_components" : [
            {
               "long_name" : "Guizhou",
               "short_name" : "Guizhou",
               "types" : [ "administrative_area_level_1", "political" ]
            },
            {
               "long_name" : "China",
               "short_name" : "CN",
               "types" : [ "country", "political" ]
            }
         ],
         "formatted_address" : "Guizhou, China",
         "geometry" : {
            "bounds" : {
               "northeast" : {
                  "lat" : 29.2212755,
                  "lng" : 109.5977555
               },
               "southwest" : {
                  "lat" : 24.6182213,
                  "lng" : 103.6014388
               }
            },
            "location" : {
               "lat" : 26.8429645,
               "lng" : 107.2902839
            },
            "location_type" : "APPROXIMATE",
            "viewport" : {
               "northeast" : {
                  "lat" : 29.2212755,
                  "lng" : 109.5977555
               },
               "southwest" : {
                  "lat" : 24.6182213,
                  "lng" : 103.6014388
               }
            }
         },
         "place_id" : "ChIJmdNtrupnvzYRXtWrAHYdnOw",
         "types" : [ "administrative_area_level_1", "political" ]
      },
      {
         "address_components" : [
            {
               "long_name" : "China",
               "short_name" : "CN",
               "types" : [ "country", "political" ]
            }
         ],
         "formatted_address" : "China",
         "geometry" : {
            "bounds" : {
               "northeast" : {
                  "lat" : 53.5609739,
                  "lng" : 134.7754563
               },
               "southwest" : {
                  "lat" : 17.9996,
                  "lng" : 73.4994136
               }
            },
            "location" : {
               "lat" : 35.86166,
               "lng" : 104.195397
            },
            "location_type" : "APPROXIMATE",
            "viewport" : {
               "northeast" : {
                  "lat" : 53.5609739,
                  "lng" : 134.7754563
               },
               "southwest" : {
                  "lat" : 17.9996,
                  "lng" : 73.4994136
               }
            }
         },
         "place_id" : "ChIJwULG5WSOUDERbzafNHyqHZU",
         "types" : [ "country", "political" ]
      }
   ],
   "status" : "OK"
}
