{
   "plus_code" : {
      "compound_code" : "8698+HC Brookings, SD, USA",
      "global_code" : "86P58698+HC"
   },
   "results" : [
      {
         "address_components" : [
            {
               "long_name" : "1300",
               "short_name" : "1300",
               "types" : [ "street_number" ]
            },
            {
               "long_name" : "North Campus Drive",
               "short_name" : "N Campus Dr",
               "types" : [ "route" ]
            },
            {
               "long_name" : "Brookings",
               "short_name" : "Brookings",
               "types" : [ "locality", "political" ]
            },
            {
               "long_name" : "Brookings County",
               "short_name" : "Brookings County",
               "types" : [ "administrative_area_level_2", "political" ]
            },
            {
               "long_name" : "South Dakota",
               "short_name" : "SD",
               "types" : [ "administrative_area_level_1", "political" ]
            },
            {
               "long_name" : "United States",
               "short_name" : "US",
               "types" : [ "country", "political" ]
            },
            {
               "long_name" : "57007",
               "short_name" : "57007",
               "types" : [ "postal_code" ]
            }
         ],
         "formatted_address" : "1300 N Campus Dr, Brookings, SD 57007, USA",
         "geometry" : {
            "location" : {
               "lat" : 44.319184,
               "lng" : -96.78318399999999
            },
            "location_type" : "ROOFTOP",
            "viewport" : {
               "northeast" : {
                  "lat" : 44.3205329802915,
                  "lng" : -96.78183501970848
               },
               "southwest" : {
                  "lat" : 44.3178350197085,
                  "lng" : -96.7845329802915
               }
            }
         },
         "place_id" : "ChIJe3VrNOWiiYcRpIgwo2TpI2U",
         "types" : [ "establishment", "library", "point_of_interest" ]
      },
      {
         "address_components" : [
            {
               "long_name" : "1137",
               "short_name" : "1137",
               "types" : [ "street_number" ]
            },
            {
               "long_name" : "Campanile Avenue",
               "short_name" : "Campanile Ave",
               "types" : [ "route" ]
            },
            {
               "long_name" : "Brookings",
               "short_name" : "Brookings",
               "types" : [ "locality", "political" ]
            },
            {
               "long_name" : "South Dakota",
               "short_name" : "SD",
               "types" : [ "administrative_area_level_1", "political" ]
            },
            {
               "long_name" : "United States",
               "short_name" : "US",
               "types" : [ "country", "political" ]
            },
            {
               "long_name" : "57006",
               "short_name" : "57006",
               "types" : [ "postal_code" ]
            }
         ],
         "formatted_address" : "1137 Campanile Ave, Brookings, SD 57006, USA",
         "geometry" : {
            "location" : {
               "lat" : 44.3180675,
               "lng" : -96.784639
            },
            "location_type" : "RANGE_INTERPOLATED",
            "viewport" : {
               "northeast" : {
                  "lat" : 44.31941648029149,
                  "lng" : -96.78329001970849
               },
               "southwest" : {
                  "lat" : 44.31671851970849,
                  "lng" : -96.78598798029149
               }
            }
         },
         "place_id" : "EiwxMTM3IENhbXBhbmlsZSBBdmUsIEJyb29raW5ncywgU0QgNTcwMDYsIFVTQSIbEhkKFAoSCZ9fu6n7oomHEWqxs6vZUeQDEPEI",
         "types" : [ "street_address" ]
      },
      {
         "address_components" : [
            {
               "long_name" : "Brookings",
               "short_name" : "Brookings",
               "types" : [ "locality", "political" ]
            },
            {
               "long_name" : "Brookings County",
               "short_name" : "Brookings County",
               "types" : [ "administrative_area_level_2", "political" ]
            },
            {
               "long_name" : "South Dakota",
               "short_name" : "SD",
               "types" : [ "administrative_area_level_1", "political" ]
            },
            {
               "long_name" : "United States",
               "short_name" : "US",
               "types" : [ "country", "political" ]
            },
            {
               "long_name" : "57006",
               "short_name" : "57006",
               "types" : [ "postal_code" ]
            }
         ],
         "formatted_address" : "Brookings, SD 57006, USA",
         "geometry" : {
            "bounds" : {
               "northeast" : {
                  "lat" : 44.3338679,
                  "lng" : -96.746077
               },
               "southwest" : {
                  "lat" : 44.2679589,
                  "lng" : -96.8291091
               }
            },
            "location" : {
               "lat" : 44.3113573,
               "lng" : -96.79838769999999
            },
            "location_type" : "APPROXIMATE",
            "viewport" : {
               "northeast" : {
                  "lat" : 44.3338679,
                  "lng" : -96.746077
               },
               "southwest" : {
                  "lat" : 44.2679589,
                  "lng" : -96.8291091
               }
            }
         },
         "place_id" : "ChIJ7RRR1cn9iIcRLFvifEISPuE",
         "types" : [ "locality", "political" ]
      },
      {
         "address_components" : [
            {
               "long_name" : "57006",
               "short_name" : "57006",
               "types" : [ "postal_code" ]
            },
            {
               "long_name" : "Brookings",
               "short_name" : "Brookings",
               "types" : [ "locality", "political" ]
            },
            {
               "long_name" : "South Dakota",
               "short_name" : "SD",
               "types" : [ "administrative_area_level_1", "political" ]
            },
            {
               "long_name" : "United States",
               "short_name" : "US",
               "types" : [ "country", "political" ]
            }
         ],
         "formatted_address" : "Brookings, SD 57006, USA",
         "geometry" : {
            "bounds" : {
               "northeast" : {
                  "lat" : 44.5001151,
                  "lng" : -96.7076471
               },
               "southwest" : {
                  "lat" : 44.094547,
                  "lng" : -96.90848109999999
               }
            },
            "location" : {
               "lat" : 44.3107829,
               "lng" : -96.79223549999999
            },
            "location_type" : "APPROXIMATE",
            "viewport" : {
               "northeast" : {
                  "lat" : 44.5001151,
                  "lng" : -96.7076471
               },
               "southwest" : {
                  "lat" : 44.094547,
                  "lng" : -96.90848109999999
               }
            }
         },
         "place_id" : "ChIJISpxRKqjiYcR6gQRCD8G0O4",
         "types" : [ "postal_code" ]
      },
      {
         "address_components" : [
            {
               "long_name" : "Brookings County",
               "short_name" : "Brookings County",
               "types" : [ "administrative_area_level_2", "political" ]
            },
            {
               "long_name" : "South Dakota",
               "short_name" : "SD",
               "types" : [ "administrative_area_level_1", "political" ]
            },
            {
               "long_name" : "United States",
               "short_name" : "US",
               "types" : [ "country", "political" ]
            }
         ],
         "formatted_address" : "Brookings County, SD, USA",
         "geometry" : {
            "bounds" : {
               "northeast" : {
                  "lat" : 44.543883,
                  "lng" : -96.451466
               },
               "southwest" : {
                  "lat" : 44.195426,
                  "lng" : -97.129671
               }
            },
            "location" : {
               "lat" : 44.4211592,
               "lng" : -96.83509989999999
            },
            "location_type" : "APPROXIMATE",
            "viewport" : {
               "northeast" : {
                  "lat" : 44.543883,
                  "lng" : -96.451466
               },
               "southwest" : {
                  "lat" : 44.195426,
                  "lng" : -97.129671
               }
            }
         },
         "place_id" : "ChIJA5I0hW0CiYcR4JrzYMjb9vc",
         "types" : [ "administrative_area_level_2", "political" ]
      },
      {
         "address_components" : [
            {
               "long_name" : "South Dakota",
               "short_name" : "South Dakota",
               "types" : [ "administrative_area_level_1", "political" ]
            },
            {
               "long_name" : "United States",
               "short_name" : "US",
               "types" : [ "country", "political" ]
            }
         ],
         "formatted_address" : "South Dakota, USA",
         "geometry" : {
            "bounds" : {
               "northeast" : {
                  "lat" : 45.945713,
                  "lng" : -96.436589
               },
               "southwest" : {
                  "lat" : 42.479686,
                  "lng" : -104.0577391
               }
            },
            "location" : {
               "lat" : 43.9695148,
               "lng" : -99.9018131
            },
            "location_type" : "APPROXIMATE",
            "viewport" : {
               "northeast" : {
                  "lat" : 45.945713,
                  "lng" : -96.436589
               },
               "southwest" : {
                  "lat" : 42.479686,
                  "lng" : -104.0577391
               }
            }
         },
         "place_id" : "ChIJpTjphS1DfYcRt6SGMSnW8Ac",
         "types" : [ "administrative_area_level_1", "political" ]
      },
      {
         "address_components" : [
            {
               "long_name" : "United States",
               "short_name" : "US",
               "types" : [ "country", "political" ]
            }
         ],
         "formatted_address" : "United States",
         "geometry" : {
            "bounds" : {
               "northeast" : {
                  "lat" : 71.5388001,
                  "lng" : -66.885417
               },
               "southwest" : {
                  "lat" : 18.7763,
                  "lng" : 170.5957
               }
            },
            "location" : {
               "lat" : 37.09024,
               "lng" : -95.712891
            },
            "location_type" : "APPROXIMATE",
            "viewport" : {
               "northeast" : {
                  "lat" : 71.5388001,
                  "lng" : -66.885417
               },
               "southwest" : {
                  "lat" : 18.7763,
                  "lng" : 170.5957
               }
            }
         },
         "place_id" : "ChIJCzYy5IS16lQRQrfeQ5K5Oxw",
         "types" : [ "country", "political" ]
      }
   ],
   "status" : "OK"
}
