{
   "plus_code" : {
      "compound_code" : "HF92+4V Emeishan, Leshan, Sichuan, China",
      "global_code" : "7PX5HF92+4V"
   },
   "results" : [
      {
         "address_components" : [
            {
               "long_name" : "1",
               "short_name" : "1",
               "types" : [ "street_number" ]
            },
            {
               "long_name" : "Jingqu Road",
               "short_name" : "Jingqu Rd",
               "types" : [ "route" ]
            },
            {
               "long_name" : "Emeishan Shi",
               "short_name" : "Emeishan Shi",
               "types" : [ "political", "sublocality", "sublocality_level_1" ]
            },
            {
               "long_name" : "Leshan Shi",
               "short_name" : "Leshan Shi",
               "types" : [ "locality", "political" ]
            },
            {
               "long_name" : "Sichuan Sheng",
               "short_name" : "Sichuan Sheng",
               "types" : [ "administrative_area_level_1", "political" ]
            },
            {
               "long_name" : "China",
               "short_name" : "CN",
               "types" : [ "country", "political" ]
            }
         ],
         "formatted_address" : "1 Jingqu Rd, Emeishan Shi, Leshan Shi, Sichuan Sheng, China",
         "geometry" : {
            "location" : {
               "lat" : 29.567872,
               "lng" : 103.452145
            },
            "location_type" : "ROOFTOP",
            "viewport" : {
               "northeast" : {
                  "lat" : 29.5692209802915,
                  "lng" : 103.4534939802915
               },
               "southwest" : {
                  "lat" : 29.5665230197085,
                  "lng" : 103.4507960197085
               }
            }
         },
         "place_id" : "ChIJm0ef21D55TYRM1F0DOuNsZU",
         "plus_code" : {
            "compound_code" : "HF92+4V Emeishan, Leshan, Sichuan, China",
            "global_code" : "7PX5HF92+4V"
         },
         "types" : [ "establishment", "point_of_interest", "university" ]
      },
      {
         "address_components" : [
            {
               "long_name" : "1",
               "short_name" : "1",
               "types" : [ "street_number" ]
            },
            {
               "long_name" : "Jingqu Road",
               "short_name" : "Jingqu Rd",
               "types" : [ "route" ]
            },
            {
               "long_name" : "Emeishan Shi",
               "short_name" : "Emeishan Shi",
               "types" : [ "political", "sublocality", "sublocality_level_1" ]
            },
            {
               "long_name" : "Leshan Shi",
               "short_name" : "Leshan Shi",
               "types" : [ "locality", "political" ]
            },
            {
               "long_name" : "Sichuan Sheng",
               "short_name" : "Sichuan Sheng",
               "types" : [ "administrative_area_level_1", "political" ]
            },
            {
               "long_name" : "China",
               "short_name" : "CN",
               "types" : [ "country", "political" ]
            }
         ],
         "formatted_address" : "1 Jingqu Rd, Emeishan Shi, Leshan Shi, Sichuan Sheng, China",
         "geometry" : {
            "location" : {
               "lat" : 29.567384,
               "lng" : 103.452314
            },
            "location_type" : "ROOFTOP",
            "viewport" : {
               "northeast" : {
                  "lat" : 29.5687329802915,
                  "lng" : 103.4536629802915
               },
               "southwest" : {
                  "lat" : 29.5660350197085,
                  "lng" : 103.4509650197085
               }
            }
         },
         "place_id" : "ChIJW2Ud5lX55TYRERpE-wejLrI",
         "plus_code" : {
            "compound_code" : "HF82+XW Emeishan, Leshan, Sichuan, China",
            "global_code" : "7PX5HF82+XW"
         },
         "types" : [ "street_address" ]
      },
      {
         "address_components" : [
            {
               "long_name" : "20号",
               "short_name" : "20号",
               "types" : [ "street_number" ]
            },
            {
               "long_name" : "Jingqu Road",
               "short_name" : "Jingqu Rd",
               "types" : [ "route" ]
            },
            {
               "long_name" : "Emeishan Shi",
               "short_name" : "Emeishan Shi",
               "types" : [ "political", "sublocality", "sublocality_level_1" ]
            },
            {
               "long_name" : "Leshan Shi",
               "short_name" : "Leshan Shi",
               "types" : [ "locality", "political" ]
            },
            {
               "long_name" : "Sichuan Sheng",
               "short_name" : "Sichuan Sheng",
               "types" : [ "administrative_area_level_1", "political" ]
            },
            {
               "long_name" : "China",
               "short_name" : "CN",
               "types" : [ "country", "political" ]
            }
         ],
         "formatted_address" : "20 Jingqu Rd, Emeishan Shi, Leshan Shi, Sichuan Sheng, China",
         "geometry" : {
            "location" : {
               "lat" : 29.5673767,
               "lng" : 103.4524037
            },
            "location_type" : "RANGE_INTERPOLATED",
            "viewport" : {
               "northeast" : {
                  "lat" : 29.5687256802915,
                  "lng" : 103.4537526802915
               },
               "southwest" : {
                  "lat" : 29.5660277197085,
                  "lng" : 103.4510547197085
               }
            }
         },
         "place_id" : "EjLkuK3lm73lm5vlt53nnIHkuZDlsbHluILls6jnnInlsbHluILmma_ljLrot68yMOWPtyIaEhgKFAoSCffaoehV-eU2EZZ8xnii04HZEBQ",
         "types" : [ "street_address" ]
      },
      {
         "address_components" : [
            {
               "long_name" : "Emeishan",
               "short_name" : "Emeishan",
               "types" : [ "political", "sublocality", "sublocality_level_1" ]
            },
            {
               "long_name" : "Leshan",
               "short_name" : "Leshan",
               "types" : [ "locality", "political" ]
            },
            {
               "long_name" : "Sichuan",
               "short_name" : "Sichuan",
               "types" : [ "administrative_area_level_1", "political" ]
            },
            {
               "long_name" : "China",
               "short_name" : "CN",
               "types" : [ "country", "political" ]
            }
         ],
         "formatted_address" : "Emeishan, Leshan, Sichuan, China",
         "geometry" : {
            "bounds" : {
               "northeast" : {
                  "lat" : 29.7169084,
                  "lng" : 103.6231295
               },
               "southwest" : {
                  "lat" : 29.2739258,
                  "lng" : 103.1765735
               }
            },
            "location" : {
               "lat" : 29.601198,
               "lng" : 103.484503
            },
            "location_type" : "APPROXIMATE",
            "viewport" : {
               "northeast" : {
                  "lat" : 29.7169084,
                  "lng" : 103.6231295
               },
               "southwest" : {
                  "lat" : 29.2739258,
                  "lng" : 103.1765735
               }
            }
         },
         "place_id" : "ChIJOZlsKXL95TYRU5szC98kGXQ",
         "types" : [ "political", "sublocality", "sublocality_level_1" ]
      },
      {
         "address_components" : [
            {
               "long_name" : "Leshan",
               "short_name" : "Leshan",
               "types" : [ "locality", "political" ]
            },
            {
               "long_name" : "Sichuan",
               "short_name" : "Sichuan",
               "types" : [ "administrative_area_level_1", "political" ]
            },
            {
               "long_name" : "China",
               "short_name" : "CN",
               "types" : [ "country", "political" ]
            }
         ],
         "formatted_address" : "Leshan, Sichuan, China",
         "geometry" : {
            "bounds" : {
               "northeast" : {
                  "lat" : 29.9285814,
                  "lng" : 104.2521177
               },
               "southwest" : {
                  "lat" : 28.420651,
                  "lng" : 102.9090462
               }
            },
            "location" : {
               "lat" : 29.552115,
               "lng" : 103.765678
            },
            "location_type" : "APPROXIMATE",
            "viewport" : {
               "northeast" : {
                  "lat" : 29.9285814,
                  "lng" : 104.2521177
               },
               "southwest" : {
                  "lat" : 28.420651,
                  "lng" : 102.9090462
               }
            }
         },
         "place_id" : "ChIJWRZgCNCg6DYRKiRpw4Obf0k",
         "types" : [ "locality", "political" ]
      },
      {
         "address_components" : [
            {
               "long_name" : "Sichuan",
               "short_name" : "Sichuan",
               "types" : [ "administrative_area_level_1", "political" ]
            },
            {
               "long_name" : "China",
               "short_name" : "CN",
               "types" : [ "country", "political" ]
            }
         ],
         "formatted_address" : "Sichuan, China",
         "geometry" : {
            "bounds" : {
               "northeast" : {
                  "lat" : 34.3129997,
                  "lng" : 108.5467122
               },
               "southwest" : {
                  "lat" : 26.0458652,
                  "lng" : 97.3480814
               }
            },
            "location" : {
               "lat" : 30.26380319999999,
               "lng" : 102.8054753
            },
            "location_type" : "APPROXIMATE",
            "viewport" : {
               "northeast" : {
                  "lat" : 34.3129997,
                  "lng" : 108.5467122
               },
               "southwest" : {
                  "lat" : 26.0458652,
                  "lng" : 97.3480814
               }
            }
         },
         "place_id" : "ChIJs829aDPn5DYRuf6Zj898j94",
         "types" : [ "administrative_area_level_1", "political" ]
      },
      {
         "address_components" : [
            {
               "long_name" : "China",
               "short_name" : "CN",
               "types" : [ "country", "political" ]
            }
         ],
         "formatted_address" : "China",
         "geometry" : {
            "bounds" : {
               "northeast" : {
                  "lat" : 53.5609739,
                  "lng" : 134.7754563
               },
               "southwest" : {
                  "lat" : 17.9996,
                  "lng" : 73.4994136
               }
            },
            "location" : {
               "lat" : 35.86166,
               "lng" : 104.195397
            },
            "location_type" : "APPROXIMATE",
            "viewport" : {
               "northeast" : {
                  "lat" : 53.5609739,
                  "lng" : 134.7754563
               },
               "southwest" : {
                  "lat" : 17.9996,
                  "lng" : 73.4994136
               }
            }
         },
         "place_id" : "ChIJwULG5WSOUDERbzafNHyqHZU",
         "types" : [ "country", "political" ]
      }
   ],
   "status" : "OK"
}
