{
   "results" : [
      {
         "address_components" : [
            {
               "long_name" : "General Building III",
               "short_name" : "General Building III",
               "types" : [ "premise" ]
            },
            {
               "long_name" : "光明里",
               "short_name" : "光明里",
               "types" : [ "administrative_area_level_4", "political" ]
            },
            {
               "long_name" : "East District",
               "short_name" : "East District",
               "types" : [ "administrative_area_level_3", "political" ]
            },
            {
               "long_name" : "Hsinchu City",
               "short_name" : "Hsinchu City",
               "types" : [ "administrative_area_level_2", "political" ]
            },
            {
               "long_name" : "Taiwan",
               "short_name" : "TW",
               "types" : [ "country", "political" ]
            },
            {
               "long_name" : "300",
               "short_name" : "300",
               "types" : [ "postal_code" ]
            }
         ],
         "formatted_address" : "General Building III, East District, Hsinchu City, Taiwan 300",
         "geometry" : {
            "bounds" : {
               "northeast" : {
                  "lat" : 24.7951201,
                  "lng" : 120.9937542
               },
               "southwest" : {
                  "lat" : 24.7946015,
                  "lng" : 120.9931514
               }
            },
            "location" : {
               "lat" : 24.7949225,
               "lng" : 120.9934126
            },
            "location_type" : "ROOFTOP",
            "viewport" : {
               "northeast" : {
                  "lat" : 24.7962097802915,
                  "lng" : 120.9948017802915
               },
               "southwest" : {
                  "lat" : 24.7935118197085,
                  "lng" : 120.9921038197085
               }
            }
         },
         "place_id" : "ChIJXZ41gAw2aDQRaDUlNMVCMFs",
         "types" : [ "premise" ]
      },
      {
         "address_components" : [
            {
               "long_name" : "124",
               "short_name" : "124",
               "types" : [ "street_number" ]
            },
            {
               "long_name" : "Lane 155, Section 2, Guangfu Road",
               "short_name" : "Lane 155, Section 2, Guangfu Road",
               "types" : [ "route" ]
            },
            {
               "long_name" : "光明里",
               "short_name" : "光明里",
               "types" : [ "administrative_area_level_4", "political" ]
            },
            {
               "long_name" : "East District",
               "short_name" : "East District",
               "types" : [ "administrative_area_level_3", "political" ]
            },
            {
               "long_name" : "Hsinchu City",
               "short_name" : "Hsinchu City",
               "types" : [ "administrative_area_level_2", "political" ]
            },
            {
               "long_name" : "Taiwan",
               "short_name" : "TW",
               "types" : [ "country", "political" ]
            },
            {
               "long_name" : "300",
               "short_name" : "300",
               "types" : [ "postal_code" ]
            }
         ],
         "formatted_address" : "No. 124, Lane 155, Section 2, Guangfu Road, East District, Hsinchu City, Taiwan 300",
         "geometry" : {
            "location" : {
               "lat" : 24.79705,
               "lng" : 120.9930955
            },
            "location_type" : "RANGE_INTERPOLATED",
            "viewport" : {
               "northeast" : {
                  "lat" : 24.7983989802915,
                  "lng" : 120.9944444802915
               },
               "southwest" : {
                  "lat" : 24.7957010197085,
                  "lng" : 120.9917465197085
               }
            }
         },
         "place_id" : "EjMzMDDlj7DngaPmlrDnq7nluILmnbHljYDlhYnlvqnot6_kuozmrrUxNTXlt7cxMjTomZ8iGhIYChQKEgkfTapWCzZoNBE5qyM5dQp5ghB8",
         "types" : [ "street_address" ]
      },
      {
         "address_components" : [
            {
               "long_name" : "Hsinchu",
               "short_name" : "Hsinchu",
               "types" : [ "colloquial_area", "locality", "political" ]
            },
            {
               "long_name" : "East District",
               "short_name" : "East District",
               "types" : [ "administrative_area_level_3", "political" ]
            },
            {
               "long_name" : "Hsinchu City",
               "short_name" : "Hsinchu City",
               "types" : [ "administrative_area_level_2", "political" ]
            },
            {
               "long_name" : "Taiwan Province",
               "short_name" : "Taiwan Province",
               "types" : [ "administrative_area_level_1", "political" ]
            },
            {
               "long_name" : "Taiwan",
               "short_name" : "TW",
               "types" : [ "country", "political" ]
            }
         ],
         "formatted_address" : "Hsinchu, East District, Hsinchu City, Taiwan",
         "geometry" : {
            "bounds" : {
               "northeast" : {
                  "lat" : 24.8261386,
                  "lng" : 121.0292242
               },
               "southwest" : {
                  "lat" : 24.7408195,
                  "lng" : 120.9041431
               }
            },
            "location" : {
               "lat" : 24.8138287,
               "lng" : 120.9674798
            },
            "location_type" : "APPROXIMATE",
            "viewport" : {
               "northeast" : {
                  "lat" : 24.8261386,
                  "lng" : 121.0292242
               },
               "southwest" : {
                  "lat" : 24.7408195,
                  "lng" : 120.9041431
               }
            }
         },
         "place_id" : "ChIJEUtLGts1aDQRDDvTtbzcCdQ",
         "types" : [ "colloquial_area", "locality", "political" ]
      },
      {
         "address_components" : [
            {
               "long_name" : "光明里",
               "short_name" : "光明里",
               "types" : [ "administrative_area_level_4", "political" ]
            },
            {
               "long_name" : "東區",
               "short_name" : "東區",
               "types" : [ "administrative_area_level_3", "political" ]
            },
            {
               "long_name" : "新竹市",
               "short_name" : "新竹市",
               "types" : [ "administrative_area_level_2", "political" ]
            },
            {
               "long_name" : "Taiwan Province",
               "short_name" : "Taiwan Province",
               "types" : [ "administrative_area_level_1", "political" ]
            },
            {
               "long_name" : "Taiwan",
               "short_name" : "TW",
               "types" : [ "country", "political" ]
            },
            {
               "long_name" : "300",
               "short_name" : "300",
               "types" : [ "postal_code" ]
            }
         ],
         "formatted_address" : "300, Taiwan, 新竹市東區光明里",
         "geometry" : {
            "bounds" : {
               "northeast" : {
                  "lat" : 24.7998215,
                  "lng" : 121.0055793
               },
               "southwest" : {
                  "lat" : 24.7826199,
                  "lng" : 120.9778747
               }
            },
            "location" : {
               "lat" : 24.7887403,
               "lng" : 120.9962356
            },
            "location_type" : "APPROXIMATE",
            "viewport" : {
               "northeast" : {
                  "lat" : 24.7998215,
                  "lng" : 121.0055793
               },
               "southwest" : {
                  "lat" : 24.7826199,
                  "lng" : 120.9778747
               }
            }
         },
         "place_id" : "ChIJXW0bawk2aDQRlSR_EpFgF9k",
         "types" : [ "administrative_area_level_4", "political" ]
      },
      {
         "address_components" : [
            {
               "long_name" : "East District",
               "short_name" : "East District",
               "types" : [ "administrative_area_level_3", "political" ]
            },
            {
               "long_name" : "Hsinchu City",
               "short_name" : "Hsinchu City",
               "types" : [ "administrative_area_level_2", "political" ]
            },
            {
               "long_name" : "Taiwan Province",
               "short_name" : "Taiwan Province",
               "types" : [ "administrative_area_level_1", "political" ]
            },
            {
               "long_name" : "Taiwan",
               "short_name" : "TW",
               "types" : [ "country", "political" ]
            },
            {
               "long_name" : "300",
               "short_name" : "300",
               "types" : [ "postal_code" ]
            }
         ],
         "formatted_address" : "East District, Hsinchu City, Taiwan 300",
         "geometry" : {
            "bounds" : {
               "northeast" : {
                  "lat" : 24.8260951,
                  "lng" : 121.0335449
               },
               "southwest" : {
                  "lat" : 24.7508903,
                  "lng" : 120.9580438
               }
            },
            "location" : {
               "lat" : 24.7920604,
               "lng" : 120.9933678
            },
            "location_type" : "APPROXIMATE",
            "viewport" : {
               "northeast" : {
                  "lat" : 24.8260951,
                  "lng" : 121.0335449
               },
               "southwest" : {
                  "lat" : 24.7508903,
                  "lng" : 120.9580438
               }
            }
         },
         "place_id" : "ChIJrRQLBA82aDQR5inqmxHPVc0",
         "types" : [ "administrative_area_level_3", "political" ]
      },
      {
         "address_components" : [
            {
               "long_name" : "Hsinchu City",
               "short_name" : "Hsinchu City",
               "types" : [ "administrative_area_level_2", "political" ]
            },
            {
               "long_name" : "Taiwan Province",
               "short_name" : "Taiwan Province",
               "types" : [ "administrative_area_level_1", "political" ]
            },
            {
               "long_name" : "Taiwan",
               "short_name" : "TW",
               "types" : [ "country", "political" ]
            },
            {
               "long_name" : "300",
               "short_name" : "300",
               "types" : [ "postal_code" ]
            }
         ],
         "formatted_address" : "Hsinchu City, Taiwan 300",
         "geometry" : {
            "bounds" : {
               "northeast" : {
                  "lat" : 24.8569956,
                  "lng" : 121.0335449
               },
               "southwest" : {
                  "lat" : 24.7125478,
                  "lng" : 120.8785096
               }
            },
            "location" : {
               "lat" : 24.8138297,
               "lng" : 120.9674752
            },
            "location_type" : "APPROXIMATE",
            "viewport" : {
               "northeast" : {
                  "lat" : 24.8569956,
                  "lng" : 121.0335449
               },
               "southwest" : {
                  "lat" : 24.7125478,
                  "lng" : 120.8785096
               }
            }
         },
         "place_id" : "ChIJ9-datXdKaDQR-x-h4mLoTF4",
         "types" : [ "administrative_area_level_2", "political" ]
      },
      {
         "address_components" : [
            {
               "long_name" : "300",
               "short_name" : "300",
               "types" : [ "postal_code" ]
            },
            {
               "long_name" : "Hsinchu City",
               "short_name" : "Hsinchu City",
               "types" : [ "administrative_area_level_2", "political" ]
            },
            {
               "long_name" : "Taiwan",
               "short_name" : "TW",
               "types" : [ "country", "political" ]
            }
         ],
         "formatted_address" : "Hsinchu City, Taiwan 300",
         "geometry" : {
            "bounds" : {
               "northeast" : {
                  "lat" : 24.8569956,
                  "lng" : 121.0335449
               },
               "southwest" : {
                  "lat" : 24.7125478,
                  "lng" : 120.8785096
               }
            },
            "location" : {
               "lat" : 24.8039455,
               "lng" : 120.9646866
            },
            "location_type" : "APPROXIMATE",
            "viewport" : {
               "northeast" : {
                  "lat" : 24.8569956,
                  "lng" : 121.0335449
               },
               "southwest" : {
                  "lat" : 24.7125478,
                  "lng" : 120.8785096
               }
            }
         },
         "place_id" : "ChIJw6i4dK81aDQRCRpIJjRGW-k",
         "types" : [ "postal_code" ]
      },
      {
         "address_components" : [
            {
               "long_name" : "Taiwan Province",
               "short_name" : "Taiwan Province",
               "types" : [ "administrative_area_level_1", "political" ]
            },
            {
               "long_name" : "Taiwan",
               "short_name" : "TW",
               "types" : [ "country", "political" ]
            }
         ],
         "formatted_address" : "Taiwan Province, Taiwan",
         "geometry" : {
            "bounds" : {
               "northeast" : {
                  "lat" : 25.1956281,
                  "lng" : 121.9660124
               },
               "southwest" : {
                  "lat" : 21.8966958,
                  "lng" : 119.3144141
               }
            },
            "location" : {
               "lat" : 22.6158015,
               "lng" : 120.7120023
            },
            "location_type" : "APPROXIMATE",
            "viewport" : {
               "northeast" : {
                  "lat" : 25.1956281,
                  "lng" : 121.9660124
               },
               "southwest" : {
                  "lat" : 21.8966958,
                  "lng" : 119.3144141
               }
            }
         },
         "place_id" : "ChIJoSFawR-waDQR-6m5DFTfH-8",
         "types" : [ "administrative_area_level_1", "political" ]
      },
      {
         "address_components" : [
            {
               "long_name" : "Taiwan",
               "short_name" : "TW",
               "types" : [ "country", "political" ]
            }
         ],
         "formatted_address" : "Taiwan",
         "geometry" : {
            "bounds" : {
               "northeast" : {
                  "lat" : 26.4545,
                  "lng" : 123.5021012
               },
               "southwest" : {
                  "lat" : 20.5170001,
                  "lng" : 116.6665
               }
            },
            "location" : {
               "lat" : 23.69781,
               "lng" : 120.960515
            },
            "location_type" : "APPROXIMATE",
            "viewport" : {
               "northeast" : {
                  "lat" : 26.4545,
                  "lng" : 123.5021012
               },
               "southwest" : {
                  "lat" : 20.5170001,
                  "lng" : 116.6665
               }
            }
         },
         "place_id" : "ChIJL1cHXAbzbjQRaVScvwTwEec",
         "types" : [ "country", "political" ]
      }
   ],
   "status" : "OK"
}
