{
   "plus_code" : {
      "compound_code" : "98CV+79 Hiroshima, Hiroshima Prefecture, Japan",
      "global_code" : "8Q6J98CV+79"
   },
   "results" : [
      {
         "address_components" : [
            {
               "long_name" : "1",
               "short_name" : "1",
               "types" : [ "premise" ]
            },
            {
               "long_name" : "1",
               "short_name" : "1",
               "types" : [ "political", "sublocality", "sublocality_level_4" ]
            },
            {
               "long_name" : "2 Chome",
               "short_name" : "2 Chome",
               "types" : [ "political", "sublocality", "sublocality_level_3" ]
            },
            {
               "long_name" : "Miyake",
               "short_name" : "Miyake",
               "types" : [ "political", "sublocality", "sublocality_level_2" ]
            },
            {
               "long_name" : "Saeki Ward",
               "short_name" : "Saeki Ward",
               "types" : [ "political", "sublocality", "sublocality_level_1" ]
            },
            {
               "long_name" : "Hiroshima",
               "short_name" : "Hiroshima",
               "types" : [ "locality", "political" ]
            },
            {
               "long_name" : "Hiroshima Prefecture",
               "short_name" : "Hiroshima Prefecture",
               "types" : [ "administrative_area_level_1", "political" ]
            },
            {
               "long_name" : "Japan",
               "short_name" : "JP",
               "types" : [ "country", "political" ]
            },
            {
               "long_name" : "731-5193",
               "short_name" : "731-5193",
               "types" : [ "postal_code" ]
            }
         ],
         "formatted_address" : "2 Chome-1-1 Miyake, Saeki Ward, Hiroshima, Hiroshima Prefecture 731-5193, Japan",
         "geometry" : {
            "location" : {
               "lat" : 34.370628,
               "lng" : 132.34343
            },
            "location_type" : "ROOFTOP",
            "viewport" : {
               "northeast" : {
                  "lat" : 34.37197698029149,
                  "lng" : 132.3447789802915
               },
               "southwest" : {
                  "lat" : 34.36927901970849,
                  "lng" : 132.3420810197085
               }
            }
         },
         "place_id" : "ChIJ_xAcOo-7WjURSTjbSurbs1E",
         "plus_code" : {
            "compound_code" : "98CV+79 Hiroshima, Hiroshima Prefecture, Japan",
            "global_code" : "8Q6J98CV+79"
         },
         "types" : [ "establishment", "point_of_interest", "university" ]
      },
      {
         "address_components" : [
            {
               "long_name" : "1-1",
               "short_name" : "1-1",
               "types" : [ "premise" ]
            },
            {
               "long_name" : "1",
               "short_name" : "1",
               "types" : [ "political", "sublocality", "sublocality_level_4" ]
            },
            {
               "long_name" : "2 Chome",
               "short_name" : "2 Chome",
               "types" : [ "political", "sublocality", "sublocality_level_3" ]
            },
            {
               "long_name" : "Miyake",
               "short_name" : "Miyake",
               "types" : [ "political", "sublocality", "sublocality_level_2" ]
            },
            {
               "long_name" : "Saeki-ku",
               "short_name" : "Saeki-ku",
               "types" : [ "political", "sublocality", "sublocality_level_1" ]
            },
            {
               "long_name" : "Hiroshima-shi",
               "short_name" : "Hiroshima-shi",
               "types" : [ "locality", "political" ]
            },
            {
               "long_name" : "Hiroshima-ken",
               "short_name" : "Hiroshima-ken",
               "types" : [ "administrative_area_level_1", "political" ]
            },
            {
               "long_name" : "Japan",
               "short_name" : "JP",
               "types" : [ "country", "political" ]
            },
            {
               "long_name" : "731-5143",
               "short_name" : "731-5143",
               "types" : [ "postal_code" ]
            }
         ],
         "formatted_address" : "2 Chome-1-1-1 Miyake, Saeki-ku, Hiroshima-shi, Hiroshima-ken 731-5143, Japan",
         "geometry" : {
            "location" : {
               "lat" : 34.3709528,
               "lng" : 132.3436805
            },
            "location_type" : "ROOFTOP",
            "viewport" : {
               "northeast" : {
                  "lat" : 34.3723017802915,
                  "lng" : 132.3450294802915
               },
               "southwest" : {
                  "lat" : 34.3696038197085,
                  "lng" : 132.3423315197085
               }
            }
         },
         "place_id" : "ChIJh2dlS4-7WjUR_8KkNWQdOJs",
         "plus_code" : {
            "compound_code" : "98CV+9F Hiroshima, Hiroshima Prefecture, Japan",
            "global_code" : "8Q6J98CV+9F"
         },
         "types" : [ "street_address" ]
      },
      {
         "address_components" : [
            {
               "long_name" : "Unnamed Road",
               "short_name" : "Unnamed Road",
               "types" : [ "route" ]
            },
            {
               "long_name" : "1",
               "short_name" : "1",
               "types" : [ "political", "sublocality", "sublocality_level_4" ]
            },
            {
               "long_name" : "2 Chome",
               "short_name" : "2 Chome",
               "types" : [ "political", "sublocality", "sublocality_level_3" ]
            },
            {
               "long_name" : "Miyake",
               "short_name" : "Miyake",
               "types" : [ "political", "sublocality", "sublocality_level_2" ]
            },
            {
               "long_name" : "Saeki-ku",
               "short_name" : "Saeki-ku",
               "types" : [ "political", "sublocality", "sublocality_level_1" ]
            },
            {
               "long_name" : "Hiroshima-shi",
               "short_name" : "Hiroshima-shi",
               "types" : [ "locality", "political" ]
            },
            {
               "long_name" : "Hiroshima-ken",
               "short_name" : "Hiroshima-ken",
               "types" : [ "administrative_area_level_1", "political" ]
            },
            {
               "long_name" : "Japan",
               "short_name" : "JP",
               "types" : [ "country", "political" ]
            },
            {
               "long_name" : "731-5143",
               "short_name" : "731-5143",
               "types" : [ "postal_code" ]
            }
         ],
         "formatted_address" : "Unnamed Road, 2 Chome-1 Miyake, Saeki-ku, Hiroshima-shi, Hiroshima-ken 731-5143, Japan",
         "geometry" : {
            "bounds" : {
               "northeast" : {
                  "lat" : 34.3731514,
                  "lng" : 132.342557
               },
               "southwest" : {
                  "lat" : 34.3706795,
                  "lng" : 132.340546
               }
            },
            "location" : {
               "lat" : 34.37191550000001,
               "lng" : 132.3415515
            },
            "location_type" : "GEOMETRIC_CENTER",
            "viewport" : {
               "northeast" : {
                  "lat" : 34.37326443029151,
                  "lng" : 132.3429004802915
               },
               "southwest" : {
                  "lat" : 34.37056646970851,
                  "lng" : 132.3402025197085
               }
            }
         },
         "place_id" : "ChIJJ6ZZzY67WjURAPe0NBSkX5w",
         "types" : [ "route" ]
      },
      {
         "address_components" : [
            {
               "long_name" : "2 Chome",
               "short_name" : "2 Chome",
               "types" : [ "political", "sublocality", "sublocality_level_3" ]
            },
            {
               "long_name" : "1",
               "short_name" : "1",
               "types" : [ "political", "sublocality", "sublocality_level_4" ]
            },
            {
               "long_name" : "Miyake",
               "short_name" : "Miyake",
               "types" : [ "political", "sublocality", "sublocality_level_2" ]
            },
            {
               "long_name" : "Saeki Ward",
               "short_name" : "Saeki Ward",
               "types" : [ "political", "sublocality", "sublocality_level_1" ]
            },
            {
               "long_name" : "Hiroshima",
               "short_name" : "Hiroshima",
               "types" : [ "locality", "political" ]
            },
            {
               "long_name" : "Hiroshima Prefecture",
               "short_name" : "Hiroshima Prefecture",
               "types" : [ "administrative_area_level_1", "political" ]
            },
            {
               "long_name" : "Japan",
               "short_name" : "JP",
               "types" : [ "country", "political" ]
            },
            {
               "long_name" : "731-5143",
               "short_name" : "731-5143",
               "types" : [ "postal_code" ]
            }
         ],
         "formatted_address" : "2 Chome-1 Miyake, Saeki Ward, Hiroshima, Hiroshima Prefecture 731-5143, Japan",
         "geometry" : {
            "bounds" : {
               "northeast" : {
                  "lat" : 34.3739872,
                  "lng" : 132.3479965
               },
               "southwest" : {
                  "lat" : 34.3683559,
                  "lng" : 132.3390037
               }
            },
            "location" : {
               "lat" : 34.3699363,
               "lng" : 132.3441887
            },
            "location_type" : "APPROXIMATE",
            "viewport" : {
               "northeast" : {
                  "lat" : 34.3739872,
                  "lng" : 132.3479965
               },
               "southwest" : {
                  "lat" : 34.3683559,
                  "lng" : 132.3390037
               }
            }
         },
         "place_id" : "ChIJ-cA5tYi7WjURuG0R72_IaDM",
         "types" : [ "political", "sublocality", "sublocality_level_3" ]
      },
      {
         "address_components" : [
            {
               "long_name" : "1",
               "short_name" : "1",
               "types" : [ "political", "sublocality", "sublocality_level_4" ]
            },
            {
               "long_name" : "2 Chome",
               "short_name" : "2 Chome",
               "types" : [ "political", "sublocality", "sublocality_level_3" ]
            },
            {
               "long_name" : "Miyake",
               "short_name" : "Miyake",
               "types" : [ "political", "sublocality", "sublocality_level_2" ]
            },
            {
               "long_name" : "Saeki Ward",
               "short_name" : "Saeki Ward",
               "types" : [ "political", "sublocality", "sublocality_level_1" ]
            },
            {
               "long_name" : "Hiroshima",
               "short_name" : "Hiroshima",
               "types" : [ "locality", "political" ]
            },
            {
               "long_name" : "Hiroshima Prefecture",
               "short_name" : "Hiroshima Prefecture",
               "types" : [ "administrative_area_level_1", "political" ]
            },
            {
               "long_name" : "Japan",
               "short_name" : "JP",
               "types" : [ "country", "political" ]
            },
            {
               "long_name" : "731-5143",
               "short_name" : "731-5143",
               "types" : [ "postal_code" ]
            }
         ],
         "formatted_address" : "2 Chome-1 Miyake, Saeki Ward, Hiroshima, Hiroshima Prefecture 731-5143, Japan",
         "geometry" : {
            "bounds" : {
               "northeast" : {
                  "lat" : 34.3739872,
                  "lng" : 132.3479965
               },
               "southwest" : {
                  "lat" : 34.3683559,
                  "lng" : 132.3390037
               }
            },
            "location" : {
               "lat" : 34.3691475,
               "lng" : 132.3436583
            },
            "location_type" : "GEOMETRIC_CENTER",
            "viewport" : {
               "northeast" : {
                  "lat" : 34.3739872,
                  "lng" : 132.3479965
               },
               "southwest" : {
                  "lat" : 34.3683559,
                  "lng" : 132.3390037
               }
            }
         },
         "place_id" : "ChIJ-cA5tYi7WjURMX-s4B8fAc0",
         "types" : [ "political", "sublocality", "sublocality_level_4" ]
      },
      {
         "address_components" : [
            {
               "long_name" : "Miyake",
               "short_name" : "Miyake",
               "types" : [ "political", "sublocality", "sublocality_level_2" ]
            },
            {
               "long_name" : "Saeki Ward",
               "short_name" : "Saeki Ward",
               "types" : [ "political", "sublocality", "sublocality_level_1" ]
            },
            {
               "long_name" : "Hiroshima",
               "short_name" : "Hiroshima",
               "types" : [ "locality", "political" ]
            },
            {
               "long_name" : "Hiroshima Prefecture",
               "short_name" : "Hiroshima Prefecture",
               "types" : [ "administrative_area_level_1", "political" ]
            },
            {
               "long_name" : "Japan",
               "short_name" : "JP",
               "types" : [ "country", "political" ]
            },
            {
               "long_name" : "731-5143",
               "short_name" : "731-5143",
               "types" : [ "postal_code" ]
            }
         ],
         "formatted_address" : "Miyake, Saeki Ward, Hiroshima, Hiroshima Prefecture 731-5143, Japan",
         "geometry" : {
            "bounds" : {
               "northeast" : {
                  "lat" : 34.384187,
                  "lng" : 132.3514308
               },
               "southwest" : {
                  "lat" : 34.367745,
                  "lng" : 132.3314335
               }
            },
            "location" : {
               "lat" : 34.3708308,
               "lng" : 132.3481243
            },
            "location_type" : "APPROXIMATE",
            "viewport" : {
               "northeast" : {
                  "lat" : 34.384187,
                  "lng" : 132.3514308
               },
               "southwest" : {
                  "lat" : 34.367745,
                  "lng" : 132.3314335
               }
            }
         },
         "place_id" : "ChIJWfYlxYm7WjURT31ZnO0KnOc",
         "types" : [ "political", "sublocality", "sublocality_level_2" ]
      },
      {
         "address_components" : [
            {
               "long_name" : "731-5143",
               "short_name" : "731-5143",
               "types" : [ "postal_code" ]
            },
            {
               "long_name" : "Miyake",
               "short_name" : "Miyake",
               "types" : [ "political", "sublocality", "sublocality_level_2" ]
            },
            {
               "long_name" : "Saeki Ward",
               "short_name" : "Saeki Ward",
               "types" : [ "political", "sublocality", "sublocality_level_1" ]
            },
            {
               "long_name" : "Hiroshima",
               "short_name" : "Hiroshima",
               "types" : [ "locality", "political" ]
            },
            {
               "long_name" : "Hiroshima Prefecture",
               "short_name" : "Hiroshima Prefecture",
               "types" : [ "administrative_area_level_1", "political" ]
            },
            {
               "long_name" : "Japan",
               "short_name" : "JP",
               "types" : [ "country", "political" ]
            }
         ],
         "formatted_address" : "731-5143, Japan",
         "geometry" : {
            "bounds" : {
               "northeast" : {
                  "lat" : 34.3890473,
                  "lng" : 132.3514335
               },
               "southwest" : {
                  "lat" : 34.3677403,
                  "lng" : 132.3180715
               }
            },
            "location" : {
               "lat" : 34.3739742,
               "lng" : 132.3421788
            },
            "location_type" : "APPROXIMATE",
            "viewport" : {
               "northeast" : {
                  "lat" : 34.3890473,
                  "lng" : 132.3514335
               },
               "southwest" : {
                  "lat" : 34.3677403,
                  "lng" : 132.3180715
               }
            }
         },
         "place_id" : "ChIJ-6op6Ya7WjURiGqGLzH053E",
         "types" : [ "postal_code" ]
      },
      {
         "address_components" : [
            {
               "long_name" : "Saeki Ward",
               "short_name" : "Saeki Ward",
               "types" : [ "political", "sublocality", "sublocality_level_1" ]
            },
            {
               "long_name" : "Hiroshima",
               "short_name" : "Hiroshima",
               "types" : [ "locality", "political" ]
            },
            {
               "long_name" : "Hiroshima Prefecture",
               "short_name" : "Hiroshima Prefecture",
               "types" : [ "administrative_area_level_1", "political" ]
            },
            {
               "long_name" : "Japan",
               "short_name" : "JP",
               "types" : [ "country", "political" ]
            }
         ],
         "formatted_address" : "Saeki Ward, Hiroshima, Hiroshima Prefecture, Japan",
         "geometry" : {
            "bounds" : {
               "northeast" : {
                  "lat" : 34.5591885,
                  "lng" : 132.4149932
               },
               "southwest" : {
                  "lat" : 34.3473307,
                  "lng" : 132.1788746
               }
            },
            "location" : {
               "lat" : 34.3644457,
               "lng" : 132.3608398
            },
            "location_type" : "APPROXIMATE",
            "viewport" : {
               "northeast" : {
                  "lat" : 34.5591885,
                  "lng" : 132.4149932
               },
               "southwest" : {
                  "lat" : 34.3473307,
                  "lng" : 132.1788746
               }
            }
         },
         "place_id" : "ChIJ64R1vBW-WjURMp8yJlsA19Y",
         "types" : [ "political", "sublocality", "sublocality_level_1" ]
      },
      {
         "address_components" : [
            {
               "long_name" : "Hiroshima",
               "short_name" : "Hiroshima",
               "types" : [ "locality", "political" ]
            },
            {
               "long_name" : "Hiroshima Prefecture",
               "short_name" : "Hiroshima Prefecture",
               "types" : [ "administrative_area_level_1", "political" ]
            },
            {
               "long_name" : "Japan",
               "short_name" : "JP",
               "types" : [ "country", "political" ]
            }
         ],
         "formatted_address" : "Hiroshima, Hiroshima Prefecture, Japan",
         "geometry" : {
            "bounds" : {
               "northeast" : {
                  "lat" : 34.6156546,
                  "lng" : 132.6960798
               },
               "southwest" : {
                  "lat" : 34.2966813,
                  "lng" : 132.1788746
               }
            },
            "location" : {
               "lat" : 34.3852029,
               "lng" : 132.4552927
            },
            "location_type" : "APPROXIMATE",
            "viewport" : {
               "northeast" : {
                  "lat" : 34.6156546,
                  "lng" : 132.6960798
               },
               "southwest" : {
                  "lat" : 34.2966813,
                  "lng" : 132.1788746
               }
            }
         },
         "place_id" : "ChIJu0_z7giZWjURcvfBz1DO5Ac",
         "types" : [ "locality", "political" ]
      },
      {
         "address_components" : [
            {
               "long_name" : "Hiroshima Prefecture",
               "short_name" : "Hiroshima Prefecture",
               "types" : [ "administrative_area_level_1", "political" ]
            },
            {
               "long_name" : "Japan",
               "short_name" : "JP",
               "types" : [ "country", "political" ]
            }
         ],
         "formatted_address" : "Hiroshima Prefecture, Japan",
         "geometry" : {
            "bounds" : {
               "northeast" : {
                  "lat" : 35.105779,
                  "lng" : 133.4706286
               },
               "southwest" : {
                  "lat" : 34.0338707,
                  "lng" : 132.0361831
               }
            },
            "location" : {
               "lat" : 34.3965603,
               "lng" : 132.4596225
            },
            "location_type" : "APPROXIMATE",
            "viewport" : {
               "northeast" : {
                  "lat" : 35.105779,
                  "lng" : 133.4706286
               },
               "southwest" : {
                  "lat" : 34.0338707,
                  "lng" : 132.0361831
               }
            }
         },
         "place_id" : "ChIJa_O3GdGJUDURv90VFtIkjqU",
         "types" : [ "administrative_area_level_1", "political" ]
      },
      {
         "address_components" : [
            {
               "long_name" : "Japan",
               "short_name" : "JP",
               "types" : [ "country", "political" ]
            }
         ],
         "formatted_address" : "Japan",
         "geometry" : {
            "bounds" : {
               "northeast" : {
                  "lat" : 45.6412626,
                  "lng" : 154.0031455
               },
               "southwest" : {
                  "lat" : 20.3585295,
                  "lng" : 122.8554688
               }
            },
            "location" : {
               "lat" : 36.204824,
               "lng" : 138.252924
            },
            "location_type" : "APPROXIMATE",
            "viewport" : {
               "northeast" : {
                  "lat" : 45.6412626,
                  "lng" : 154.0031455
               },
               "southwest" : {
                  "lat" : 20.3585295,
                  "lng" : 122.8554688
               }
            }
         },
         "place_id" : "ChIJLxl_1w9OZzQRRFJmfNR1QvU",
         "types" : [ "country", "political" ]
      }
   ],
   "status" : "OK"
}
