{
   "plus_code" : {
      "compound_code" : "HP7C+G6 Corvallis, OR, USA",
      "global_code" : "84PRHP7C+G6"
   },
   "results" : [
      {
         "address_components" : [
            {
               "long_name" : "Native American Longhouse, Eena Haws",
               "short_name" : "Native American Longhouse, Eena Haws",
               "types" : [ "premise" ]
            },
            {
               "long_name" : "311",
               "short_name" : "311",
               "types" : [ "street_number" ]
            },
            {
               "long_name" : "Southwest 26th Street",
               "short_name" : "SW 26th St",
               "types" : [ "route" ]
            },
            {
               "long_name" : "Corvallis",
               "short_name" : "Corvallis",
               "types" : [ "locality", "political" ]
            },
            {
               "long_name" : "Benton County",
               "short_name" : "Benton County",
               "types" : [ "administrative_area_level_2", "political" ]
            },
            {
               "long_name" : "Oregon",
               "short_name" : "OR",
               "types" : [ "administrative_area_level_1", "political" ]
            },
            {
               "long_name" : "United States",
               "short_name" : "US",
               "types" : [ "country", "political" ]
            },
            {
               "long_name" : "97331",
               "short_name" : "97331",
               "types" : [ "postal_code" ]
            }
         ],
         "formatted_address" : "Native American Longhouse, Eena Haws, 311 SW 26th St, Corvallis, OR 97331, USA",
         "geometry" : {
            "bounds" : {
               "northeast" : {
                  "lat" : 44.5641094,
                  "lng" : -123.279319
               },
               "southwest" : {
                  "lat" : 44.563964,
                  "lng" : -123.2797167
               }
            },
            "location" : {
               "lat" : 44.5640531,
               "lng" : -123.2794735
            },
            "location_type" : "ROOFTOP",
            "viewport" : {
               "northeast" : {
                  "lat" : 44.56538568029151,
                  "lng" : -123.2781688697085
               },
               "southwest" : {
                  "lat" : 44.56268771970851,
                  "lng" : -123.2808668302915
               }
            }
         },
         "place_id" : "ChIJ22--crlAwFQRjPY8oqgDZs4",
         "types" : [ "premise" ]
      },
      {
         "address_components" : [
            {
               "long_name" : "DxRC",
               "short_name" : "DxRC",
               "types" : [ "premise" ]
            },
            {
               "long_name" : "425",
               "short_name" : "425",
               "types" : [ "street_number" ]
            },
            {
               "long_name" : "Southwest 26th Street",
               "short_name" : "SW 26th St",
               "types" : [ "route" ]
            },
            {
               "long_name" : "Corvallis",
               "short_name" : "Corvallis",
               "types" : [ "locality", "political" ]
            },
            {
               "long_name" : "Benton County",
               "short_name" : "Benton County",
               "types" : [ "administrative_area_level_2", "political" ]
            },
            {
               "long_name" : "Oregon",
               "short_name" : "OR",
               "types" : [ "administrative_area_level_1", "political" ]
            },
            {
               "long_name" : "United States",
               "short_name" : "US",
               "types" : [ "country", "political" ]
            },
            {
               "long_name" : "97331",
               "short_name" : "97331",
               "types" : [ "postal_code" ]
            },
            {
               "long_name" : "4501",
               "short_name" : "4501",
               "types" : [ "postal_code_suffix" ]
            }
         ],
         "formatted_address" : "DxRC, 425 SW 26th St, Corvallis, OR 97331, USA",
         "geometry" : {
            "location" : {
               "lat" : 44.5631448,
               "lng" : -123.2786381
            },
            "location_type" : "ROOFTOP",
            "viewport" : {
               "northeast" : {
                  "lat" : 44.5644937802915,
                  "lng" : -123.2772891197085
               },
               "southwest" : {
                  "lat" : 44.5617958197085,
                  "lng" : -123.2799870802915
               }
            }
         },
         "place_id" : "ChIJ06s2AblAwFQRLCk-cSvFXco",
         "plus_code" : {
            "compound_code" : "HP7C+7G Corvallis, Oregon, United States",
            "global_code" : "84PRHP7C+7G"
         },
         "types" : [ "establishment", "gym", "health", "point_of_interest" ]
      },
      {
         "address_components" : [
            {
               "long_name" : "311",
               "short_name" : "311",
               "types" : [ "street_number" ]
            },
            {
               "long_name" : "Southwest 26th Street",
               "short_name" : "SW 26th St",
               "types" : [ "route" ]
            },
            {
               "long_name" : "Corvallis",
               "short_name" : "Corvallis",
               "types" : [ "locality", "political" ]
            },
            {
               "long_name" : "Oregon",
               "short_name" : "OR",
               "types" : [ "administrative_area_level_1", "political" ]
            },
            {
               "long_name" : "United States",
               "short_name" : "US",
               "types" : [ "country", "political" ]
            },
            {
               "long_name" : "97331",
               "short_name" : "97331",
               "types" : [ "postal_code" ]
            }
         ],
         "formatted_address" : "311 SW 26th St, Corvallis, OR 97331, USA",
         "geometry" : {
            "location" : {
               "lat" : 44.563995,
               "lng" : -123.2798971
            },
            "location_type" : "RANGE_INTERPOLATED",
            "viewport" : {
               "northeast" : {
                  "lat" : 44.56534398029149,
                  "lng" : -123.2785481197085
               },
               "southwest" : {
                  "lat" : 44.5626460197085,
                  "lng" : -123.2812460802915
               }
            }
         },
         "place_id" : "EigzMTEgU1cgMjZ0aCBTdCwgQ29ydmFsbGlzLCBPUiA5NzMzMSwgVVNBIhsSGQoUChIJQw5NC7lAwFQRhSsKfmUtHgIQtwI",
         "types" : [ "street_address" ]
      },
      {
         "address_components" : [
            {
               "long_name" : "97331",
               "short_name" : "97331",
               "types" : [ "postal_code" ]
            },
            {
               "long_name" : "Corvallis",
               "short_name" : "Corvallis",
               "types" : [ "locality", "political" ]
            },
            {
               "long_name" : "Benton County",
               "short_name" : "Benton County",
               "types" : [ "administrative_area_level_2", "political" ]
            },
            {
               "long_name" : "Oregon",
               "short_name" : "OR",
               "types" : [ "administrative_area_level_1", "political" ]
            },
            {
               "long_name" : "United States",
               "short_name" : "US",
               "types" : [ "country", "political" ]
            }
         ],
         "formatted_address" : "Corvallis, OR 97331, USA",
         "geometry" : {
            "bounds" : {
               "northeast" : {
                  "lat" : 44.56901,
                  "lng" : -123.2693959
               },
               "southwest" : {
                  "lat" : 44.5569719,
                  "lng" : -123.2897171
               }
            },
            "location" : {
               "lat" : 44.5642722,
               "lng" : -123.2785942
            },
            "location_type" : "APPROXIMATE",
            "viewport" : {
               "northeast" : {
                  "lat" : 44.56901,
                  "lng" : -123.2693959
               },
               "southwest" : {
                  "lat" : 44.5569719,
                  "lng" : -123.2897171
               }
            }
         },
         "place_id" : "ChIJtU7tOLFAwFQRVKsrTdEZYZQ",
         "types" : [ "postal_code" ]
      },
      {
         "address_components" : [
            {
               "long_name" : "Corvallis",
               "short_name" : "Corvallis",
               "types" : [ "locality", "political" ]
            },
            {
               "long_name" : "Benton County",
               "short_name" : "Benton County",
               "types" : [ "administrative_area_level_2", "political" ]
            },
            {
               "long_name" : "Oregon",
               "short_name" : "OR",
               "types" : [ "administrative_area_level_1", "political" ]
            },
            {
               "long_name" : "United States",
               "short_name" : "US",
               "types" : [ "country", "political" ]
            }
         ],
         "formatted_address" : "Corvallis, OR, USA",
         "geometry" : {
            "bounds" : {
               "northeast" : {
                  "lat" : 44.606254,
                  "lng" : -123.2308399
               },
               "southwest" : {
                  "lat" : 44.5196909,
                  "lng" : -123.3362331
               }
            },
            "location" : {
               "lat" : 44.5645659,
               "lng" : -123.2620435
            },
            "location_type" : "APPROXIMATE",
            "viewport" : {
               "northeast" : {
                  "lat" : 44.606254,
                  "lng" : -123.2308399
               },
               "southwest" : {
                  "lat" : 44.5196909,
                  "lng" : -123.3362331
               }
            }
         },
         "place_id" : "ChIJfdcUqp1AwFQRvsC9Io-ADdc",
         "types" : [ "locality", "political" ]
      },
      {
         "address_components" : [
            {
               "long_name" : "Benton County",
               "short_name" : "Benton County",
               "types" : [ "administrative_area_level_2", "political" ]
            },
            {
               "long_name" : "Oregon",
               "short_name" : "OR",
               "types" : [ "administrative_area_level_1", "political" ]
            },
            {
               "long_name" : "United States",
               "short_name" : "US",
               "types" : [ "country", "political" ]
            }
         ],
         "formatted_address" : "Benton County, OR, USA",
         "geometry" : {
            "bounds" : {
               "northeast" : {
                  "lat" : 44.721296,
                  "lng" : -123.0731321
               },
               "southwest" : {
                  "lat" : 44.276564,
                  "lng" : -123.8169339
               }
            },
            "location" : {
               "lat" : 44.6281686,
               "lng" : -123.3873877
            },
            "location_type" : "APPROXIMATE",
            "viewport" : {
               "northeast" : {
                  "lat" : 44.721296,
                  "lng" : -123.0731321
               },
               "southwest" : {
                  "lat" : 44.276564,
                  "lng" : -123.8169339
               }
            }
         },
         "place_id" : "ChIJy0LtZMW1wVQRlXp7J0JQ3QQ",
         "types" : [ "administrative_area_level_2", "political" ]
      },
      {
         "address_components" : [
            {
               "long_name" : "Oregon",
               "short_name" : "Oregon",
               "types" : [ "administrative_area_level_1", "political" ]
            },
            {
               "long_name" : "United States",
               "short_name" : "US",
               "types" : [ "country", "political" ]
            }
         ],
         "formatted_address" : "Oregon, USA",
         "geometry" : {
            "bounds" : {
               "northeast" : {
                  "lat" : 46.299099,
                  "lng" : -116.463262
               },
               "southwest" : {
                  "lat" : 41.9917941,
                  "lng" : -124.7035411
               }
            },
            "location" : {
               "lat" : 43.8041334,
               "lng" : -120.5542012
            },
            "location_type" : "APPROXIMATE",
            "viewport" : {
               "northeast" : {
                  "lat" : 46.299099,
                  "lng" : -116.463262
               },
               "southwest" : {
                  "lat" : 41.9917941,
                  "lng" : -124.7035411
               }
            }
         },
         "place_id" : "ChIJVWqfm3xuk1QRdrgLettlTH0",
         "types" : [ "administrative_area_level_1", "political" ]
      },
      {
         "address_components" : [
            {
               "long_name" : "United States",
               "short_name" : "US",
               "types" : [ "country", "political" ]
            }
         ],
         "formatted_address" : "United States",
         "geometry" : {
            "bounds" : {
               "northeast" : {
                  "lat" : 71.5388001,
                  "lng" : -66.885417
               },
               "southwest" : {
                  "lat" : 18.7763,
                  "lng" : 170.5957
               }
            },
            "location" : {
               "lat" : 37.09024,
               "lng" : -95.712891
            },
            "location_type" : "APPROXIMATE",
            "viewport" : {
               "northeast" : {
                  "lat" : 71.5388001,
                  "lng" : -66.885417
               },
               "southwest" : {
                  "lat" : 18.7763,
                  "lng" : 170.5957
               }
            }
         },
         "place_id" : "ChIJCzYy5IS16lQRQrfeQ5K5Oxw",
         "types" : [ "country", "political" ]
      }
   ],
   "status" : "OK"
}
