{
   "plus_code" : {
      "compound_code" : "9GGX+MM Zürich, Switzerland",
      "global_code" : "8FVC9GGX+MM"
   },
   "results" : [
      {
         "address_components" : [
            {
               "long_name" : "100",
               "short_name" : "100",
               "types" : [ "street_number" ]
            },
            {
               "long_name" : "Rämistrasse",
               "short_name" : "Rämistrasse",
               "types" : [ "route" ]
            },
            {
               "long_name" : "Kreis 7",
               "short_name" : "Kreis 7",
               "types" : [ "political", "sublocality", "sublocality_level_1" ]
            },
            {
               "long_name" : "Zürich",
               "short_name" : "Zürich",
               "types" : [ "locality", "political" ]
            },
            {
               "long_name" : "Zürich",
               "short_name" : "Zürich",
               "types" : [ "administrative_area_level_2", "political" ]
            },
            {
               "long_name" : "Zürich",
               "short_name" : "ZH",
               "types" : [ "administrative_area_level_1", "political" ]
            },
            {
               "long_name" : "Switzerland",
               "short_name" : "CH",
               "types" : [ "country", "political" ]
            },
            {
               "long_name" : "8091",
               "short_name" : "8091",
               "types" : [ "postal_code" ]
            }
         ],
         "formatted_address" : "Rämistrasse 100, 8091 Zürich, Switzerland",
         "geometry" : {
            "location" : {
               "lat" : 47.3766843,
               "lng" : 8.5491457
            },
            "location_type" : "ROOFTOP",
            "viewport" : {
               "northeast" : {
                  "lat" : 47.3780332802915,
                  "lng" : 8.550494680291502
               },
               "southwest" : {
                  "lat" : 47.3753353197085,
                  "lng" : 8.547796719708499
               }
            }
         },
         "place_id" : "ChIJAfcU2qWgmkcR221KQsLd_uQ",
         "plus_code" : {
            "compound_code" : "9GGX+MM Zürich, Switzerland",
            "global_code" : "8FVC9GGX+MM"
         },
         "types" : [ "establishment", "hospital", "point_of_interest" ]
      },
      {
         "address_components" : [
            {
               "long_name" : "100",
               "short_name" : "100",
               "types" : [ "street_number" ]
            },
            {
               "long_name" : "Rämistrasse",
               "short_name" : "Rämistrasse",
               "types" : [ "route" ]
            },
            {
               "long_name" : "Kreis 7",
               "short_name" : "Kreis 7",
               "types" : [ "political", "sublocality", "sublocality_level_1" ]
            },
            {
               "long_name" : "Zürich",
               "short_name" : "Zürich",
               "types" : [ "locality", "political" ]
            },
            {
               "long_name" : "Zürich",
               "short_name" : "Zürich",
               "types" : [ "administrative_area_level_2", "political" ]
            },
            {
               "long_name" : "Zürich",
               "short_name" : "ZH",
               "types" : [ "administrative_area_level_1", "political" ]
            },
            {
               "long_name" : "Switzerland",
               "short_name" : "CH",
               "types" : [ "country", "political" ]
            },
            {
               "long_name" : "8006",
               "short_name" : "8006",
               "types" : [ "postal_code" ]
            }
         ],
         "formatted_address" : "Rämistrasse 100, 8006 Zürich, Switzerland",
         "geometry" : {
            "location" : {
               "lat" : 47.3766158,
               "lng" : 8.549177499999999
            },
            "location_type" : "ROOFTOP",
            "viewport" : {
               "northeast" : {
                  "lat" : 47.3779647802915,
                  "lng" : 8.550526480291502
               },
               "southwest" : {
                  "lat" : 47.3752668197085,
                  "lng" : 8.547828519708498
               }
            }
         },
         "place_id" : "ChIJ_2PGCKagmkcRllOGDK8bMj0",
         "plus_code" : {
            "compound_code" : "9GGX+JM Zürich, Switzerland",
            "global_code" : "8FVC9GGX+JM"
         },
         "types" : [ "street_address" ]
      },
      {
         "address_components" : [
            {
               "long_name" : "Fluntern",
               "short_name" : "Fluntern",
               "types" : [ "political", "sublocality", "sublocality_level_2" ]
            },
            {
               "long_name" : "District 7",
               "short_name" : "District 7",
               "types" : [ "political", "sublocality", "sublocality_level_1" ]
            },
            {
               "long_name" : "Zürich",
               "short_name" : "Zürich",
               "types" : [ "locality", "political" ]
            },
            {
               "long_name" : "Zürich District",
               "short_name" : "Zürich District",
               "types" : [ "administrative_area_level_2", "political" ]
            },
            {
               "long_name" : "Zurich",
               "short_name" : "ZH",
               "types" : [ "administrative_area_level_1", "political" ]
            },
            {
               "long_name" : "Switzerland",
               "short_name" : "CH",
               "types" : [ "country", "political" ]
            }
         ],
         "formatted_address" : "Fluntern, Zürich, Switzerland",
         "geometry" : {
            "bounds" : {
               "northeast" : {
                  "lat" : 47.3905289,
                  "lng" : 8.5823269
               },
               "southwest" : {
                  "lat" : 47.3709921,
                  "lng" : 8.5486618
               }
            },
            "location" : {
               "lat" : 47.3820158,
               "lng" : 8.566346299999999
            },
            "location_type" : "APPROXIMATE",
            "viewport" : {
               "northeast" : {
                  "lat" : 47.3905289,
                  "lng" : 8.5823269
               },
               "southwest" : {
                  "lat" : 47.3709921,
                  "lng" : 8.5486618
               }
            }
         },
         "place_id" : "ChIJISla6r6gmkcRqlijU0HU2TU",
         "types" : [ "political", "sublocality", "sublocality_level_2" ]
      },
      {
         "address_components" : [
            {
               "long_name" : "8006",
               "short_name" : "8006",
               "types" : [ "postal_code" ]
            },
            {
               "long_name" : "Zürich",
               "short_name" : "Zürich",
               "types" : [ "locality", "political" ]
            },
            {
               "long_name" : "Zürich District",
               "short_name" : "Zürich District",
               "types" : [ "administrative_area_level_2", "political" ]
            },
            {
               "long_name" : "Zurich",
               "short_name" : "ZH",
               "types" : [ "administrative_area_level_1", "political" ]
            },
            {
               "long_name" : "Switzerland",
               "short_name" : "CH",
               "types" : [ "country", "political" ]
            }
         ],
         "formatted_address" : "8006 Zürich, Switzerland",
         "geometry" : {
            "bounds" : {
               "northeast" : {
                  "lat" : 47.3950458,
                  "lng" : 8.5631263
               },
               "southwest" : {
                  "lat" : 47.3741516,
                  "lng" : 8.534944099999999
               }
            },
            "location" : {
               "lat" : 47.38862289999999,
               "lng" : 8.5439931
            },
            "location_type" : "APPROXIMATE",
            "viewport" : {
               "northeast" : {
                  "lat" : 47.3950458,
                  "lng" : 8.5631263
               },
               "southwest" : {
                  "lat" : 47.3741516,
                  "lng" : 8.534944099999999
               }
            }
         },
         "place_id" : "ChIJTX3xKqCgmkcRwv96pTrkgUQ",
         "types" : [ "postal_code" ]
      },
      {
         "address_components" : [
            {
               "long_name" : "District 7",
               "short_name" : "District 7",
               "types" : [ "political", "sublocality", "sublocality_level_1" ]
            },
            {
               "long_name" : "Zürich",
               "short_name" : "Zürich",
               "types" : [ "locality", "political" ]
            },
            {
               "long_name" : "Zürich District",
               "short_name" : "Zürich District",
               "types" : [ "administrative_area_level_2", "political" ]
            },
            {
               "long_name" : "Zurich",
               "short_name" : "ZH",
               "types" : [ "administrative_area_level_1", "political" ]
            },
            {
               "long_name" : "Switzerland",
               "short_name" : "CH",
               "types" : [ "country", "political" ]
            }
         ],
         "formatted_address" : "District 7, Zürich, Switzerland",
         "geometry" : {
            "bounds" : {
               "northeast" : {
                  "lat" : 47.3905289,
                  "lng" : 8.625485099999999
               },
               "southwest" : {
                  "lat" : 47.3508308,
                  "lng" : 8.5486618
               }
            },
            "location" : {
               "lat" : 47.3683977,
               "lng" : 8.583531599999999
            },
            "location_type" : "APPROXIMATE",
            "viewport" : {
               "northeast" : {
                  "lat" : 47.3905289,
                  "lng" : 8.625485099999999
               },
               "southwest" : {
                  "lat" : 47.3508308,
                  "lng" : 8.5486618
               }
            }
         },
         "place_id" : "ChIJG5uy6tigmkcRdOx1QwkxTdk",
         "types" : [ "political", "sublocality", "sublocality_level_1" ]
      },
      {
         "address_components" : [
            {
               "long_name" : "Zürich District",
               "short_name" : "Zürich District",
               "types" : [ "administrative_area_level_2", "political" ]
            },
            {
               "long_name" : "Zürich",
               "short_name" : "Zürich",
               "types" : [ "locality", "political" ]
            },
            {
               "long_name" : "Zurich",
               "short_name" : "ZH",
               "types" : [ "administrative_area_level_1", "political" ]
            },
            {
               "long_name" : "Switzerland",
               "short_name" : "CH",
               "types" : [ "country", "political" ]
            }
         ],
         "formatted_address" : "Zürich District, Zürich, Switzerland",
         "geometry" : {
            "bounds" : {
               "northeast" : {
                  "lat" : 47.43468,
                  "lng" : 8.6253701
               },
               "southwest" : {
                  "lat" : 47.32023,
                  "lng" : 8.448059899999999
               }
            },
            "location" : {
               "lat" : 47.3877685,
               "lng" : 8.5224385
            },
            "location_type" : "APPROXIMATE",
            "viewport" : {
               "northeast" : {
                  "lat" : 47.43468,
                  "lng" : 8.6253701
               },
               "southwest" : {
                  "lat" : 47.32023,
                  "lng" : 8.448059899999999
               }
            }
         },
         "place_id" : "ChIJIwKWed0LkEcRGsdRsCT2BwI",
         "types" : [ "administrative_area_level_2", "political" ]
      },
      {
         "address_components" : [
            {
               "long_name" : "Zürich",
               "short_name" : "Zürich",
               "types" : [ "locality", "political" ]
            },
            {
               "long_name" : "Zürich District",
               "short_name" : "Zürich District",
               "types" : [ "administrative_area_level_2", "political" ]
            },
            {
               "long_name" : "Zurich",
               "short_name" : "ZH",
               "types" : [ "administrative_area_level_1", "political" ]
            },
            {
               "long_name" : "Switzerland",
               "short_name" : "CH",
               "types" : [ "country", "political" ]
            }
         ],
         "formatted_address" : "Zürich, Switzerland",
         "geometry" : {
            "bounds" : {
               "northeast" : {
                  "lat" : 47.43468,
                  "lng" : 8.6253701
               },
               "southwest" : {
                  "lat" : 47.32023,
                  "lng" : 8.448059899999999
               }
            },
            "location" : {
               "lat" : 47.3768866,
               "lng" : 8.541694
            },
            "location_type" : "APPROXIMATE",
            "viewport" : {
               "northeast" : {
                  "lat" : 47.43468,
                  "lng" : 8.6253701
               },
               "southwest" : {
                  "lat" : 47.32023,
                  "lng" : 8.448059899999999
               }
            }
         },
         "place_id" : "ChIJGaK-SZcLkEcRA9wf5_GNbuY",
         "types" : [ "locality", "political" ]
      },
      {
         "address_components" : [
            {
               "long_name" : "Zurich",
               "short_name" : "Zurich",
               "types" : [ "administrative_area_level_1", "political" ]
            },
            {
               "long_name" : "Switzerland",
               "short_name" : "CH",
               "types" : [ "country", "political" ]
            }
         ],
         "formatted_address" : "Zurich, Switzerland",
         "geometry" : {
            "bounds" : {
               "northeast" : {
                  "lat" : 47.6949199,
                  "lng" : 8.984900099999999
               },
               "southwest" : {
                  "lat" : 47.15945,
                  "lng" : 8.357889999999999
               }
            },
            "location" : {
               "lat" : 47.359536,
               "lng" : 8.635645199999999
            },
            "location_type" : "APPROXIMATE",
            "viewport" : {
               "northeast" : {
                  "lat" : 47.6949199,
                  "lng" : 8.984900099999999
               },
               "southwest" : {
                  "lat" : 47.15945,
                  "lng" : 8.357889999999999
               }
            }
         },
         "place_id" : "ChIJa_ltU3EKkEcRfy571124_mM",
         "types" : [ "administrative_area_level_1", "political" ]
      },
      {
         "address_components" : [
            {
               "long_name" : "Switzerland",
               "short_name" : "CH",
               "types" : [ "country", "political" ]
            }
         ],
         "formatted_address" : "Switzerland",
         "geometry" : {
            "bounds" : {
               "northeast" : {
                  "lat" : 47.8084546,
                  "lng" : 10.4923401
               },
               "southwest" : {
                  "lat" : 45.81792,
                  "lng" : 5.95608
               }
            },
            "location" : {
               "lat" : 46.818188,
               "lng" : 8.227511999999999
            },
            "location_type" : "APPROXIMATE",
            "viewport" : {
               "northeast" : {
                  "lat" : 47.8084546,
                  "lng" : 10.4923401
               },
               "southwest" : {
                  "lat" : 45.81792,
                  "lng" : 5.95608
               }
            }
         },
         "place_id" : "ChIJYW1Zb-9kjEcRFXvLDxG1Vlw",
         "types" : [ "country", "political" ]
      }
   ],
   "status" : "OK"
}
