{
   "plus_code" : {
      "compound_code" : "4346+XQ Wrocław, Poland",
      "global_code" : "9F3V4346+XQ"
   },
   "results" : [
      {
         "address_components" : [
            {
               "long_name" : "A-1",
               "short_name" : "A-1",
               "types" : [ "premise" ]
            },
            {
               "long_name" : "27",
               "short_name" : "27",
               "types" : [ "street_number" ]
            },
            {
               "long_name" : "wybrzeże Stanisława Wyspiańskiego",
               "short_name" : "wybrzeże Stanisława Wyspiańskiego",
               "types" : [ "route" ]
            },
            {
               "long_name" : "Śródmieście",
               "short_name" : "Śródmieście",
               "types" : [ "political", "sublocality", "sublocality_level_1" ]
            },
            {
               "long_name" : "Wrocław",
               "short_name" : "Wrocław",
               "types" : [ "locality", "political" ]
            },
            {
               "long_name" : "Wrocław",
               "short_name" : "Wrocław",
               "types" : [ "administrative_area_level_2", "political" ]
            },
            {
               "long_name" : "Województwo dolnośląskie",
               "short_name" : "Województwo dolnośląskie",
               "types" : [ "administrative_area_level_1", "political" ]
            },
            {
               "long_name" : "Poland",
               "short_name" : "PL",
               "types" : [ "country", "political" ]
            },
            {
               "long_name" : "50-370",
               "short_name" : "50-370",
               "types" : [ "postal_code" ]
            }
         ],
         "formatted_address" : "A-1, wybrzeże Stanisława Wyspiańskiego 27, 50-370 Wrocław, Poland",
         "geometry" : {
            "bounds" : {
               "northeast" : {
                  "lat" : 51.1081602,
                  "lng" : 17.064051
               },
               "southwest" : {
                  "lat" : 51.1072406,
                  "lng" : 17.0611762
               }
            },
            "location" : {
               "lat" : 51.1078939,
               "lng" : 17.0616995
            },
            "location_type" : "ROOFTOP",
            "viewport" : {
               "northeast" : {
                  "lat" : 51.10904938029149,
                  "lng" : 17.064051
               },
               "southwest" : {
                  "lat" : 51.1063514197085,
                  "lng" : 17.0611762
               }
            }
         },
         "place_id" : "ChIJLxfrcyroD0cRwuNVVmX4bRw",
         "types" : [ "premise" ]
      },
      {
         "address_components" : [
            {
               "long_name" : "27",
               "short_name" : "27",
               "types" : [ "street_number" ]
            },
            {
               "long_name" : "wybrzeże Stanisława Wyspiańskiego",
               "short_name" : "wybrzeże Stanisława Wyspiańskiego",
               "types" : [ "route" ]
            },
            {
               "long_name" : "Śródmieście",
               "short_name" : "Śródmieście",
               "types" : [ "political", "sublocality", "sublocality_level_1" ]
            },
            {
               "long_name" : "Wrocław",
               "short_name" : "Wrocław",
               "types" : [ "locality", "political" ]
            },
            {
               "long_name" : "Wrocław",
               "short_name" : "Wrocław",
               "types" : [ "administrative_area_level_2", "political" ]
            },
            {
               "long_name" : "Województwo dolnośląskie",
               "short_name" : "Województwo dolnośląskie",
               "types" : [ "administrative_area_level_1", "political" ]
            },
            {
               "long_name" : "Poland",
               "short_name" : "PL",
               "types" : [ "country", "political" ]
            },
            {
               "long_name" : "50-370",
               "short_name" : "50-370",
               "types" : [ "postal_code" ]
            }
         ],
         "formatted_address" : "wybrzeże Stanisława Wyspiańskiego 27, 50-370 Wrocław, Poland",
         "geometry" : {
            "location" : {
               "lat" : 51.1073907,
               "lng" : 17.0619712
            },
            "location_type" : "ROOFTOP",
            "viewport" : {
               "northeast" : {
                  "lat" : 51.10873968029149,
                  "lng" : 17.0633201802915
               },
               "southwest" : {
                  "lat" : 51.1060417197085,
                  "lng" : 17.0606222197085
               }
            }
         },
         "place_id" : "ChIJmyg2eCroD0cRD9fIxQQ_-bg",
         "plus_code" : {
            "compound_code" : "4346+XQ Wrocław, Poland",
            "global_code" : "9F3V4346+XQ"
         },
         "types" : [ "establishment", "point_of_interest", "school", "university" ]
      },
      {
         "address_components" : [
            {
               "long_name" : "27",
               "short_name" : "27",
               "types" : [ "street_number" ]
            },
            {
               "long_name" : "wybrzeże Stanisława Wyspiańskiego",
               "short_name" : "wybrzeże Stanisława Wyspiańskiego",
               "types" : [ "route" ]
            },
            {
               "long_name" : "Śródmieście",
               "short_name" : "Śródmieście",
               "types" : [ "political", "sublocality", "sublocality_level_1" ]
            },
            {
               "long_name" : "Wrocław",
               "short_name" : "Wrocław",
               "types" : [ "locality", "political" ]
            },
            {
               "long_name" : "Wrocław",
               "short_name" : "Wrocław",
               "types" : [ "administrative_area_level_2", "political" ]
            },
            {
               "long_name" : "Województwo dolnośląskie",
               "short_name" : "Województwo dolnośląskie",
               "types" : [ "administrative_area_level_1", "political" ]
            },
            {
               "long_name" : "Poland",
               "short_name" : "PL",
               "types" : [ "country", "political" ]
            },
            {
               "long_name" : "48-387",
               "short_name" : "48-387",
               "types" : [ "postal_code" ]
            }
         ],
         "formatted_address" : "wybrzeże Stanisława Wyspiańskiego 27, 48-387 Wrocław, Poland",
         "geometry" : {
            "location" : {
               "lat" : 51.1074104,
               "lng" : 17.0621464
            },
            "location_type" : "ROOFTOP",
            "viewport" : {
               "northeast" : {
                  "lat" : 51.1087593802915,
                  "lng" : 17.0634953802915
               },
               "southwest" : {
                  "lat" : 51.1060614197085,
                  "lng" : 17.0607974197085
               }
            }
         },
         "place_id" : "ChIJm7cP2IHCD0cRcB4r6T-s4e0",
         "plus_code" : {
            "compound_code" : "4346+XV Wrocław, Poland",
            "global_code" : "9F3V4346+XV"
         },
         "types" : [ "street_address" ]
      },
      {
         "address_components" : [
            {
               "long_name" : "28-27",
               "short_name" : "28-27",
               "types" : [ "street_number" ]
            },
            {
               "long_name" : "wybrzeże Stanisława Wyspiańskiego",
               "short_name" : "wybrzeże Stanisława Wyspiańskiego",
               "types" : [ "route" ]
            },
            {
               "long_name" : "Śródmieście",
               "short_name" : "Śródmieście",
               "types" : [ "political", "sublocality", "sublocality_level_1" ]
            },
            {
               "long_name" : "Wrocław",
               "short_name" : "Wrocław",
               "types" : [ "locality", "political" ]
            },
            {
               "long_name" : "Wrocław",
               "short_name" : "Wrocław",
               "types" : [ "administrative_area_level_2", "political" ]
            },
            {
               "long_name" : "Województwo dolnośląskie",
               "short_name" : "Województwo dolnośląskie",
               "types" : [ "administrative_area_level_1", "political" ]
            },
            {
               "long_name" : "Poland",
               "short_name" : "PL",
               "types" : [ "country", "political" ]
            },
            {
               "long_name" : "50-370",
               "short_name" : "50-370",
               "types" : [ "postal_code" ]
            }
         ],
         "formatted_address" : "wybrzeże Stanisława Wyspiańskiego 28-27, 50-370 Wrocław, Poland",
         "geometry" : {
            "bounds" : {
               "northeast" : {
                  "lat" : 51.1071438,
                  "lng" : 17.0627985
               },
               "southwest" : {
                  "lat" : 51.1071313,
                  "lng" : 17.0610566
               }
            },
            "location" : {
               "lat" : 51.10713759999999,
               "lng" : 17.0619276
            },
            "location_type" : "GEOMETRIC_CENTER",
            "viewport" : {
               "northeast" : {
                  "lat" : 51.1084865302915,
                  "lng" : 17.0632765302915
               },
               "southwest" : {
                  "lat" : 51.1057885697085,
                  "lng" : 17.0605785697085
               }
            }
         },
         "place_id" : "ChIJ_ZIB2oHCD0cRHiRiFpInrDk",
         "types" : [ "route" ]
      },
      {
         "address_components" : [
            {
               "long_name" : "50-373",
               "short_name" : "50-373",
               "types" : [ "postal_code" ]
            },
            {
               "long_name" : "Śródmieście",
               "short_name" : "Śródmieście",
               "types" : [ "political", "sublocality", "sublocality_level_1" ]
            },
            {
               "long_name" : "Wrocław",
               "short_name" : "Wrocław",
               "types" : [ "locality", "political" ]
            },
            {
               "long_name" : "Wrocław County",
               "short_name" : "Wrocław County",
               "types" : [ "administrative_area_level_2", "political" ]
            },
            {
               "long_name" : "Lower Silesian Voivodeship",
               "short_name" : "Lower Silesian Voivodeship",
               "types" : [ "administrative_area_level_1", "political" ]
            },
            {
               "long_name" : "Poland",
               "short_name" : "PL",
               "types" : [ "country", "political" ]
            }
         ],
         "formatted_address" : "50-373 Wrocław, Poland",
         "geometry" : {
            "bounds" : {
               "northeast" : {
                  "lat" : 51.1137335,
                  "lng" : 17.0668631
               },
               "southwest" : {
                  "lat" : 51.10608939999999,
                  "lng" : 17.0586186
               }
            },
            "location" : {
               "lat" : 51.10982509999999,
               "lng" : 17.0625753
            },
            "location_type" : "APPROXIMATE",
            "viewport" : {
               "northeast" : {
                  "lat" : 51.1137335,
                  "lng" : 17.0668631
               },
               "southwest" : {
                  "lat" : 51.10608939999999,
                  "lng" : 17.0586186
               }
            }
         },
         "place_id" : "ChIJpRdWACvoD0cR0GDw6UVvR0A",
         "types" : [ "postal_code" ]
      },
      {
         "address_components" : [
            {
               "long_name" : "Plac Grunwaldzki",
               "short_name" : "Plac Grunwaldzki",
               "types" : [ "neighborhood", "political" ]
            },
            {
               "long_name" : "Śródmieście",
               "short_name" : "Śródmieście",
               "types" : [ "political", "sublocality", "sublocality_level_1" ]
            },
            {
               "long_name" : "Wrocław",
               "short_name" : "Wrocław",
               "types" : [ "locality", "political" ]
            },
            {
               "long_name" : "Wrocław County",
               "short_name" : "Wrocław County",
               "types" : [ "administrative_area_level_2", "political" ]
            },
            {
               "long_name" : "Lower Silesian Voivodeship",
               "short_name" : "Lower Silesian Voivodeship",
               "types" : [ "administrative_area_level_1", "political" ]
            },
            {
               "long_name" : "Poland",
               "short_name" : "PL",
               "types" : [ "country", "political" ]
            },
            {
               "long_name" : "50-001",
               "short_name" : "50-001",
               "types" : [ "postal_code" ]
            }
         ],
         "formatted_address" : "Plac Grunwaldzki, 50-001 Wrocław, Poland",
         "geometry" : {
            "bounds" : {
               "northeast" : {
                  "lat" : 51.11671,
                  "lng" : 17.07243
               },
               "southwest" : {
                  "lat" : 51.1041821,
                  "lng" : 17.0491767
               }
            },
            "location" : {
               "lat" : 51.11167589999999,
               "lng" : 17.0605103
            },
            "location_type" : "APPROXIMATE",
            "viewport" : {
               "northeast" : {
                  "lat" : 51.11671,
                  "lng" : 17.07243
               },
               "southwest" : {
                  "lat" : 51.1041821,
                  "lng" : 17.0491767
               }
            }
         },
         "place_id" : "ChIJa5dhbdDpD0cRnHAzFd1COLs",
         "types" : [ "neighborhood", "political" ]
      },
      {
         "address_components" : [
            {
               "long_name" : "Śródmieście",
               "short_name" : "Śródmieście",
               "types" : [ "political", "sublocality", "sublocality_level_1" ]
            },
            {
               "long_name" : "Wrocław",
               "short_name" : "Wrocław",
               "types" : [ "locality", "political" ]
            },
            {
               "long_name" : "Wrocław County",
               "short_name" : "Wrocław County",
               "types" : [ "administrative_area_level_2", "political" ]
            },
            {
               "long_name" : "Lower Silesian Voivodeship",
               "short_name" : "Lower Silesian Voivodeship",
               "types" : [ "administrative_area_level_1", "political" ]
            },
            {
               "long_name" : "Poland",
               "short_name" : "PL",
               "types" : [ "country", "political" ]
            },
            {
               "long_name" : "50-001",
               "short_name" : "50-001",
               "types" : [ "postal_code" ]
            }
         ],
         "formatted_address" : "Śródmieście, 50-001 Wrocław, Poland",
         "geometry" : {
            "bounds" : {
               "northeast" : {
                  "lat" : 51.1314843,
                  "lng" : 17.1295335
               },
               "southwest" : {
                  "lat" : 51.0937387,
                  "lng" : 17.0177134
               }
            },
            "location" : {
               "lat" : 51.1132425,
               "lng" : 17.0812736
            },
            "location_type" : "APPROXIMATE",
            "viewport" : {
               "northeast" : {
                  "lat" : 51.1314843,
                  "lng" : 17.1295335
               },
               "southwest" : {
                  "lat" : 51.0937387,
                  "lng" : 17.0177134
               }
            }
         },
         "place_id" : "ChIJhRJgFi_oD0cR4e4bUyVONb0",
         "types" : [ "political", "sublocality", "sublocality_level_1" ]
      },
      {
         "address_components" : [
            {
               "long_name" : "53",
               "short_name" : "53",
               "types" : [ "postal_code", "postal_code_prefix" ]
            },
            {
               "long_name" : "Wrocław",
               "short_name" : "Wrocław",
               "types" : [ "locality", "political" ]
            },
            {
               "long_name" : "Wrocław County",
               "short_name" : "Wrocław County",
               "types" : [ "administrative_area_level_2", "political" ]
            },
            {
               "long_name" : "Lower Silesian Voivodeship",
               "short_name" : "Lower Silesian Voivodeship",
               "types" : [ "administrative_area_level_1", "political" ]
            },
            {
               "long_name" : "Poland",
               "short_name" : "PL",
               "types" : [ "country", "political" ]
            }
         ],
         "formatted_address" : "Wrocław, Poland",
         "geometry" : {
            "bounds" : {
               "northeast" : {
                  "lat" : 51.2114736,
                  "lng" : 17.1763478
               },
               "southwest" : {
                  "lat" : 51.042657,
                  "lng" : 16.80738
               }
            },
            "location" : {
               "lat" : 51.1407764,
               "lng" : 16.9831788
            },
            "location_type" : "APPROXIMATE",
            "viewport" : {
               "northeast" : {
                  "lat" : 51.2114736,
                  "lng" : 17.1763478
               },
               "southwest" : {
                  "lat" : 51.042657,
                  "lng" : 16.80738
               }
            }
         },
         "place_id" : "ChIJN7FWaQXqD0cRNeO__r2YaHo",
         "types" : [ "postal_code", "postal_code_prefix" ]
      },
      {
         "address_components" : [
            {
               "long_name" : "Wrocław County",
               "short_name" : "Wrocław County",
               "types" : [ "administrative_area_level_2", "political" ]
            },
            {
               "long_name" : "Wrocław",
               "short_name" : "Wrocław",
               "types" : [ "locality", "political" ]
            },
            {
               "long_name" : "Lower Silesian Voivodeship",
               "short_name" : "Lower Silesian Voivodeship",
               "types" : [ "administrative_area_level_1", "political" ]
            },
            {
               "long_name" : "Poland",
               "short_name" : "PL",
               "types" : [ "country", "political" ]
            },
            {
               "long_name" : "51",
               "short_name" : "51",
               "types" : [ "postal_code", "postal_code_prefix" ]
            }
         ],
         "formatted_address" : "Wrocław County, Wrocław, Poland",
         "geometry" : {
            "bounds" : {
               "northeast" : {
                  "lat" : 51.2114736,
                  "lng" : 17.1763478
               },
               "southwest" : {
                  "lat" : 51.04268219999999,
                  "lng" : 16.80738
               }
            },
            "location" : {
               "lat" : 51.1407764,
               "lng" : 16.9831788
            },
            "location_type" : "APPROXIMATE",
            "viewport" : {
               "northeast" : {
                  "lat" : 51.2114736,
                  "lng" : 17.1763478
               },
               "southwest" : {
                  "lat" : 51.04268219999999,
                  "lng" : 16.80738
               }
            }
         },
         "place_id" : "ChIJv4q11MLpD0cRwFAALURV1YE",
         "types" : [ "administrative_area_level_2", "political" ]
      },
      {
         "address_components" : [
            {
               "long_name" : "Wrocław",
               "short_name" : "Wrocław",
               "types" : [ "administrative_area_level_3", "political" ]
            },
            {
               "long_name" : "Wrocław",
               "short_name" : "Wrocław",
               "types" : [ "locality", "political" ]
            },
            {
               "long_name" : "Wrocław",
               "short_name" : "Wrocław",
               "types" : [ "administrative_area_level_2", "political" ]
            },
            {
               "long_name" : "Województwo dolnośląskie",
               "short_name" : "Województwo dolnośląskie",
               "types" : [ "administrative_area_level_1", "political" ]
            },
            {
               "long_name" : "Poland",
               "short_name" : "PL",
               "types" : [ "country", "political" ]
            },
            {
               "long_name" : "51",
               "short_name" : "51",
               "types" : [ "postal_code", "postal_code_prefix" ]
            }
         ],
         "formatted_address" : "Wrocław, Poland",
         "geometry" : {
            "bounds" : {
               "northeast" : {
                  "lat" : 51.2114736,
                  "lng" : 17.1763478
               },
               "southwest" : {
                  "lat" : 51.04268219999999,
                  "lng" : 16.80738
               }
            },
            "location" : {
               "lat" : 51.1407764,
               "lng" : 16.9831788
            },
            "location_type" : "APPROXIMATE",
            "viewport" : {
               "northeast" : {
                  "lat" : 51.2114736,
                  "lng" : 17.1763478
               },
               "southwest" : {
                  "lat" : 51.04268219999999,
                  "lng" : 16.80738
               }
            }
         },
         "place_id" : "ChIJN7FWaQXqD0cRyAbs_UFat5U",
         "types" : [ "administrative_area_level_3", "political" ]
      },
      {
         "address_components" : [
            {
               "long_name" : "Wrocław",
               "short_name" : "Wrocław",
               "types" : [ "locality", "political" ]
            },
            {
               "long_name" : "Wrocław County",
               "short_name" : "Wrocław County",
               "types" : [ "administrative_area_level_2", "political" ]
            },
            {
               "long_name" : "Lower Silesian Voivodeship",
               "short_name" : "Lower Silesian Voivodeship",
               "types" : [ "administrative_area_level_1", "political" ]
            },
            {
               "long_name" : "Poland",
               "short_name" : "PL",
               "types" : [ "country", "political" ]
            },
            {
               "long_name" : "51",
               "short_name" : "51",
               "types" : [ "postal_code", "postal_code_prefix" ]
            }
         ],
         "formatted_address" : "Wrocław, Poland",
         "geometry" : {
            "bounds" : {
               "northeast" : {
                  "lat" : 51.2114736,
                  "lng" : 17.1763478
               },
               "southwest" : {
                  "lat" : 51.04268219999999,
                  "lng" : 16.80738
               }
            },
            "location" : {
               "lat" : 51.1078852,
               "lng" : 17.0385376
            },
            "location_type" : "APPROXIMATE",
            "viewport" : {
               "northeast" : {
                  "lat" : 51.2114736,
                  "lng" : 17.1763478
               },
               "southwest" : {
                  "lat" : 51.04268219999999,
                  "lng" : 16.80738
               }
            }
         },
         "place_id" : "ChIJv4q11MLpD0cR9eAFwq5WCbc",
         "types" : [ "locality", "political" ]
      },
      {
         "address_components" : [
            {
               "long_name" : "Lower Silesian Voivodeship",
               "short_name" : "Lower Silesian Voivodeship",
               "types" : [ "administrative_area_level_1", "political" ]
            },
            {
               "long_name" : "Poland",
               "short_name" : "PL",
               "types" : [ "country", "political" ]
            }
         ],
         "formatted_address" : "Lower Silesian Voivodeship, Poland",
         "geometry" : {
            "bounds" : {
               "northeast" : {
                  "lat" : 51.8047592,
                  "lng" : 17.798917
               },
               "southwest" : {
                  "lat" : 50.09634,
                  "lng" : 14.816831
               }
            },
            "location" : {
               "lat" : 51.13398609999999,
               "lng" : 16.8841961
            },
            "location_type" : "APPROXIMATE",
            "viewport" : {
               "northeast" : {
                  "lat" : 51.8047592,
                  "lng" : 17.798917
               },
               "southwest" : {
                  "lat" : 50.09634,
                  "lng" : 14.816831
               }
            }
         },
         "place_id" : "ChIJ8UOYsiKqD0cRIMAOrTIOAgE",
         "types" : [ "administrative_area_level_1", "political" ]
      },
      {
         "address_components" : [
            {
               "long_name" : "Poland",
               "short_name" : "PL",
               "types" : [ "country", "political" ]
            }
         ],
         "formatted_address" : "Poland",
         "geometry" : {
            "bounds" : {
               "northeast" : {
                  "lat" : 54.9054761,
                  "lng" : 24.1458931
               },
               "southwest" : {
                  "lat" : 49.002025,
                  "lng" : 14.1228641
               }
            },
            "location" : {
               "lat" : 51.919438,
               "lng" : 19.145136
            },
            "location_type" : "APPROXIMATE",
            "viewport" : {
               "northeast" : {
                  "lat" : 54.9054761,
                  "lng" : 24.1458931
               },
               "southwest" : {
                  "lat" : 49.002025,
                  "lng" : 14.1228641
               }
            }
         },
         "place_id" : "ChIJuwtkpGSZAEcR6lXMScpzdQk",
         "types" : [ "country", "political" ]
      }
   ],
   "status" : "OK"
}
