{
   "plus_code" : {
      "compound_code" : "QF32+FM Łódź, Poland",
      "global_code" : "9F3XQF32+FM"
   },
   "results" : [
      {
         "address_components" : [
            {
               "long_name" : "223",
               "short_name" : "223",
               "types" : [ "street_number" ]
            },
            {
               "long_name" : "Wólczańska",
               "short_name" : "Wólczańska",
               "types" : [ "route" ]
            },
            {
               "long_name" : "Polesie",
               "short_name" : "Polesie",
               "types" : [ "political", "sublocality", "sublocality_level_1" ]
            },
            {
               "long_name" : "Łódź",
               "short_name" : "Łódź",
               "types" : [ "locality", "political" ]
            },
            {
               "long_name" : "Łódź",
               "short_name" : "Łódź",
               "types" : [ "administrative_area_level_2", "political" ]
            },
            {
               "long_name" : "województwo łódzkie",
               "short_name" : "województwo łódzkie",
               "types" : [ "administrative_area_level_1", "political" ]
            },
            {
               "long_name" : "Poland",
               "short_name" : "PL",
               "types" : [ "country", "political" ]
            },
            {
               "long_name" : "90-924",
               "short_name" : "90-924",
               "types" : [ "postal_code" ]
            }
         ],
         "formatted_address" : "Wólczańska 223, 90-924 Łódź, Poland",
         "geometry" : {
            "location" : {
               "lat" : 51.7537146,
               "lng" : 19.4517176
            },
            "location_type" : "ROOFTOP",
            "viewport" : {
               "northeast" : {
                  "lat" : 51.7550635802915,
                  "lng" : 19.45306658029151
               },
               "southwest" : {
                  "lat" : 51.7523656197085,
                  "lng" : 19.4503686197085
               }
            }
         },
         "place_id" : "ChIJDyzYNtg0GkcRBhIZ0z1ELzo",
         "plus_code" : {
            "compound_code" : "QF32+FM Łódź, Poland",
            "global_code" : "9F3XQF32+FM"
         },
         "types" : [ "establishment", "point_of_interest" ]
      },
      {
         "address_components" : [
            {
               "long_name" : "1/15",
               "short_name" : "1/15",
               "types" : [ "street_number" ]
            },
            {
               "long_name" : "Profesora Stefanowskiego",
               "short_name" : "Prof. Stefanowskiego",
               "types" : [ "route" ]
            },
            {
               "long_name" : "Polesie",
               "short_name" : "Polesie",
               "types" : [ "political", "sublocality", "sublocality_level_1" ]
            },
            {
               "long_name" : "Łódź",
               "short_name" : "Łódź",
               "types" : [ "locality", "political" ]
            },
            {
               "long_name" : "Łódź",
               "short_name" : "Łódź",
               "types" : [ "administrative_area_level_2", "political" ]
            },
            {
               "long_name" : "województwo łódzkie",
               "short_name" : "województwo łódzkie",
               "types" : [ "administrative_area_level_1", "political" ]
            },
            {
               "long_name" : "Poland",
               "short_name" : "PL",
               "types" : [ "country", "political" ]
            },
            {
               "long_name" : "90-537",
               "short_name" : "90-537",
               "types" : [ "postal_code" ]
            }
         ],
         "formatted_address" : "Prof. Stefanowskiego 1/15, 90-537 Łódź, Poland",
         "geometry" : {
            "location" : {
               "lat" : 51.7538,
               "lng" : 19.4519999
            },
            "location_type" : "ROOFTOP",
            "viewport" : {
               "northeast" : {
                  "lat" : 51.7551489802915,
                  "lng" : 19.4533488802915
               },
               "southwest" : {
                  "lat" : 51.7524510197085,
                  "lng" : 19.4506509197085
               }
            }
         },
         "place_id" : "ChIJ37tgMdg0GkcRTX13KxoMlOM",
         "plus_code" : {
            "compound_code" : "QF32+GQ Łódź, Poland",
            "global_code" : "9F3XQF32+GQ"
         },
         "types" : [ "street_address" ]
      },
      {
         "address_components" : [
            {
               "long_name" : "4",
               "short_name" : "4",
               "types" : [ "street_number" ]
            },
            {
               "long_name" : "Stefanowskiego",
               "short_name" : "Stefanowskiego",
               "types" : [ "route" ]
            },
            {
               "long_name" : "Łódź",
               "short_name" : "Łódź",
               "types" : [ "locality", "political" ]
            },
            {
               "long_name" : "Poland",
               "short_name" : "PL",
               "types" : [ "country", "political" ]
            },
            {
               "long_name" : "90-537",
               "short_name" : "90-537",
               "types" : [ "postal_code" ]
            }
         ],
         "formatted_address" : "Stefanowskiego 4, 90-537 Łódź, Poland",
         "geometry" : {
            "location" : {
               "lat" : 51.7539927,
               "lng" : 19.4524578
            },
            "location_type" : "RANGE_INTERPOLATED",
            "viewport" : {
               "northeast" : {
                  "lat" : 51.7553416802915,
                  "lng" : 19.4538067802915
               },
               "southwest" : {
                  "lat" : 51.7526437197085,
                  "lng" : 19.4511088197085
               }
            }
         },
         "place_id" : "EihTdGVmYW5vd3NraWVnbyA0LCA5MC01MzcgxYHDs2TFuiwgUG9sc2thIhoSGAoUChIJD62cMtg0GkcRzMru4h6dsrkQBA",
         "types" : [ "street_address" ]
      },
      {
         "address_components" : [
            {
               "long_name" : "Politechnika Łódzka",
               "short_name" : "Politechnika Łódzka",
               "types" : [ "neighborhood", "political" ]
            },
            {
               "long_name" : "Polesie",
               "short_name" : "Polesie",
               "types" : [ "political", "sublocality", "sublocality_level_1" ]
            },
            {
               "long_name" : "Łódź",
               "short_name" : "Łódź",
               "types" : [ "locality", "political" ]
            },
            {
               "long_name" : "Łódź",
               "short_name" : "Łódź",
               "types" : [ "administrative_area_level_2", "political" ]
            },
            {
               "long_name" : "województwo łódzkie",
               "short_name" : "województwo łódzkie",
               "types" : [ "administrative_area_level_1", "political" ]
            },
            {
               "long_name" : "Poland",
               "short_name" : "PL",
               "types" : [ "country", "political" ]
            },
            {
               "long_name" : "90-001",
               "short_name" : "90-001",
               "types" : [ "postal_code" ]
            }
         ],
         "formatted_address" : "Politechnika Łódzka, 90-001 Łódź, Poland",
         "geometry" : {
            "bounds" : {
               "northeast" : {
                  "lat" : 51.7556215,
                  "lng" : 19.4572807
               },
               "southwest" : {
                  "lat" : 51.7441705,
                  "lng" : 19.4475603
               }
            },
            "location" : {
               "lat" : 51.74980559999999,
               "lng" : 19.4527946
            },
            "location_type" : "APPROXIMATE",
            "viewport" : {
               "northeast" : {
                  "lat" : 51.7556215,
                  "lng" : 19.4572807
               },
               "southwest" : {
                  "lat" : 51.7441705,
                  "lng" : 19.4475603
               }
            }
         },
         "place_id" : "ChIJl8MdW9k0GkcRmtGA0yzo_Gw",
         "types" : [ "neighborhood", "political" ]
      },
      {
         "address_components" : [
            {
               "long_name" : "90-537",
               "short_name" : "90-537",
               "types" : [ "postal_code" ]
            },
            {
               "long_name" : "Polesie",
               "short_name" : "Polesie",
               "types" : [ "political", "sublocality", "sublocality_level_1" ]
            },
            {
               "long_name" : "Łódź",
               "short_name" : "Łódź",
               "types" : [ "locality", "political" ]
            },
            {
               "long_name" : "Łódź",
               "short_name" : "Łódź",
               "types" : [ "administrative_area_level_2", "political" ]
            },
            {
               "long_name" : "Łódź Voivodeship",
               "short_name" : "Łódź Voivodeship",
               "types" : [ "administrative_area_level_1", "political" ]
            },
            {
               "long_name" : "Poland",
               "short_name" : "PL",
               "types" : [ "country", "political" ]
            }
         ],
         "formatted_address" : "90-537 Łódź, Poland",
         "geometry" : {
            "bounds" : {
               "northeast" : {
                  "lat" : 51.75608829999999,
                  "lng" : 19.4560334
               },
               "southwest" : {
                  "lat" : 51.7474982,
                  "lng" : 19.4503466
               }
            },
            "location" : {
               "lat" : 51.7531738,
               "lng" : 19.4527149
            },
            "location_type" : "APPROXIMATE",
            "viewport" : {
               "northeast" : {
                  "lat" : 51.75608829999999,
                  "lng" : 19.4560334
               },
               "southwest" : {
                  "lat" : 51.7474982,
                  "lng" : 19.4503466
               }
            }
         },
         "place_id" : "ChIJI3ACttk0GkcR8pASe5GUNHc",
         "types" : [ "postal_code" ]
      },
      {
         "address_components" : [
            {
               "long_name" : "Polesie",
               "short_name" : "Polesie",
               "types" : [ "political", "sublocality", "sublocality_level_1" ]
            },
            {
               "long_name" : "Łódź",
               "short_name" : "Łódź",
               "types" : [ "locality", "political" ]
            },
            {
               "long_name" : "Łódź",
               "short_name" : "Łódź",
               "types" : [ "administrative_area_level_2", "political" ]
            },
            {
               "long_name" : "Łódź Voivodeship",
               "short_name" : "Łódź Voivodeship",
               "types" : [ "administrative_area_level_1", "political" ]
            },
            {
               "long_name" : "Poland",
               "short_name" : "PL",
               "types" : [ "country", "political" ]
            },
            {
               "long_name" : "91-001",
               "short_name" : "91-001",
               "types" : [ "postal_code" ]
            }
         ],
         "formatted_address" : "Polesie, 91-001 Łódź, Poland",
         "geometry" : {
            "bounds" : {
               "northeast" : {
                  "lat" : 51.7928855,
                  "lng" : 19.4566999
               },
               "southwest" : {
                  "lat" : 51.7195325,
                  "lng" : 19.3327685
               }
            },
            "location" : {
               "lat" : 51.7578283,
               "lng" : 19.4115513
            },
            "location_type" : "APPROXIMATE",
            "viewport" : {
               "northeast" : {
                  "lat" : 51.7928855,
                  "lng" : 19.4566999
               },
               "southwest" : {
                  "lat" : 51.7195325,
                  "lng" : 19.3327685
               }
            }
         },
         "place_id" : "ChIJM-kRrV01GkcRbDsaN5IkUtk",
         "types" : [ "political", "sublocality", "sublocality_level_1" ]
      },
      {
         "address_components" : [
            {
               "long_name" : "91",
               "short_name" : "91",
               "types" : [ "postal_code", "postal_code_prefix" ]
            },
            {
               "long_name" : "Łódź",
               "short_name" : "Łódź",
               "types" : [ "locality", "political" ]
            },
            {
               "long_name" : "Łódź",
               "short_name" : "Łódź",
               "types" : [ "administrative_area_level_2", "political" ]
            },
            {
               "long_name" : "Łódź Voivodeship",
               "short_name" : "Łódź Voivodeship",
               "types" : [ "administrative_area_level_1", "political" ]
            },
            {
               "long_name" : "Poland",
               "short_name" : "PL",
               "types" : [ "country", "political" ]
            }
         ],
         "formatted_address" : "Łódź, Poland",
         "geometry" : {
            "bounds" : {
               "northeast" : {
                  "lat" : 51.8601375,
                  "lng" : 19.6399235
               },
               "southwest" : {
                  "lat" : 51.6860987,
                  "lng" : 19.321262
               }
            },
            "location" : {
               "lat" : 51.77930079999999,
               "lng" : 19.5004826
            },
            "location_type" : "APPROXIMATE",
            "viewport" : {
               "northeast" : {
                  "lat" : 51.8601375,
                  "lng" : 19.6399235
               },
               "southwest" : {
                  "lat" : 51.6860987,
                  "lng" : 19.321262
               }
            }
         },
         "place_id" : "ChIJidmduDrLG0cRhU2iAOtWkko",
         "types" : [ "postal_code", "postal_code_prefix" ]
      },
      {
         "address_components" : [
            {
               "long_name" : "Łódź",
               "short_name" : "Łódź",
               "types" : [ "administrative_area_level_3", "political" ]
            },
            {
               "long_name" : "Łódź",
               "short_name" : "Łódź",
               "types" : [ "locality", "political" ]
            },
            {
               "long_name" : "Łódź",
               "short_name" : "Łódź",
               "types" : [ "administrative_area_level_2", "political" ]
            },
            {
               "long_name" : "województwo łódzkie",
               "short_name" : "województwo łódzkie",
               "types" : [ "administrative_area_level_1", "political" ]
            },
            {
               "long_name" : "Poland",
               "short_name" : "PL",
               "types" : [ "country", "political" ]
            },
            {
               "long_name" : "95",
               "short_name" : "95",
               "types" : [ "postal_code", "postal_code_prefix" ]
            }
         ],
         "formatted_address" : "Łódź, Poland",
         "geometry" : {
            "bounds" : {
               "northeast" : {
                  "lat" : 51.8601374,
                  "lng" : 19.6399234
               },
               "southwest" : {
                  "lat" : 51.6860984,
                  "lng" : 19.3212617
               }
            },
            "location" : {
               "lat" : 51.77930079999999,
               "lng" : 19.5004826
            },
            "location_type" : "APPROXIMATE",
            "viewport" : {
               "northeast" : {
                  "lat" : 51.8601374,
                  "lng" : 19.6399234
               },
               "southwest" : {
                  "lat" : 51.6860984,
                  "lng" : 19.3212617
               }
            }
         },
         "place_id" : "ChIJi9mduDrLG0cR-WPQ_cCEF2Q",
         "types" : [ "administrative_area_level_3", "political" ]
      },
      {
         "address_components" : [
            {
               "long_name" : "Łódź",
               "short_name" : "Łódź",
               "types" : [ "locality", "political" ]
            },
            {
               "long_name" : "Łódź",
               "short_name" : "Łódź",
               "types" : [ "administrative_area_level_2", "political" ]
            },
            {
               "long_name" : "Łódź Voivodeship",
               "short_name" : "Łódź Voivodeship",
               "types" : [ "administrative_area_level_1", "political" ]
            },
            {
               "long_name" : "Poland",
               "short_name" : "PL",
               "types" : [ "country", "political" ]
            },
            {
               "long_name" : "95",
               "short_name" : "95",
               "types" : [ "postal_code", "postal_code_prefix" ]
            }
         ],
         "formatted_address" : "Łódź, Poland",
         "geometry" : {
            "bounds" : {
               "northeast" : {
                  "lat" : 51.8601374,
                  "lng" : 19.6399234
               },
               "southwest" : {
                  "lat" : 51.6860984,
                  "lng" : 19.3212617
               }
            },
            "location" : {
               "lat" : 51.7592485,
               "lng" : 19.4559833
            },
            "location_type" : "APPROXIMATE",
            "viewport" : {
               "northeast" : {
                  "lat" : 51.8601374,
                  "lng" : 19.6399234
               },
               "southwest" : {
                  "lat" : 51.6860984,
                  "lng" : 19.3212617
               }
            }
         },
         "place_id" : "ChIJr1ZFdSTLG0cRrNshm2OufMs",
         "types" : [ "locality", "political" ]
      },
      {
         "address_components" : [
            {
               "long_name" : "Łódź",
               "short_name" : "Łódź",
               "types" : [ "administrative_area_level_2", "political" ]
            },
            {
               "long_name" : "Łódź",
               "short_name" : "Łódź",
               "types" : [ "locality", "political" ]
            },
            {
               "long_name" : "województwo łódzkie",
               "short_name" : "województwo łódzkie",
               "types" : [ "administrative_area_level_1", "political" ]
            },
            {
               "long_name" : "Poland",
               "short_name" : "PL",
               "types" : [ "country", "political" ]
            },
            {
               "long_name" : "95",
               "short_name" : "95",
               "types" : [ "postal_code", "postal_code_prefix" ]
            }
         ],
         "formatted_address" : "Łódź, Poland",
         "geometry" : {
            "bounds" : {
               "northeast" : {
                  "lat" : 51.8601374,
                  "lng" : 19.6399234
               },
               "southwest" : {
                  "lat" : 51.6860984,
                  "lng" : 19.3212617
               }
            },
            "location" : {
               "lat" : 51.77930079999999,
               "lng" : 19.5004826
            },
            "location_type" : "APPROXIMATE",
            "viewport" : {
               "northeast" : {
                  "lat" : 51.8601374,
                  "lng" : 19.6399234
               },
               "southwest" : {
                  "lat" : 51.6860984,
                  "lng" : 19.3212617
               }
            }
         },
         "place_id" : "ChIJr1ZFdSTLG0cRRqLetgEFM-Q",
         "types" : [ "administrative_area_level_2", "political" ]
      },
      {
         "address_components" : [
            {
               "long_name" : "Łódź Voivodeship",
               "short_name" : "Łódź Voivodeship",
               "types" : [ "administrative_area_level_1", "locality", "political" ]
            },
            {
               "long_name" : "Poland",
               "short_name" : "PL",
               "types" : [ "country", "political" ]
            }
         ],
         "formatted_address" : "Łódź Voivodeship, Poland",
         "geometry" : {
            "bounds" : {
               "northeast" : {
                  "lat" : 52.3940561,
                  "lng" : 20.6591903
               },
               "southwest" : {
                  "lat" : 50.8430329,
                  "lng" : 18.0750521
               }
            },
            "location" : {
               "lat" : 51.4634771,
               "lng" : 19.1726974
            },
            "location_type" : "APPROXIMATE",
            "viewport" : {
               "northeast" : {
                  "lat" : 52.3940561,
                  "lng" : 20.6591903
               },
               "southwest" : {
                  "lat" : 50.8430329,
                  "lng" : 18.0750521
               }
            }
         },
         "place_id" : "ChIJZWt_KnA3GkcRRhcejaLlBRY",
         "types" : [ "administrative_area_level_1", "locality", "political" ]
      },
      {
         "address_components" : [
            {
               "long_name" : "Poland",
               "short_name" : "PL",
               "types" : [ "country", "political" ]
            }
         ],
         "formatted_address" : "Poland",
         "geometry" : {
            "bounds" : {
               "northeast" : {
                  "lat" : 54.9054761,
                  "lng" : 24.1458931
               },
               "southwest" : {
                  "lat" : 49.002025,
                  "lng" : 14.1228641
               }
            },
            "location" : {
               "lat" : 51.919438,
               "lng" : 19.145136
            },
            "location_type" : "APPROXIMATE",
            "viewport" : {
               "northeast" : {
                  "lat" : 54.9054761,
                  "lng" : 24.1458931
               },
               "southwest" : {
                  "lat" : 49.002025,
                  "lng" : 14.1228641
               }
            }
         },
         "place_id" : "ChIJuwtkpGSZAEcR6lXMScpzdQk",
         "types" : [ "country", "political" ]
      }
   ],
   "status" : "OK"
}
