{
   "plus_code" : {
      "compound_code" : "VRMR+RC Progreso, Morelos, Mexico",
      "global_code" : "76C2VRMR+RC"
   },
   "results" : [
      {
         "address_components" : [
            {
               "long_name" : "8532",
               "short_name" : "8532",
               "types" : [ "street_number" ]
            },
            {
               "long_name" : "Boulevard Paseo Cuauhnáhuac",
               "short_name" : "Blvd. Paseo Cuauhnáhuac",
               "types" : [ "route" ]
            },
            {
               "long_name" : "Progreso",
               "short_name" : "Progreso",
               "types" : [ "political", "sublocality", "sublocality_level_1" ]
            },
            {
               "long_name" : "Jiutepec",
               "short_name" : "Jiutepec",
               "types" : [ "locality", "political" ]
            },
            {
               "long_name" : "Morelos",
               "short_name" : "Mor.",
               "types" : [ "administrative_area_level_1", "political" ]
            },
            {
               "long_name" : "Mexico",
               "short_name" : "MX",
               "types" : [ "country", "political" ]
            },
            {
               "long_name" : "62574",
               "short_name" : "62574",
               "types" : [ "postal_code" ]
            }
         ],
         "formatted_address" : "Blvd. Paseo Cuauhnáhuac 8532, Progreso, 62574 Jiutepec, Mor., Mexico",
         "geometry" : {
            "location" : {
               "lat" : 18.8845844,
               "lng" : -99.1589499
            },
            "location_type" : "ROOFTOP",
            "viewport" : {
               "northeast" : {
                  "lat" : 18.8859333802915,
                  "lng" : -99.1576009197085
               },
               "southwest" : {
                  "lat" : 18.8832354197085,
                  "lng" : -99.16029888029151
               }
            }
         },
         "place_id" : "ChIJ1Zc5-8R1zoUR3wNzat8yIaw",
         "plus_code" : {
            "compound_code" : "VRMR+RC Progreso, Morelos, Mexico",
            "global_code" : "76C2VRMR+RC"
         },
         "types" : [ "establishment", "point_of_interest" ]
      },
      {
         "address_components" : [
            {
               "long_name" : "8532",
               "short_name" : "8532",
               "types" : [ "street_number" ]
            },
            {
               "long_name" : "Boulevard Paseo Cuauhnáhuac",
               "short_name" : "Blvd. Paseo Cuauhnáhuac",
               "types" : [ "route" ]
            },
            {
               "long_name" : "Progreso",
               "short_name" : "Progreso",
               "types" : [ "political", "sublocality", "sublocality_level_1" ]
            },
            {
               "long_name" : "Jiutepec",
               "short_name" : "Jiutepec",
               "types" : [ "locality", "political" ]
            },
            {
               "long_name" : "Morelos",
               "short_name" : "Mor.",
               "types" : [ "administrative_area_level_1", "political" ]
            },
            {
               "long_name" : "Mexico",
               "short_name" : "MX",
               "types" : [ "country", "political" ]
            },
            {
               "long_name" : "62574",
               "short_name" : "62574",
               "types" : [ "postal_code" ]
            }
         ],
         "formatted_address" : "Blvd. Paseo Cuauhnáhuac 8532, Progreso, 62574 Jiutepec, Mor., Mexico",
         "geometry" : {
            "location" : {
               "lat" : 18.8849894,
               "lng" : -99.15866109999999
            },
            "location_type" : "ROOFTOP",
            "viewport" : {
               "northeast" : {
                  "lat" : 18.8863383802915,
                  "lng" : -99.15731211970848
               },
               "southwest" : {
                  "lat" : 18.8836404197085,
                  "lng" : -99.16001008029149
               }
            }
         },
         "place_id" : "ChIJkY_1cMZ1zoURLYVyETEKvO8",
         "plus_code" : {
            "compound_code" : "VRMR+XG Progreso, Morelos, Mexico",
            "global_code" : "76C2VRMR+XG"
         },
         "types" : [ "street_address" ]
      },
      {
         "address_components" : [
            {
               "long_name" : "83",
               "short_name" : "83",
               "types" : [ "street_number" ]
            },
            {
               "long_name" : "Carretera Federal 160",
               "short_name" : "México 160",
               "types" : [ "route" ]
            },
            {
               "long_name" : "Cuahuchiles",
               "short_name" : "Cuahuchiles",
               "types" : [ "political", "sublocality", "sublocality_level_1" ]
            },
            {
               "long_name" : "Jiutepec",
               "short_name" : "Jiutepec",
               "types" : [ "locality", "political" ]
            },
            {
               "long_name" : "Morelos",
               "short_name" : "Mor.",
               "types" : [ "administrative_area_level_1", "political" ]
            },
            {
               "long_name" : "Mexico",
               "short_name" : "MX",
               "types" : [ "country", "political" ]
            }
         ],
         "formatted_address" : "México 160 83, Cuahuchiles, Jiutepec, Mor., Mexico",
         "geometry" : {
            "location" : {
               "lat" : 18.8853499,
               "lng" : -99.15912089999999
            },
            "location_type" : "RANGE_INTERPOLATED",
            "viewport" : {
               "northeast" : {
                  "lat" : 18.8866988802915,
                  "lng" : -99.15777191970848
               },
               "southwest" : {
                  "lat" : 18.88400091970849,
                  "lng" : -99.1604698802915
               }
            }
         },
         "place_id" : "EjRNw6l4aWNvIDE2MCA4MywgQ3VhaHVjaGlsZXMsIEppdXRlcGVjLCBNb3IuLCBNw6l4aWNvIhoSGAoUChIJ_cdZk8Z1zoURUcZmFh1oI3IQUw",
         "types" : [ "street_address" ]
      },
      {
         "address_components" : [
            {
               "long_name" : "Progreso",
               "short_name" : "Progreso",
               "types" : [ "political", "sublocality", "sublocality_level_1" ]
            },
            {
               "long_name" : "Progreso",
               "short_name" : "Progreso",
               "types" : [ "locality", "political" ]
            },
            {
               "long_name" : "Morelos",
               "short_name" : "Mor.",
               "types" : [ "administrative_area_level_1", "political" ]
            },
            {
               "long_name" : "Mexico",
               "short_name" : "MX",
               "types" : [ "country", "political" ]
            }
         ],
         "formatted_address" : "Progreso, Mor., Mexico",
         "geometry" : {
            "bounds" : {
               "northeast" : {
                  "lat" : 18.8891149,
                  "lng" : -99.14501829999999
               },
               "southwest" : {
                  "lat" : 18.8743825,
                  "lng" : -99.1613029
               }
            },
            "location" : {
               "lat" : 18.8829979,
               "lng" : -99.15806929999999
            },
            "location_type" : "APPROXIMATE",
            "viewport" : {
               "northeast" : {
                  "lat" : 18.8891149,
                  "lng" : -99.14501829999999
               },
               "southwest" : {
                  "lat" : 18.8743825,
                  "lng" : -99.1613029
               }
            }
         },
         "place_id" : "ChIJM_0LWM51zoUR3tFNVT9BYM4",
         "types" : [ "political", "sublocality", "sublocality_level_1" ]
      },
      {
         "address_components" : [
            {
               "long_name" : "62574",
               "short_name" : "62574",
               "types" : [ "postal_code" ]
            },
            {
               "long_name" : "Jose Lopez Portillo",
               "short_name" : "Jose Lopez Portillo",
               "types" : [ "political", "sublocality", "sublocality_level_1" ]
            },
            {
               "long_name" : "Independencia",
               "short_name" : "Independencia",
               "types" : [ "locality", "political" ]
            },
            {
               "long_name" : "Morelos",
               "short_name" : "Mor.",
               "types" : [ "administrative_area_level_1", "political" ]
            },
            {
               "long_name" : "Mexico",
               "short_name" : "MX",
               "types" : [ "country", "political" ]
            }
         ],
         "formatted_address" : "Jose Lopez Portillo, 62574 Independencia, Mor., Mexico",
         "geometry" : {
            "bounds" : {
               "northeast" : {
                  "lat" : 18.8954523,
                  "lng" : -99.12586879999999
               },
               "southwest" : {
                  "lat" : 18.8742892,
                  "lng" : -99.16095869999999
               }
            },
            "location" : {
               "lat" : 18.8820045,
               "lng" : -99.1483827
            },
            "location_type" : "APPROXIMATE",
            "viewport" : {
               "northeast" : {
                  "lat" : 18.8954523,
                  "lng" : -99.12586879999999
               },
               "southwest" : {
                  "lat" : 18.8742892,
                  "lng" : -99.16095869999999
               }
            }
         },
         "place_id" : "ChIJvwmQfDN0zoUR2p5oGVQEo7I",
         "postcode_localities" : [ "Independencia", "Progreso" ],
         "types" : [ "postal_code" ]
      },
      {
         "address_components" : [
            {
               "long_name" : "Progreso",
               "short_name" : "Progreso",
               "types" : [ "locality", "political" ]
            },
            {
               "long_name" : "Morelos",
               "short_name" : "Mor.",
               "types" : [ "administrative_area_level_1", "political" ]
            },
            {
               "long_name" : "Mexico",
               "short_name" : "MX",
               "types" : [ "country", "political" ]
            }
         ],
         "formatted_address" : "Progreso, Morelos, Mexico",
         "geometry" : {
            "bounds" : {
               "northeast" : {
                  "lat" : 18.8976149,
                  "lng" : -99.1308617
               },
               "southwest" : {
                  "lat" : 18.8619566,
                  "lng" : -99.1614172
               }
            },
            "location" : {
               "lat" : 18.8820082,
               "lng" : -99.1445169
            },
            "location_type" : "APPROXIMATE",
            "viewport" : {
               "northeast" : {
                  "lat" : 18.8976149,
                  "lng" : -99.1308617
               },
               "southwest" : {
                  "lat" : 18.8619566,
                  "lng" : -99.1614172
               }
            }
         },
         "place_id" : "ChIJBX5a6a91zoURiqfpUFOP3ys",
         "types" : [ "locality", "political" ]
      },
      {
         "address_components" : [
            {
               "long_name" : "Jiutepec",
               "short_name" : "Jiutepec",
               "types" : [ "administrative_area_level_2", "political" ]
            },
            {
               "long_name" : "Morelos",
               "short_name" : "Mor.",
               "types" : [ "administrative_area_level_1", "political" ]
            },
            {
               "long_name" : "Mexico",
               "short_name" : "MX",
               "types" : [ "country", "political" ]
            }
         ],
         "formatted_address" : "Jiutepec, Mor., Mexico",
         "geometry" : {
            "bounds" : {
               "northeast" : {
                  "lat" : 18.9367006,
                  "lng" : -99.11938029999999
               },
               "southwest" : {
                  "lat" : 18.8359661,
                  "lng" : -99.21713819999999
               }
            },
            "location" : {
               "lat" : 18.8809117,
               "lng" : -99.1758304
            },
            "location_type" : "APPROXIMATE",
            "viewport" : {
               "northeast" : {
                  "lat" : 18.9367006,
                  "lng" : -99.11938029999999
               },
               "southwest" : {
                  "lat" : 18.8359661,
                  "lng" : -99.21713819999999
               }
            }
         },
         "place_id" : "ChIJ83mqzHV1zoUR4kwuwWmnElM",
         "types" : [ "administrative_area_level_2", "political" ]
      },
      {
         "address_components" : [
            {
               "long_name" : "Morelos",
               "short_name" : "Morelos",
               "types" : [ "administrative_area_level_1", "political" ]
            },
            {
               "long_name" : "Mexico",
               "short_name" : "MX",
               "types" : [ "country", "political" ]
            }
         ],
         "formatted_address" : "Morelos, Mexico",
         "geometry" : {
            "bounds" : {
               "northeast" : {
                  "lat" : 19.1317018,
                  "lng" : -98.63294660000001
               },
               "southwest" : {
                  "lat" : 18.332373,
                  "lng" : -99.4944141
               }
            },
            "location" : {
               "lat" : 18.6813049,
               "lng" : -99.10134979999999
            },
            "location_type" : "APPROXIMATE",
            "viewport" : {
               "northeast" : {
                  "lat" : 19.1317018,
                  "lng" : -98.63294660000001
               },
               "southwest" : {
                  "lat" : 18.332373,
                  "lng" : -99.4944141
               }
            }
         },
         "place_id" : "ChIJR_72Ja7fzYURD91poSWCX5c",
         "types" : [ "administrative_area_level_1", "political" ]
      },
      {
         "address_components" : [
            {
               "long_name" : "Mexico",
               "short_name" : "MX",
               "types" : [ "country", "political" ]
            }
         ],
         "formatted_address" : "Mexico",
         "geometry" : {
            "bounds" : {
               "northeast" : {
                  "lat" : 32.7186534,
                  "lng" : -86.5887
               },
               "southwest" : {
                  "lat" : 14.3895,
                  "lng" : -118.6523001
               }
            },
            "location" : {
               "lat" : 23.634501,
               "lng" : -102.552784
            },
            "location_type" : "APPROXIMATE",
            "viewport" : {
               "northeast" : {
                  "lat" : 32.7186534,
                  "lng" : -86.5887
               },
               "southwest" : {
                  "lat" : 14.3895,
                  "lng" : -118.6523001
               }
            }
         },
         "place_id" : "ChIJU1NoiDs6BIQREZgJa760ZO0",
         "types" : [ "country", "political" ]
      }
   ],
   "status" : "OK"
}
