{
   "plus_code" : {
      "compound_code" : "HMQ9+HM Pontypridd, UK",
      "global_code" : "9C3RHMQ9+HM"
   },
   "results" : [
      {
         "address_components" : [
            {
               "long_name" : "Unnamed Road",
               "short_name" : "Unnamed Road",
               "types" : [ "route" ]
            },
            {
               "long_name" : "Pontypridd",
               "short_name" : "Pontypridd",
               "types" : [ "postal_town" ]
            },
            {
               "long_name" : "Rhondda Cynon Taff",
               "short_name" : "Rhondda Cynon Taff",
               "types" : [ "administrative_area_level_2", "political" ]
            },
            {
               "long_name" : "Wales",
               "short_name" : "Wales",
               "types" : [ "administrative_area_level_1", "political" ]
            },
            {
               "long_name" : "United Kingdom",
               "short_name" : "GB",
               "types" : [ "country", "political" ]
            },
            {
               "long_name" : "CF37 1UF",
               "short_name" : "CF37 1UF",
               "types" : [ "postal_code" ]
            }
         ],
         "formatted_address" : "Unnamed Road, Pontypridd CF37 1UF, UK",
         "geometry" : {
            "bounds" : {
               "northeast" : {
                  "lat" : 51.5890604,
                  "lng" : -3.3305735
               },
               "southwest" : {
                  "lat" : 51.5888123,
                  "lng" : -3.3307242
               }
            },
            "location" : {
               "lat" : 51.58893639999999,
               "lng" : -3.3306488
            },
            "location_type" : "GEOMETRIC_CENTER",
            "viewport" : {
               "northeast" : {
                  "lat" : 51.5902853302915,
                  "lng" : -3.329299869708498
               },
               "southwest" : {
                  "lat" : 51.5875873697085,
                  "lng" : -3.331997830291502
               }
            }
         },
         "place_id" : "ChIJkR0eoHQXbkgRfLSXPlggCpQ",
         "types" : [ "route" ]
      },
      {
         "address_components" : [
            {
               "long_name" : "CF37 1UF",
               "short_name" : "CF37 1UF",
               "types" : [ "postal_code" ]
            },
            {
               "long_name" : "Pontypridd",
               "short_name" : "Pontypridd",
               "types" : [ "postal_town" ]
            },
            {
               "long_name" : "Rhondda Cynon Taff",
               "short_name" : "Rhondda Cynon Taff",
               "types" : [ "administrative_area_level_2", "political" ]
            },
            {
               "long_name" : "Wales",
               "short_name" : "Wales",
               "types" : [ "administrative_area_level_1", "political" ]
            },
            {
               "long_name" : "United Kingdom",
               "short_name" : "GB",
               "types" : [ "country", "political" ]
            }
         ],
         "formatted_address" : "Pontypridd CF37 1UF, UK",
         "geometry" : {
            "bounds" : {
               "northeast" : {
                  "lat" : 51.5892931,
                  "lng" : -3.3269727
               },
               "southwest" : {
                  "lat" : 51.5828522,
                  "lng" : -3.3354742
               }
            },
            "location" : {
               "lat" : 51.587789,
               "lng" : -3.3285474
            },
            "location_type" : "APPROXIMATE",
            "viewport" : {
               "northeast" : {
                  "lat" : 51.5892931,
                  "lng" : -3.3269727
               },
               "southwest" : {
                  "lat" : 51.5828522,
                  "lng" : -3.3354742
               }
            }
         },
         "place_id" : "ChIJ1Zgvn3MXbkgRuxhmyqHlc5E",
         "types" : [ "postal_code" ]
      },
      {
         "address_components" : [
            {
               "long_name" : "Pontypridd",
               "short_name" : "Pontypridd",
               "types" : [ "locality", "political" ]
            },
            {
               "long_name" : "Rhondda Cynon Taff",
               "short_name" : "Rhondda Cynon Taff",
               "types" : [ "administrative_area_level_2", "political" ]
            },
            {
               "long_name" : "Wales",
               "short_name" : "Wales",
               "types" : [ "administrative_area_level_1", "political" ]
            },
            {
               "long_name" : "United Kingdom",
               "short_name" : "GB",
               "types" : [ "country", "political" ]
            }
         ],
         "formatted_address" : "Pontypridd, UK",
         "geometry" : {
            "bounds" : {
               "northeast" : {
                  "lat" : 51.6273014,
                  "lng" : -3.2643414
               },
               "southwest" : {
                  "lat" : 51.56152789999999,
                  "lng" : -3.3817216
               }
            },
            "location" : {
               "lat" : 51.60077399999999,
               "lng" : -3.342314
            },
            "location_type" : "APPROXIMATE",
            "viewport" : {
               "northeast" : {
                  "lat" : 51.6273014,
                  "lng" : -3.2643414
               },
               "southwest" : {
                  "lat" : 51.56152789999999,
                  "lng" : -3.3817216
               }
            }
         },
         "place_id" : "ChIJDXMTwbIQbkgRdrN_nk_L-Fs",
         "types" : [ "locality", "political" ]
      },
      {
         "address_components" : [
            {
               "long_name" : "Pontypridd",
               "short_name" : "Pontypridd",
               "types" : [ "administrative_area_level_3", "political" ]
            },
            {
               "long_name" : "Rhondda Cynon Taff",
               "short_name" : "Rhondda Cynon Taff",
               "types" : [ "administrative_area_level_2", "political" ]
            },
            {
               "long_name" : "Wales",
               "short_name" : "Wales",
               "types" : [ "administrative_area_level_1", "political" ]
            },
            {
               "long_name" : "United Kingdom",
               "short_name" : "GB",
               "types" : [ "country", "political" ]
            }
         ],
         "formatted_address" : "Pontypridd, UK",
         "geometry" : {
            "bounds" : {
               "northeast" : {
                  "lat" : 51.636716,
                  "lng" : -3.2643414
               },
               "southwest" : {
                  "lat" : 51.56152789999999,
                  "lng" : -3.3817216
               }
            },
            "location" : {
               "lat" : 51.6049333,
               "lng" : -3.3215629
            },
            "location_type" : "APPROXIMATE",
            "viewport" : {
               "northeast" : {
                  "lat" : 51.636716,
                  "lng" : -3.2643414
               },
               "southwest" : {
                  "lat" : 51.56152789999999,
                  "lng" : -3.3817216
               }
            }
         },
         "place_id" : "ChIJdYn_mpwXbkgRQNrey8zDTF8",
         "types" : [ "administrative_area_level_3", "political" ]
      },
      {
         "address_components" : [
            {
               "long_name" : "CF37",
               "short_name" : "CF37",
               "types" : [ "postal_code", "postal_code_prefix" ]
            },
            {
               "long_name" : "Pontypridd",
               "short_name" : "Pontypridd",
               "types" : [ "postal_town" ]
            },
            {
               "long_name" : "Wales",
               "short_name" : "Wales",
               "types" : [ "administrative_area_level_1", "political" ]
            },
            {
               "long_name" : "United Kingdom",
               "short_name" : "GB",
               "types" : [ "country", "political" ]
            }
         ],
         "formatted_address" : "Pontypridd CF37, UK",
         "geometry" : {
            "bounds" : {
               "northeast" : {
                  "lat" : 51.67344079999999,
                  "lng" : -3.2729262
               },
               "southwest" : {
                  "lat" : 51.5623438,
                  "lng" : -3.4280718
               }
            },
            "location" : {
               "lat" : 51.6252313,
               "lng" : -3.349155300000001
            },
            "location_type" : "APPROXIMATE",
            "viewport" : {
               "northeast" : {
                  "lat" : 51.67344079999999,
                  "lng" : -3.2729262
               },
               "southwest" : {
                  "lat" : 51.5623438,
                  "lng" : -3.4280718
               }
            }
         },
         "place_id" : "ChIJJeD_wSsWbkgRpq5kg77iHSw",
         "types" : [ "postal_code", "postal_code_prefix" ]
      },
      {
         "address_components" : [
            {
               "long_name" : "Pontypridd",
               "short_name" : "Pontypridd",
               "types" : [ "postal_town" ]
            },
            {
               "long_name" : "Wales",
               "short_name" : "Wales",
               "types" : [ "administrative_area_level_1", "political" ]
            },
            {
               "long_name" : "United Kingdom",
               "short_name" : "GB",
               "types" : [ "country", "political" ]
            }
         ],
         "formatted_address" : "Pontypridd, UK",
         "geometry" : {
            "bounds" : {
               "northeast" : {
                  "lat" : 51.67344079999999,
                  "lng" : -3.2729262
               },
               "southwest" : {
                  "lat" : 51.54598290000001,
                  "lng" : -3.4280718
               }
            },
            "location" : {
               "lat" : 51.5730769,
               "lng" : -3.3303278
            },
            "location_type" : "APPROXIMATE",
            "viewport" : {
               "northeast" : {
                  "lat" : 51.67344079999999,
                  "lng" : -3.2729262
               },
               "southwest" : {
                  "lat" : 51.54598290000001,
                  "lng" : -3.4280718
               }
            }
         },
         "place_id" : "ChIJ-dYJ1rYXbkgRTciiNlZRgBc",
         "types" : [ "postal_town" ]
      },
      {
         "address_components" : [
            {
               "long_name" : "Rhondda Cynon Taff",
               "short_name" : "Rhondda Cynon Taff",
               "types" : [ "administrative_area_level_2", "political" ]
            },
            {
               "long_name" : "Wales",
               "short_name" : "Wales",
               "types" : [ "administrative_area_level_1", "political" ]
            },
            {
               "long_name" : "United Kingdom",
               "short_name" : "GB",
               "types" : [ "country", "political" ]
            }
         ],
         "formatted_address" : "Rhondda Cynon Taff, UK",
         "geometry" : {
            "bounds" : {
               "northeast" : {
                  "lat" : 51.830124,
                  "lng" : -3.2362804
               },
               "southwest" : {
                  "lat" : 51.4990391,
                  "lng" : -3.5936874
               }
            },
            "location" : {
               "lat" : 51.64902069999999,
               "lng" : -3.4288692
            },
            "location_type" : "APPROXIMATE",
            "viewport" : {
               "northeast" : {
                  "lat" : 51.830124,
                  "lng" : -3.2362804
               },
               "southwest" : {
                  "lat" : 51.4990391,
                  "lng" : -3.5936874
               }
            }
         },
         "place_id" : "ChIJ30vwO9g9bkgR8KGZ1COLDQM",
         "types" : [ "administrative_area_level_2", "political" ]
      },
      {
         "address_components" : [
            {
               "long_name" : "Wales",
               "short_name" : "Wales",
               "types" : [ "administrative_area_level_1", "political" ]
            },
            {
               "long_name" : "United Kingdom",
               "short_name" : "GB",
               "types" : [ "country", "political" ]
            }
         ],
         "formatted_address" : "Wales, UK",
         "geometry" : {
            "bounds" : {
               "northeast" : {
                  "lat" : 53.4356935,
                  "lng" : -2.6497994
               },
               "southwest" : {
                  "lat" : 51.3749686,
                  "lng" : -5.6700973
               }
            },
            "location" : {
               "lat" : 52.1306607,
               "lng" : -3.7837117
            },
            "location_type" : "APPROXIMATE",
            "viewport" : {
               "northeast" : {
                  "lat" : 53.4356935,
                  "lng" : -2.6497994
               },
               "southwest" : {
                  "lat" : 51.3749686,
                  "lng" : -5.6700973
               }
            }
         },
         "place_id" : "ChIJ7Q8cbLY0ZEgRouilirxxux4",
         "types" : [ "administrative_area_level_1", "political" ]
      },
      {
         "address_components" : [
            {
               "long_name" : "United Kingdom",
               "short_name" : "GB",
               "types" : [ "country", "political" ]
            }
         ],
         "formatted_address" : "United Kingdom",
         "geometry" : {
            "bounds" : {
               "northeast" : {
                  "lat" : 60.91569999999999,
                  "lng" : 33.9165549
               },
               "southwest" : {
                  "lat" : 34.5614,
                  "lng" : -8.8988999
               }
            },
            "location" : {
               "lat" : 55.378051,
               "lng" : -3.435973
            },
            "location_type" : "APPROXIMATE",
            "viewport" : {
               "northeast" : {
                  "lat" : 60.91569999999999,
                  "lng" : 33.9165549
               },
               "southwest" : {
                  "lat" : 34.5614,
                  "lng" : -8.8988999
               }
            }
         },
         "place_id" : "ChIJqZHHQhE7WgIReiWIMkOg-MQ",
         "types" : [ "country", "political" ]
      }
   ],
   "status" : "OK"
}
