{
   "plus_code" : {
      "compound_code" : "R225+V2 Lviv, Lviv Oblast, Ukraine",
      "global_code" : "8GX6R225+V2"
   },
   "results" : [
      {
         "address_components" : [
            {
               "long_name" : "5",
               "short_name" : "5",
               "types" : [ "street_number" ]
            },
            {
               "long_name" : "Naukova Street",
               "short_name" : "Naukova Street",
               "types" : [ "route" ]
            },
            {
               "long_name" : "Frankivskyi District",
               "short_name" : "Frankivskyi District",
               "types" : [ "political", "sublocality", "sublocality_level_1" ]
            },
            {
               "long_name" : "L'viv",
               "short_name" : "L'viv",
               "types" : [ "locality", "political" ]
            },
            {
               "long_name" : "L'vivs'ka city council",
               "short_name" : "L'vivs'ka city council",
               "types" : [ "administrative_area_level_3", "political" ]
            },
            {
               "long_name" : "L'vivs'ka oblast",
               "short_name" : "L'vivs'ka oblast",
               "types" : [ "administrative_area_level_1", "political" ]
            },
            {
               "long_name" : "Ukraine",
               "short_name" : "UA",
               "types" : [ "country", "political" ]
            },
            {
               "long_name" : "79000",
               "short_name" : "79000",
               "types" : [ "postal_code" ]
            }
         ],
         "formatted_address" : "Naukova Street, 5, L'viv, L'vivs'ka oblast, Ukraine, 79000",
         "geometry" : {
            "bounds" : {
               "northeast" : {
                  "lat" : 49.802398,
                  "lng" : 24.0085119
               },
               "southwest" : {
                  "lat" : 49.80205110000001,
                  "lng" : 24.0066519
               }
            },
            "location" : {
               "lat" : 49.8022049,
               "lng" : 24.0075303
            },
            "location_type" : "ROOFTOP",
            "viewport" : {
               "northeast" : {
                  "lat" : 49.8035735302915,
                  "lng" : 24.0089308802915
               },
               "southwest" : {
                  "lat" : 49.8008755697085,
                  "lng" : 24.0062329197085
               }
            }
         },
         "place_id" : "ChIJm9XLR7_nOkcRFuEQ5tXvUBM",
         "types" : [ "premise" ]
      },
      {
         "address_components" : [
            {
               "long_name" : "5",
               "short_name" : "5",
               "types" : [ "street_number" ]
            },
            {
               "long_name" : "Naukova Street",
               "short_name" : "Naukova Street",
               "types" : [ "route" ]
            },
            {
               "long_name" : "Frankivskyi District",
               "short_name" : "Frankivskyi District",
               "types" : [ "political", "sublocality", "sublocality_level_1" ]
            },
            {
               "long_name" : "L'viv",
               "short_name" : "L'viv",
               "types" : [ "locality", "political" ]
            },
            {
               "long_name" : "L'vivs'ka city council",
               "short_name" : "L'vivs'ka city council",
               "types" : [ "administrative_area_level_3", "political" ]
            },
            {
               "long_name" : "Львівська",
               "short_name" : "Львівська",
               "types" : [ "administrative_area_level_1", "political" ]
            },
            {
               "long_name" : "Ukraine",
               "short_name" : "UA",
               "types" : [ "country", "political" ]
            },
            {
               "long_name" : "79601",
               "short_name" : "79601",
               "types" : [ "postal_code" ]
            }
         ],
         "formatted_address" : "Naukova Street, 5, L'viv, Львівська, Ukraine, 79601",
         "geometry" : {
            "location" : {
               "lat" : 49.802225,
               "lng" : 24.007582
            },
            "location_type" : "ROOFTOP",
            "viewport" : {
               "northeast" : {
                  "lat" : 49.8035739802915,
                  "lng" : 24.0089309802915
               },
               "southwest" : {
                  "lat" : 49.8008760197085,
                  "lng" : 24.0062330197085
               }
            }
         },
         "place_id" : "ChIJ53_JR7_nOkcR0hN10UCsyiY",
         "plus_code" : {
            "compound_code" : "R225+V2 Lviv, Lviv Oblast, Ukraine",
            "global_code" : "8GX6R225+V2"
         },
         "types" : [ "establishment", "point_of_interest" ]
      },
      {
         "address_components" : [
            {
               "long_name" : "5",
               "short_name" : "5",
               "types" : [ "street_number" ]
            },
            {
               "long_name" : "Naukova Street",
               "short_name" : "Naukova Street",
               "types" : [ "route" ]
            },
            {
               "long_name" : "L'viv",
               "short_name" : "L'viv",
               "types" : [ "locality", "political" ]
            },
            {
               "long_name" : "L'vivs'ka oblast",
               "short_name" : "L'vivs'ka oblast",
               "types" : [ "administrative_area_level_1", "political" ]
            },
            {
               "long_name" : "Ukraine",
               "short_name" : "UA",
               "types" : [ "country", "political" ]
            },
            {
               "long_name" : "79000",
               "short_name" : "79000",
               "types" : [ "postal_code" ]
            }
         ],
         "formatted_address" : "Naukova Street, 5, L'viv, L'vivs'ka oblast, Ukraine, 79000",
         "geometry" : {
            "location" : {
               "lat" : 49.8028626,
               "lng" : 24.007684
            },
            "location_type" : "RANGE_INTERPOLATED",
            "viewport" : {
               "northeast" : {
                  "lat" : 49.8042115802915,
                  "lng" : 24.0090329802915
               },
               "southwest" : {
                  "lat" : 49.8015136197085,
                  "lng" : 24.00633501970849
               }
            }
         },
         "place_id" : "EmTQstGD0LvQuNGG0Y8g0J3QsNGD0LrQvtCy0LAsIDUsINCb0YzQstGW0LIsINCb0YzQstGW0LLRgdGM0LrQsCDQvtCx0LvQsNGB0YLRjCwg0KPQutGA0LDRl9C90LAsIDc5MDAwIhoSGAoUChIJRx7BFb_nOkcRzn0xCUf0nUsQBQ",
         "types" : [ "street_address" ]
      },
      {
         "address_components" : [
            {
               "long_name" : "Frankivskyi District",
               "short_name" : "Frankivskyi District",
               "types" : [ "political", "sublocality", "sublocality_level_1" ]
            },
            {
               "long_name" : "Lviv",
               "short_name" : "Lviv",
               "types" : [ "locality", "political" ]
            },
            {
               "long_name" : "L'vivs'ka city council",
               "short_name" : "L'vivs'ka city council",
               "types" : [ "administrative_area_level_3", "political" ]
            },
            {
               "long_name" : "Lviv Oblast",
               "short_name" : "Lviv Oblast",
               "types" : [ "administrative_area_level_1", "political" ]
            },
            {
               "long_name" : "Ukraine",
               "short_name" : "UA",
               "types" : [ "country", "political" ]
            },
            {
               "long_name" : "79000",
               "short_name" : "79000",
               "types" : [ "postal_code" ]
            }
         ],
         "formatted_address" : "Frankivskyi District, Lviv, Lviv Oblast, Ukraine, 79000",
         "geometry" : {
            "bounds" : {
               "northeast" : {
                  "lat" : 49.837198,
                  "lng" : 24.020387
               },
               "southwest" : {
                  "lat" : 49.783677,
                  "lng" : 23.973007
               }
            },
            "location" : {
               "lat" : 49.8240831,
               "lng" : 24.0034114
            },
            "location_type" : "APPROXIMATE",
            "viewport" : {
               "northeast" : {
                  "lat" : 49.837198,
                  "lng" : 24.020387
               },
               "southwest" : {
                  "lat" : 49.783677,
                  "lng" : 23.973007
               }
            }
         },
         "place_id" : "ChIJhXL7aJjnOkcR5v8jb4QwIcI",
         "types" : [ "political", "sublocality", "sublocality_level_1" ]
      },
      {
         "address_components" : [
            {
               "long_name" : "Lviv",
               "short_name" : "Lviv",
               "types" : [ "locality", "political" ]
            },
            {
               "long_name" : "L'vivs'ka city council",
               "short_name" : "L'vivs'ka city council",
               "types" : [ "administrative_area_level_3", "political" ]
            },
            {
               "long_name" : "Lviv Oblast",
               "short_name" : "Lviv Oblast",
               "types" : [ "administrative_area_level_1", "political" ]
            },
            {
               "long_name" : "Ukraine",
               "short_name" : "UA",
               "types" : [ "country", "political" ]
            },
            {
               "long_name" : "79000",
               "short_name" : "79000",
               "types" : [ "postal_code" ]
            }
         ],
         "formatted_address" : "Lviv, Lviv Oblast, Ukraine, 79000",
         "geometry" : {
            "bounds" : {
               "northeast" : {
                  "lat" : 49.897471,
                  "lng" : 24.118191
               },
               "southwest" : {
                  "lat" : 49.7679071,
                  "lng" : 23.9062801
               }
            },
            "location" : {
               "lat" : 49.839683,
               "lng" : 24.029717
            },
            "location_type" : "APPROXIMATE",
            "viewport" : {
               "northeast" : {
                  "lat" : 49.897471,
                  "lng" : 24.118191
               },
               "southwest" : {
                  "lat" : 49.7679071,
                  "lng" : 23.9062801
               }
            }
         },
         "place_id" : "ChIJV5oQCXzdOkcR4ngjARfFI0I",
         "types" : [ "locality", "political" ]
      },
      {
         "address_components" : [
            {
               "long_name" : "79000",
               "short_name" : "79000",
               "types" : [ "postal_code" ]
            },
            {
               "long_name" : "Lviv",
               "short_name" : "Lviv",
               "types" : [ "locality", "political" ]
            },
            {
               "long_name" : "L'vivs'ka city council",
               "short_name" : "L'vivs'ka city council",
               "types" : [ "administrative_area_level_3", "political" ]
            },
            {
               "long_name" : "Lviv Oblast",
               "short_name" : "Lviv Oblast",
               "types" : [ "administrative_area_level_1", "political" ]
            },
            {
               "long_name" : "Ukraine",
               "short_name" : "UA",
               "types" : [ "country", "political" ]
            }
         ],
         "formatted_address" : "Lviv, Lviv Oblast, Ukraine, 79000",
         "geometry" : {
            "bounds" : {
               "northeast" : {
                  "lat" : 49.897471,
                  "lng" : 24.118191
               },
               "southwest" : {
                  "lat" : 49.7679071,
                  "lng" : 23.9062801
               }
            },
            "location" : {
               "lat" : 49.839683,
               "lng" : 24.029717
            },
            "location_type" : "APPROXIMATE",
            "viewport" : {
               "northeast" : {
                  "lat" : 49.897471,
                  "lng" : 24.118191
               },
               "southwest" : {
                  "lat" : 49.7679071,
                  "lng" : 23.9062801
               }
            }
         },
         "place_id" : "ChIJk3cDBnzdOkcRrXGzz-xcckY",
         "types" : [ "postal_code" ]
      },
      {
         "address_components" : [
            {
               "long_name" : "L'vivs'ka city council",
               "short_name" : "L'vivs'ka city council",
               "types" : [ "administrative_area_level_3", "political" ]
            },
            {
               "long_name" : "Lviv Oblast",
               "short_name" : "Lviv Oblast",
               "types" : [ "administrative_area_level_1", "political" ]
            },
            {
               "long_name" : "Ukraine",
               "short_name" : "UA",
               "types" : [ "country", "political" ]
            }
         ],
         "formatted_address" : "L'vivs'ka city council, Lviv Oblast, Ukraine",
         "geometry" : {
            "bounds" : {
               "northeast" : {
                  "lat" : 49.92868199999999,
                  "lng" : 24.159101
               },
               "southwest" : {
                  "lat" : 49.7679071,
                  "lng" : 23.8572541
               }
            },
            "location" : {
               "lat" : 49.839683,
               "lng" : 24.029717
            },
            "location_type" : "APPROXIMATE",
            "viewport" : {
               "northeast" : {
                  "lat" : 49.92868199999999,
                  "lng" : 24.159101
               },
               "southwest" : {
                  "lat" : 49.7679071,
                  "lng" : 23.8572541
               }
            }
         },
         "place_id" : "ChIJf36rN5_dOkcRau69DG2ScSA",
         "types" : [ "administrative_area_level_3", "political" ]
      },
      {
         "address_components" : [
            {
               "long_name" : "Lviv Oblast",
               "short_name" : "Lviv Oblast",
               "types" : [ "administrative_area_level_1", "political" ]
            },
            {
               "long_name" : "Ukraine",
               "short_name" : "UA",
               "types" : [ "country", "political" ]
            }
         ],
         "formatted_address" : "Lviv Oblast, Ukraine",
         "geometry" : {
            "bounds" : {
               "northeast" : {
                  "lat" : 50.6488831,
                  "lng" : 25.426912
               },
               "southwest" : {
                  "lat" : 48.7189779,
                  "lng" : 22.6406759
               }
            },
            "location" : {
               "lat" : 49.839683,
               "lng" : 24.029717
            },
            "location_type" : "APPROXIMATE",
            "viewport" : {
               "northeast" : {
                  "lat" : 50.6488831,
                  "lng" : 25.426912
               },
               "southwest" : {
                  "lat" : 48.7189779,
                  "lng" : 22.6406759
               }
            }
         },
         "place_id" : "ChIJb5xjPmndOkcRYj26h4iMDWM",
         "types" : [ "administrative_area_level_1", "political" ]
      },
      {
         "address_components" : [
            {
               "long_name" : "Ukraine",
               "short_name" : "UA",
               "types" : [ "country", "political" ]
            }
         ],
         "formatted_address" : "Ukraine",
         "geometry" : {
            "bounds" : {
               "northeast" : {
                  "lat" : 52.3793713,
                  "lng" : 40.2204802
               },
               "southwest" : {
                  "lat" : 44.2924,
                  "lng" : 22.137159
               }
            },
            "location" : {
               "lat" : 48.379433,
               "lng" : 31.1655799
            },
            "location_type" : "APPROXIMATE",
            "viewport" : {
               "northeast" : {
                  "lat" : 52.3793713,
                  "lng" : 40.2204802
               },
               "southwest" : {
                  "lat" : 44.2924,
                  "lng" : 22.137159
               }
            }
         },
         "place_id" : "ChIJjw5wVMHZ0UAREED2iIQGAQA",
         "types" : [ "country", "political" ]
      }
   ],
   "status" : "OK"
}
