{
   "plus_code" : {
      "compound_code" : "337V+W5 Skinnarila, Lappeenranta, Finland",
      "global_code" : "9GHC337V+W5"
   },
   "results" : [
      {
         "address_components" : [
            {
               "long_name" : "34",
               "short_name" : "34",
               "types" : [ "street_number" ]
            },
            {
               "long_name" : "Skinnarilankatu",
               "short_name" : "Skinnarilankatu",
               "types" : [ "route" ]
            },
            {
               "long_name" : "Lappeenranta",
               "short_name" : "Lappeenranta",
               "types" : [ "locality", "political" ]
            },
            {
               "long_name" : "Finland",
               "short_name" : "FI",
               "types" : [ "country", "political" ]
            },
            {
               "long_name" : "53850",
               "short_name" : "53850",
               "types" : [ "postal_code" ]
            }
         ],
         "formatted_address" : "Skinnarilankatu 34, 53850 Lappeenranta, Finland",
         "geometry" : {
            "location" : {
               "lat" : 61.0648397,
               "lng" : 28.0929637
            },
            "location_type" : "ROOFTOP",
            "viewport" : {
               "northeast" : {
                  "lat" : 61.06618868029151,
                  "lng" : 28.0943126802915
               },
               "southwest" : {
                  "lat" : 61.0634907197085,
                  "lng" : 28.0916147197085
               }
            }
         },
         "place_id" : "ChIJmZVaQ_SUkEYRzaXC3OMePhM",
         "plus_code" : {
            "compound_code" : "337V+W5 Skinnarila, Lappeenranta, Finland",
            "global_code" : "9GHC337V+W5"
         },
         "types" : [ "establishment", "point_of_interest", "university" ]
      },
      {
         "address_components" : [
            {
               "long_name" : "34",
               "short_name" : "34",
               "types" : [ "street_number" ]
            },
            {
               "long_name" : "Skinnarilankatu",
               "short_name" : "Skinnarilankatu",
               "types" : [ "route" ]
            },
            {
               "long_name" : "Lappeenranta",
               "short_name" : "Lappeenranta",
               "types" : [ "locality", "political" ]
            },
            {
               "long_name" : "Finland",
               "short_name" : "FI",
               "types" : [ "country", "political" ]
            },
            {
               "long_name" : "53850",
               "short_name" : "53850",
               "types" : [ "postal_code" ]
            }
         ],
         "formatted_address" : "Skinnarilankatu 34, 53850 Lappeenranta, Finland",
         "geometry" : {
            "bounds" : {
               "northeast" : {
                  "lat" : 61.0659183,
                  "lng" : 28.094645
               },
               "southwest" : {
                  "lat" : 61.06368990000001,
                  "lng" : 28.0901607
               }
            },
            "location" : {
               "lat" : 61.06456790000001,
               "lng" : 28.093246
            },
            "location_type" : "ROOFTOP",
            "viewport" : {
               "northeast" : {
                  "lat" : 61.06615308029151,
                  "lng" : 28.094645
               },
               "southwest" : {
                  "lat" : 61.0634551197085,
                  "lng" : 28.0901607
               }
            }
         },
         "place_id" : "ChIJVXLL8vSUkEYReY5MoCmkXac",
         "types" : [ "premise" ]
      },
      {
         "address_components" : [
            {
               "long_name" : "32",
               "short_name" : "32",
               "types" : [ "street_number" ]
            },
            {
               "long_name" : "Skinnarilankatu",
               "short_name" : "Skinnarilankatu",
               "types" : [ "route" ]
            },
            {
               "long_name" : "Lappeenranta",
               "short_name" : "Lappeenranta",
               "types" : [ "locality", "political" ]
            },
            {
               "long_name" : "Finland",
               "short_name" : "FI",
               "types" : [ "country", "political" ]
            },
            {
               "long_name" : "53850",
               "short_name" : "53850",
               "types" : [ "postal_code" ]
            }
         ],
         "formatted_address" : "Skinnarilankatu 32, 53850 Lappeenranta, Finland",
         "geometry" : {
            "location" : {
               "lat" : 61.06543459999999,
               "lng" : 28.095285
            },
            "location_type" : "ROOFTOP",
            "viewport" : {
               "northeast" : {
                  "lat" : 61.0667835802915,
                  "lng" : 28.0966339802915
               },
               "southwest" : {
                  "lat" : 61.06408561970849,
                  "lng" : 28.09393601970849
               }
            }
         },
         "place_id" : "ChIJRd3QTfSUkEYRtdSo--8g8bQ",
         "plus_code" : {
            "compound_code" : "338W+54 Skinnarila, Lappeenranta, Finland",
            "global_code" : "9GHC338W+54"
         },
         "types" : [ "street_address" ]
      },
      {
         "address_components" : [
            {
               "long_name" : "34",
               "short_name" : "34",
               "types" : [ "street_number" ]
            },
            {
               "long_name" : "Skinnarilankatu",
               "short_name" : "Skinnarilankatu",
               "types" : [ "route" ]
            },
            {
               "long_name" : "Lappeenranta",
               "short_name" : "Lappeenranta",
               "types" : [ "administrative_area_level_3", "political" ]
            },
            {
               "long_name" : "Finland",
               "short_name" : "FI",
               "types" : [ "country", "political" ]
            },
            {
               "long_name" : "53850",
               "short_name" : "53850",
               "types" : [ "postal_code" ]
            }
         ],
         "formatted_address" : "Skinnarilankatu 34, 53850 Lappeenranta, Finland",
         "geometry" : {
            "location" : {
               "lat" : 61.0656248,
               "lng" : 28.0951066
            },
            "location_type" : "RANGE_INTERPOLATED",
            "viewport" : {
               "northeast" : {
                  "lat" : 61.06697378029151,
                  "lng" : 28.0964555802915
               },
               "southwest" : {
                  "lat" : 61.06427581970849,
                  "lng" : 28.09375761970849
               }
            }
         },
         "place_id" : "Ei1Ta2lubmFyaWxhbmthdHUgMzQsIDUzODUwIExhcHBlZW5yYW50YSwgU3VvbWkiGhIYChQKEgmTqJZT9JSQRhFdEHthru9DnhAi",
         "types" : [ "street_address" ]
      },
      {
         "address_components" : [
            {
               "long_name" : "53850",
               "short_name" : "53850",
               "types" : [ "postal_code" ]
            },
            {
               "long_name" : "Lappeenranta",
               "short_name" : "Lappeenranta",
               "types" : [ "administrative_area_level_3", "political" ]
            },
            {
               "long_name" : "Finland",
               "short_name" : "FI",
               "types" : [ "country", "political" ]
            }
         ],
         "formatted_address" : "53850 Lappeenranta, Finland",
         "geometry" : {
            "bounds" : {
               "northeast" : {
                  "lat" : 61.13904900000001,
                  "lng" : 28.1286459
               },
               "southwest" : {
                  "lat" : 60.97712850000001,
                  "lng" : 27.8960085
               }
            },
            "location" : {
               "lat" : 61.07591439999999,
               "lng" : 28.0363836
            },
            "location_type" : "APPROXIMATE",
            "viewport" : {
               "northeast" : {
                  "lat" : 61.13904900000001,
                  "lng" : 28.1286459
               },
               "southwest" : {
                  "lat" : 60.97712850000001,
                  "lng" : 27.8960085
               }
            }
         },
         "place_id" : "ChIJLWXVJVyTkEYRgFNYeFS1ABw",
         "types" : [ "postal_code" ]
      },
      {
         "address_components" : [
            {
               "long_name" : "Lappeenranta",
               "short_name" : "Lappeenranta",
               "types" : [ "administrative_area_level_3", "political" ]
            },
            {
               "long_name" : "Lappeenranta",
               "short_name" : "Lappeenranta",
               "types" : [ "locality", "political" ]
            },
            {
               "long_name" : "Finland",
               "short_name" : "FI",
               "types" : [ "country", "political" ]
            }
         ],
         "formatted_address" : "Lappeenranta, Finland",
         "geometry" : {
            "bounds" : {
               "northeast" : {
                  "lat" : 61.28443799999999,
                  "lng" : 28.7765939
               },
               "southwest" : {
                  "lat" : 60.66649839999999,
                  "lng" : 27.7096137
               }
            },
            "location" : {
               "lat" : 61.05500889999999,
               "lng" : 28.1896869
            },
            "location_type" : "APPROXIMATE",
            "viewport" : {
               "northeast" : {
                  "lat" : 61.28443799999999,
                  "lng" : 28.7765939
               },
               "southwest" : {
                  "lat" : 60.66649839999999,
                  "lng" : 27.7096137
               }
            }
         },
         "place_id" : "ChIJeVyGMYTAkEYRu6hL2v5oUhs",
         "types" : [ "administrative_area_level_3", "political" ]
      },
      {
         "address_components" : [
            {
               "long_name" : "Lappeenranta",
               "short_name" : "Lappeenranta",
               "types" : [ "locality", "political" ]
            },
            {
               "long_name" : "Finland",
               "short_name" : "FI",
               "types" : [ "country", "political" ]
            }
         ],
         "formatted_address" : "Lappeenranta, Finland",
         "geometry" : {
            "bounds" : {
               "northeast" : {
                  "lat" : 61.28443799999999,
                  "lng" : 28.7765939
               },
               "southwest" : {
                  "lat" : 60.66649839999999,
                  "lng" : 27.7096137
               }
            },
            "location" : {
               "lat" : 61.05499289999999,
               "lng" : 28.1896627
            },
            "location_type" : "APPROXIMATE",
            "viewport" : {
               "northeast" : {
                  "lat" : 61.28443799999999,
                  "lng" : 28.7765939
               },
               "southwest" : {
                  "lat" : 60.66649839999999,
                  "lng" : 27.7096137
               }
            }
         },
         "place_id" : "ChIJ2Z-rypaVkEYRlw-IqYCsZHY",
         "types" : [ "locality", "political" ]
      },
      {
         "address_components" : [
            {
               "long_name" : "Lappeenranta",
               "short_name" : "Lappeenranta",
               "types" : [ "administrative_area_level_2", "political" ]
            },
            {
               "long_name" : "Finland",
               "short_name" : "FI",
               "types" : [ "country", "political" ]
            }
         ],
         "formatted_address" : "Lappeenranta, Finland",
         "geometry" : {
            "bounds" : {
               "northeast" : {
                  "lat" : 61.4044596,
                  "lng" : 28.7765939
               },
               "southwest" : {
                  "lat" : 60.66649839999999,
                  "lng" : 26.9537366
               }
            },
            "location" : {
               "lat" : 61.11819490000001,
               "lng" : 28.1024372
            },
            "location_type" : "APPROXIMATE",
            "viewport" : {
               "northeast" : {
                  "lat" : 61.4044596,
                  "lng" : 28.7765939
               },
               "southwest" : {
                  "lat" : 60.66649839999999,
                  "lng" : 26.9537366
               }
            }
         },
         "place_id" : "ChIJ7z_R_RDtkEYRCZCEGWa-xj8",
         "types" : [ "administrative_area_level_2", "political" ]
      },
      {
         "address_components" : [
            {
               "long_name" : "South Karelia",
               "short_name" : "South Karelia",
               "types" : [ "administrative_area_level_1", "political" ]
            },
            {
               "long_name" : "Finland",
               "short_name" : "FI",
               "types" : [ "country", "political" ]
            }
         ],
         "formatted_address" : "South Karelia, Finland",
         "geometry" : {
            "bounds" : {
               "northeast" : {
                  "lat" : 61.8644772,
                  "lng" : 30.1442173
               },
               "southwest" : {
                  "lat" : 60.66649839999999,
                  "lng" : 26.9537366
               }
            },
            "location" : {
               "lat" : 61.11819490000001,
               "lng" : 28.1024372
            },
            "location_type" : "APPROXIMATE",
            "viewport" : {
               "northeast" : {
                  "lat" : 61.8644772,
                  "lng" : 30.1442173
               },
               "southwest" : {
                  "lat" : 60.66649839999999,
                  "lng" : 26.9537366
               }
            }
         },
         "place_id" : "ChIJf8EP-7WhkEYR3bUDhpNMF0s",
         "types" : [ "administrative_area_level_1", "political" ]
      },
      {
         "address_components" : [
            {
               "long_name" : "Finland",
               "short_name" : "FI",
               "types" : [ "country", "political" ]
            }
         ],
         "formatted_address" : "Finland",
         "geometry" : {
            "bounds" : {
               "northeast" : {
                  "lat" : 70.0922932,
                  "lng" : 31.5870999
               },
               "southwest" : {
                  "lat" : 59.693623,
                  "lng" : 20.4565002
               }
            },
            "location" : {
               "lat" : 61.92410999999999,
               "lng" : 25.7481511
            },
            "location_type" : "APPROXIMATE",
            "viewport" : {
               "northeast" : {
                  "lat" : 70.0922932,
                  "lng" : 31.5870999
               },
               "southwest" : {
                  "lat" : 59.693623,
                  "lng" : 20.4565002
               }
            }
         },
         "place_id" : "ChIJ3fYyS9_KgUYREKh1PNZGAQA",
         "types" : [ "country", "political" ]
      }
   ],
   "status" : "OK"
}
