{
   "plus_code" : {
      "compound_code" : "F9X9+8C Kolkata, West Bengal, India",
      "global_code" : "7MJCF9X9+8C"
   },
   "results" : [
      {
         "address_components" : [
            {
               "long_name" : "2A,B",
               "short_name" : "2A,B",
               "types" : [ "premise" ]
            },
            {
               "long_name" : "Indian Association For The Cultivation Of Science",
               "short_name" : "Indian Association For The Cultivation Of Science",
               "types" : [ "political", "sublocality", "sublocality_level_3" ]
            },
            {
               "long_name" : "Poddar Nagar",
               "short_name" : "Poddar Nagar",
               "types" : [ "political", "sublocality", "sublocality_level_2" ]
            },
            {
               "long_name" : "Jadavpur",
               "short_name" : "Jadavpur",
               "types" : [ "political", "sublocality", "sublocality_level_1" ]
            },
            {
               "long_name" : "Kolkata",
               "short_name" : "Kolkata",
               "types" : [ "locality", "political" ]
            },
            {
               "long_name" : "Kolkata",
               "short_name" : "Kolkata",
               "types" : [ "administrative_area_level_2", "political" ]
            },
            {
               "long_name" : "West Bengal",
               "short_name" : "WB",
               "types" : [ "administrative_area_level_1", "political" ]
            },
            {
               "long_name" : "India",
               "short_name" : "IN",
               "types" : [ "country", "political" ]
            },
            {
               "long_name" : "700032",
               "short_name" : "700032",
               "types" : [ "postal_code" ]
            }
         ],
         "formatted_address" : "2A,B, Indian Association For The Cultivation Of Science, Poddar Nagar, Jadavpur, Kolkata, West Bengal 700032, India",
         "geometry" : {
            "location" : {
               "lat" : 22.498042,
               "lng" : 88.3682369
            },
            "location_type" : "ROOFTOP",
            "viewport" : {
               "northeast" : {
                  "lat" : 22.4993909802915,
                  "lng" : 88.36958588029151
               },
               "southwest" : {
                  "lat" : 22.4966930197085,
                  "lng" : 88.3668879197085
               }
            }
         },
         "place_id" : "ChIJW4L_-SNxAjoRFWW9ArvQ5OI",
         "plus_code" : {
            "compound_code" : "F9X9+67 Kolkata, West Bengal, India",
            "global_code" : "7MJCF9X9+67"
         },
         "types" : [ "street_address" ]
      },
      {
         "address_components" : [
            {
               "long_name" : "Unnamed Road",
               "short_name" : "Unnamed Road",
               "types" : [ "route" ]
            },
            {
               "long_name" : "Indian Association For The Cultivation Of Science",
               "short_name" : "Indian Association For The Cultivation Of Science",
               "types" : [ "political", "sublocality", "sublocality_level_3" ]
            },
            {
               "long_name" : "Poddar Nagar",
               "short_name" : "Poddar Nagar",
               "types" : [ "political", "sublocality", "sublocality_level_2" ]
            },
            {
               "long_name" : "Jadavpur",
               "short_name" : "Jadavpur",
               "types" : [ "political", "sublocality", "sublocality_level_1" ]
            },
            {
               "long_name" : "Kolkata",
               "short_name" : "Kolkata",
               "types" : [ "locality", "political" ]
            },
            {
               "long_name" : "Kolkata",
               "short_name" : "Kolkata",
               "types" : [ "administrative_area_level_2", "political" ]
            },
            {
               "long_name" : "West Bengal",
               "short_name" : "WB",
               "types" : [ "administrative_area_level_1", "political" ]
            },
            {
               "long_name" : "India",
               "short_name" : "IN",
               "types" : [ "country", "political" ]
            },
            {
               "long_name" : "700032",
               "short_name" : "700032",
               "types" : [ "postal_code" ]
            }
         ],
         "formatted_address" : "Unnamed Road, Indian Association For The Cultivation Of Science, Poddar Nagar, Jadavpur, Kolkata, West Bengal 700032, India",
         "geometry" : {
            "bounds" : {
               "northeast" : {
                  "lat" : 22.4981974,
                  "lng" : 88.36880719999999
               },
               "southwest" : {
                  "lat" : 22.4979382,
                  "lng" : 88.3681144
               }
            },
            "location" : {
               "lat" : 22.4980678,
               "lng" : 88.36846079999999
            },
            "location_type" : "GEOMETRIC_CENTER",
            "viewport" : {
               "northeast" : {
                  "lat" : 22.4994167802915,
                  "lng" : 88.3698097802915
               },
               "southwest" : {
                  "lat" : 22.49671881970849,
                  "lng" : 88.3671118197085
               }
            }
         },
         "place_id" : "ChIJPT_G9iNxAjoRvBMnAEyFZgE",
         "types" : [ "route" ]
      },
      {
         "address_components" : [
            {
               "long_name" : "Indian Association For The Cultivation Of Science",
               "short_name" : "Indian Association For The Cultivation Of Science",
               "types" : [ "political", "sublocality", "sublocality_level_3" ]
            },
            {
               "long_name" : "Poddar Nagar",
               "short_name" : "Poddar Nagar",
               "types" : [ "political", "sublocality", "sublocality_level_2" ]
            },
            {
               "long_name" : "Jadavpur",
               "short_name" : "Jadavpur",
               "types" : [ "political", "sublocality", "sublocality_level_1" ]
            },
            {
               "long_name" : "Kolkata",
               "short_name" : "Kolkata",
               "types" : [ "locality", "political" ]
            },
            {
               "long_name" : "Kolkata",
               "short_name" : "Kolkata",
               "types" : [ "administrative_area_level_2", "political" ]
            },
            {
               "long_name" : "West Bengal",
               "short_name" : "WB",
               "types" : [ "administrative_area_level_1", "political" ]
            },
            {
               "long_name" : "India",
               "short_name" : "IN",
               "types" : [ "country", "political" ]
            },
            {
               "long_name" : "700032",
               "short_name" : "700032",
               "types" : [ "postal_code" ]
            }
         ],
         "formatted_address" : "Indian Association For The Cultivation Of Science, Poddar Nagar, Jadavpur, Kolkata, West Bengal 700032, India",
         "geometry" : {
            "bounds" : {
               "northeast" : {
                  "lat" : 22.4995751,
                  "lng" : 88.3702388
               },
               "southwest" : {
                  "lat" : 22.4975479,
                  "lng" : 88.36768810000001
               }
            },
            "location" : {
               "lat" : 22.498794,
               "lng" : 88.3691561
            },
            "location_type" : "APPROXIMATE",
            "viewport" : {
               "northeast" : {
                  "lat" : 22.4999104802915,
                  "lng" : 88.37031243029152
               },
               "southwest" : {
                  "lat" : 22.4972125197085,
                  "lng" : 88.3676144697085
               }
            }
         },
         "place_id" : "ChIJA6C_iyNxAjoRBiBHz1ZcRSI",
         "types" : [ "political", "sublocality", "sublocality_level_3" ]
      },
      {
         "address_components" : [
            {
               "long_name" : "Poddar Nagar",
               "short_name" : "Poddar Nagar",
               "types" : [ "political", "sublocality", "sublocality_level_2" ]
            },
            {
               "long_name" : "Jadavpur",
               "short_name" : "Jadavpur",
               "types" : [ "political", "sublocality", "sublocality_level_1" ]
            },
            {
               "long_name" : "Kolkata",
               "short_name" : "Kolkata",
               "types" : [ "locality", "political" ]
            },
            {
               "long_name" : "Kolkata",
               "short_name" : "Kolkata",
               "types" : [ "administrative_area_level_2", "political" ]
            },
            {
               "long_name" : "West Bengal",
               "short_name" : "WB",
               "types" : [ "administrative_area_level_1", "political" ]
            },
            {
               "long_name" : "India",
               "short_name" : "IN",
               "types" : [ "country", "political" ]
            },
            {
               "long_name" : "700032",
               "short_name" : "700032",
               "types" : [ "postal_code" ]
            }
         ],
         "formatted_address" : "Poddar Nagar, Jadavpur, Kolkata, West Bengal 700032, India",
         "geometry" : {
            "bounds" : {
               "northeast" : {
                  "lat" : 22.502979,
                  "lng" : 88.3707319
               },
               "southwest" : {
                  "lat" : 22.495958,
                  "lng" : 88.36283899999999
               }
            },
            "location" : {
               "lat" : 22.4998836,
               "lng" : 88.36642569999999
            },
            "location_type" : "APPROXIMATE",
            "viewport" : {
               "northeast" : {
                  "lat" : 22.502979,
                  "lng" : 88.3707319
               },
               "southwest" : {
                  "lat" : 22.495958,
                  "lng" : 88.36283899999999
               }
            }
         },
         "place_id" : "ChIJRQAh3CZxAjoRoOS000olYsk",
         "types" : [ "political", "sublocality", "sublocality_level_2" ]
      },
      {
         "address_components" : [
            {
               "long_name" : "Jadavpur",
               "short_name" : "Jadavpur",
               "types" : [ "political", "sublocality", "sublocality_level_1" ]
            },
            {
               "long_name" : "Kolkata",
               "short_name" : "Kolkata",
               "types" : [ "locality", "political" ]
            },
            {
               "long_name" : "Kolkata",
               "short_name" : "Kolkata",
               "types" : [ "administrative_area_level_2", "political" ]
            },
            {
               "long_name" : "West Bengal",
               "short_name" : "WB",
               "types" : [ "administrative_area_level_1", "political" ]
            },
            {
               "long_name" : "India",
               "short_name" : "IN",
               "types" : [ "country", "political" ]
            }
         ],
         "formatted_address" : "Jadavpur, Kolkata, West Bengal, India",
         "geometry" : {
            "bounds" : {
               "northeast" : {
                  "lat" : 22.5040889,
                  "lng" : 88.3770251
               },
               "southwest" : {
                  "lat" : 22.484934,
                  "lng" : 88.35695149999999
               }
            },
            "location" : {
               "lat" : 22.4939728,
               "lng" : 88.37067119999999
            },
            "location_type" : "APPROXIMATE",
            "viewport" : {
               "northeast" : {
                  "lat" : 22.5040889,
                  "lng" : 88.3770251
               },
               "southwest" : {
                  "lat" : 22.484934,
                  "lng" : 88.35695149999999
               }
            }
         },
         "place_id" : "ChIJAUJ7JTtxAjoRg8pE8H-8P4I",
         "types" : [ "political", "sublocality", "sublocality_level_1" ]
      },
      {
         "address_components" : [
            {
               "long_name" : "700032",
               "short_name" : "700032",
               "types" : [ "postal_code" ]
            },
            {
               "long_name" : "Kolkata",
               "short_name" : "Kolkata",
               "types" : [ "locality", "political" ]
            },
            {
               "long_name" : "Kolkata",
               "short_name" : "Kolkata",
               "types" : [ "administrative_area_level_2", "political" ]
            },
            {
               "long_name" : "West Bengal",
               "short_name" : "WB",
               "types" : [ "administrative_area_level_1", "political" ]
            },
            {
               "long_name" : "India",
               "short_name" : "IN",
               "types" : [ "country", "political" ]
            }
         ],
         "formatted_address" : "Kolkata, West Bengal 700032, India",
         "geometry" : {
            "bounds" : {
               "northeast" : {
                  "lat" : 22.503933,
                  "lng" : 88.37999789999999
               },
               "southwest" : {
                  "lat" : 22.4841099,
                  "lng" : 88.35693479999999
               }
            },
            "location" : {
               "lat" : 22.4936901,
               "lng" : 88.36926869999999
            },
            "location_type" : "APPROXIMATE",
            "viewport" : {
               "northeast" : {
                  "lat" : 22.503933,
                  "lng" : 88.37999789999999
               },
               "southwest" : {
                  "lat" : 22.4841099,
                  "lng" : 88.35693479999999
               }
            }
         },
         "place_id" : "ChIJweysmiFxAjoRF3oyso4D08g",
         "types" : [ "postal_code" ]
      },
      {
         "address_components" : [
            {
               "long_name" : "Kolkata",
               "short_name" : "Kolkata",
               "types" : [ "administrative_area_level_2", "political" ]
            },
            {
               "long_name" : "West Bengal",
               "short_name" : "WB",
               "types" : [ "administrative_area_level_1", "political" ]
            },
            {
               "long_name" : "India",
               "short_name" : "IN",
               "types" : [ "country", "political" ]
            }
         ],
         "formatted_address" : "Kolkata, West Bengal, India",
         "geometry" : {
            "bounds" : {
               "northeast" : {
                  "lat" : 22.6312601,
                  "lng" : 88.45716999999999
               },
               "southwest" : {
                  "lat" : 22.45139,
                  "lng" : 88.23506990000001
               }
            },
            "location" : {
               "lat" : 22.5402602,
               "lng" : 88.38219889999999
            },
            "location_type" : "APPROXIMATE",
            "viewport" : {
               "northeast" : {
                  "lat" : 22.6312601,
                  "lng" : 88.45716999999999
               },
               "southwest" : {
                  "lat" : 22.45139,
                  "lng" : 88.23506990000001
               }
            }
         },
         "place_id" : "ChIJyxufaAB3AjoRzhRx7JWHIFw",
         "types" : [ "administrative_area_level_2", "political" ]
      },
      {
         "address_components" : [
            {
               "long_name" : "Kolkata",
               "short_name" : "Kolkata",
               "types" : [ "locality", "political" ]
            },
            {
               "long_name" : "Kolkata",
               "short_name" : "Kolkata",
               "types" : [ "administrative_area_level_2", "political" ]
            },
            {
               "long_name" : "West Bengal",
               "short_name" : "WB",
               "types" : [ "administrative_area_level_1", "political" ]
            },
            {
               "long_name" : "India",
               "short_name" : "IN",
               "types" : [ "country", "political" ]
            }
         ],
         "formatted_address" : "Kolkata, West Bengal, India",
         "geometry" : {
            "bounds" : {
               "northeast" : {
                  "lat" : 23.0083628,
                  "lng" : 88.5428696
               },
               "southwest" : {
                  "lat" : 22.3436288,
                  "lng" : 88.1165879
               }
            },
            "location" : {
               "lat" : 22.572646,
               "lng" : 88.36389500000001
            },
            "location_type" : "APPROXIMATE",
            "viewport" : {
               "northeast" : {
                  "lat" : 23.0083628,
                  "lng" : 88.5428696
               },
               "southwest" : {
                  "lat" : 22.3436288,
                  "lng" : 88.1165879
               }
            }
         },
         "place_id" : "ChIJZ_YISduC-DkRvCxsj-Yw40M",
         "types" : [ "locality", "political" ]
      },
      {
         "address_components" : [
            {
               "long_name" : "West Bengal",
               "short_name" : "West Bengal",
               "types" : [ "administrative_area_level_1", "political" ]
            },
            {
               "long_name" : "India",
               "short_name" : "IN",
               "types" : [ "country", "political" ]
            }
         ],
         "formatted_address" : "West Bengal, India",
         "geometry" : {
            "bounds" : {
               "northeast" : {
                  "lat" : 27.220707,
                  "lng" : 89.880039
               },
               "southwest" : {
                  "lat" : 21.524921,
                  "lng" : 85.82095799999999
               }
            },
            "location" : {
               "lat" : 22.9867569,
               "lng" : 87.85497549999999
            },
            "location_type" : "APPROXIMATE",
            "viewport" : {
               "northeast" : {
                  "lat" : 27.220707,
                  "lng" : 89.880039
               },
               "southwest" : {
                  "lat" : 21.524921,
                  "lng" : 85.82095799999999
               }
            }
         },
         "place_id" : "ChIJh-iXE_8W-jkRCqLnwz06VHE",
         "types" : [ "administrative_area_level_1", "political" ]
      },
      {
         "address_components" : [
            {
               "long_name" : "India",
               "short_name" : "IN",
               "types" : [ "country", "political" ]
            }
         ],
         "formatted_address" : "India",
         "geometry" : {
            "bounds" : {
               "northeast" : {
                  "lat" : 35.513327,
                  "lng" : 97.39535869999999
               },
               "southwest" : {
                  "lat" : 6.4626999,
                  "lng" : 68.1097
               }
            },
            "location" : {
               "lat" : 20.593684,
               "lng" : 78.96288
            },
            "location_type" : "APPROXIMATE",
            "viewport" : {
               "northeast" : {
                  "lat" : 35.513327,
                  "lng" : 97.39535869999999
               },
               "southwest" : {
                  "lat" : 6.4626999,
                  "lng" : 68.1097
               }
            }
         },
         "place_id" : "ChIJkbeSa_BfYzARphNChaFPjNc",
         "types" : [ "country", "political" ]
      }
   ],
   "status" : "OK"
}
