{
   "plus_code" : {
      "compound_code" : "QFVW+QQ Eskişehir, Eskişehir Province, Turkey",
      "global_code" : "8GFGQFVW+QQ"
   },
   "results" : [
      {
         "address_components" : [
            {
               "long_name" : "Anadolu Üniversitesi",
               "short_name" : "Anadolu Ünv.",
               "types" : [ "route" ]
            },
            {
               "long_name" : "Yeşiltepe Mahallesi",
               "short_name" : "Yeşiltepe Mahallesi",
               "types" : [ "administrative_area_level_4", "political" ]
            },
            {
               "long_name" : "Tepebaşı",
               "short_name" : "Tepebaşı",
               "types" : [ "administrative_area_level_2", "political" ]
            },
            {
               "long_name" : "Eskişehir",
               "short_name" : "Eskişehir",
               "types" : [ "administrative_area_level_1", "political" ]
            },
            {
               "long_name" : "Turkey",
               "short_name" : "TR",
               "types" : [ "country", "political" ]
            },
            {
               "long_name" : "26210",
               "short_name" : "26210",
               "types" : [ "postal_code" ]
            }
         ],
         "formatted_address" : "Yeşiltepe Mahallesi, Anadolu Ünv., 26210 Tepebaşı/Eskişehir, Turkey",
         "geometry" : {
            "bounds" : {
               "northeast" : {
                  "lat" : 39.7948076,
                  "lng" : 30.4977261
               },
               "southwest" : {
                  "lat" : 39.7946399,
                  "lng" : 30.49623589999999
               }
            },
            "location" : {
               "lat" : 39.7947238,
               "lng" : 30.496981
            },
            "location_type" : "GEOMETRIC_CENTER",
            "viewport" : {
               "northeast" : {
                  "lat" : 39.7960727302915,
                  "lng" : 30.49832998029149
               },
               "southwest" : {
                  "lat" : 39.7933747697085,
                  "lng" : 30.49563201970849
               }
            }
         },
         "place_id" : "ChIJF5CB98QVzBQRzqs9wLyeyV0",
         "types" : [ "route" ]
      },
      {
         "address_components" : [
            {
               "long_name" : "Yeşiltepe Mahallesi",
               "short_name" : "Yeşiltepe Mahallesi",
               "types" : [ "administrative_area_level_4", "political" ]
            },
            {
               "long_name" : "Tepebaşı",
               "short_name" : "Tepebaşı",
               "types" : [ "administrative_area_level_2", "political" ]
            },
            {
               "long_name" : "Eskişehir",
               "short_name" : "Eskişehir",
               "types" : [ "administrative_area_level_1", "political" ]
            },
            {
               "long_name" : "Turkey",
               "short_name" : "TR",
               "types" : [ "country", "political" ]
            },
            {
               "long_name" : "26210",
               "short_name" : "26210",
               "types" : [ "postal_code" ]
            }
         ],
         "formatted_address" : "Yeşiltepe Mahallesi, 26210 Tepebaşı/Eskişehir, Turkey",
         "geometry" : {
            "bounds" : {
               "northeast" : {
                  "lat" : 39.80938400000001,
                  "lng" : 30.5106149
               },
               "southwest" : {
                  "lat" : 39.787216,
                  "lng" : 30.485552
               }
            },
            "location" : {
               "lat" : 39.7958279,
               "lng" : 30.4976813
            },
            "location_type" : "APPROXIMATE",
            "viewport" : {
               "northeast" : {
                  "lat" : 39.80938400000001,
                  "lng" : 30.5106149
               },
               "southwest" : {
                  "lat" : 39.787216,
                  "lng" : 30.485552
               }
            }
         },
         "place_id" : "ChIJvSicEsYVzBQRmsa3halB0S0",
         "types" : [ "administrative_area_level_4", "political" ]
      },
      {
         "address_components" : [
            {
               "long_name" : "26210",
               "short_name" : "26210",
               "types" : [ "postal_code" ]
            },
            {
               "long_name" : "Tepebaşı",
               "short_name" : "Tepebaşı",
               "types" : [ "administrative_area_level_2", "political" ]
            },
            {
               "long_name" : "Eskişehir Province",
               "short_name" : "Eskişehir Province",
               "types" : [ "administrative_area_level_1", "political" ]
            },
            {
               "long_name" : "Turkey",
               "short_name" : "TR",
               "types" : [ "country", "political" ]
            }
         ],
         "formatted_address" : "26210 Tepebaşı/Eskişehir Province, Turkey",
         "geometry" : {
            "bounds" : {
               "northeast" : {
                  "lat" : 39.8102801,
                  "lng" : 30.523327
               },
               "southwest" : {
                  "lat" : 39.787216,
                  "lng" : 30.485552
               }
            },
            "location" : {
               "lat" : 39.7980898,
               "lng" : 30.5020001
            },
            "location_type" : "APPROXIMATE",
            "viewport" : {
               "northeast" : {
                  "lat" : 39.8102801,
                  "lng" : 30.523327
               },
               "southwest" : {
                  "lat" : 39.787216,
                  "lng" : 30.485552
               }
            }
         },
         "place_id" : "ChIJT3lTHIYVzBQRR-nxWqsyYDA",
         "types" : [ "postal_code" ]
      },
      {
         "address_components" : [
            {
               "long_name" : "Eskişehir",
               "short_name" : "Eskişehir",
               "types" : [ "locality", "political" ]
            },
            {
               "long_name" : "Eskişehir Province",
               "short_name" : "Eskişehir Province",
               "types" : [ "administrative_area_level_1", "political" ]
            },
            {
               "long_name" : "Turkey",
               "short_name" : "TR",
               "types" : [ "country", "political" ]
            }
         ],
         "formatted_address" : "Eskişehir, Eskişehir Province, Turkey",
         "geometry" : {
            "bounds" : {
               "northeast" : {
                  "lat" : 39.828122,
                  "lng" : 30.680574
               },
               "southwest" : {
                  "lat" : 39.702564,
                  "lng" : 30.409055
               }
            },
            "location" : {
               "lat" : 39.7667061,
               "lng" : 30.52563109999999
            },
            "location_type" : "APPROXIMATE",
            "viewport" : {
               "northeast" : {
                  "lat" : 39.828122,
                  "lng" : 30.680574
               },
               "southwest" : {
                  "lat" : 39.702564,
                  "lng" : 30.409055
               }
            }
         },
         "place_id" : "ChIJXw4MIgg-zBQRCJoEOFk5ibw",
         "types" : [ "locality", "political" ]
      },
      {
         "address_components" : [
            {
               "long_name" : "Tepebaşı",
               "short_name" : "Tepebaşı",
               "types" : [ "administrative_area_level_2", "political" ]
            },
            {
               "long_name" : "Eskişehir Province",
               "short_name" : "Eskişehir Province",
               "types" : [ "administrative_area_level_1", "political" ]
            },
            {
               "long_name" : "Turkey",
               "short_name" : "TR",
               "types" : [ "country", "political" ]
            }
         ],
         "formatted_address" : "Tepebaşı/Eskişehir Province, Turkey",
         "geometry" : {
            "bounds" : {
               "northeast" : {
                  "lat" : 40.016533,
                  "lng" : 30.972644
               },
               "southwest" : {
                  "lat" : 39.6223259,
                  "lng" : 30.1834609
               }
            },
            "location" : {
               "lat" : 39.8998742,
               "lng" : 30.4818446
            },
            "location_type" : "APPROXIMATE",
            "viewport" : {
               "northeast" : {
                  "lat" : 40.016533,
                  "lng" : 30.972644
               },
               "southwest" : {
                  "lat" : 39.6223259,
                  "lng" : 30.1834609
               }
            }
         },
         "place_id" : "ChIJyTIOP3Q_zBQRPhu6f8xRdbE",
         "types" : [ "administrative_area_level_2", "political" ]
      },
      {
         "address_components" : [
            {
               "long_name" : "Eskişehir Province",
               "short_name" : "Eskişehir Province",
               "types" : [ "administrative_area_level_1", "political" ]
            },
            {
               "long_name" : "Turkey",
               "short_name" : "TR",
               "types" : [ "country", "political" ]
            }
         ],
         "formatted_address" : "Eskişehir Province, Turkey",
         "geometry" : {
            "bounds" : {
               "northeast" : {
                  "lat" : 40.187227,
                  "lng" : 32.0303131
               },
               "southwest" : {
                  "lat" : 39.029024,
                  "lng" : 29.99179089999999
               }
            },
            "location" : {
               "lat" : 39.6329657,
               "lng" : 31.2626366
            },
            "location_type" : "APPROXIMATE",
            "viewport" : {
               "northeast" : {
                  "lat" : 40.187227,
                  "lng" : 32.0303131
               },
               "southwest" : {
                  "lat" : 39.029024,
                  "lng" : 29.99179089999999
               }
            }
         },
         "place_id" : "ChIJF44c-PoVzBQRTydTJ7V7mtg",
         "types" : [ "administrative_area_level_1", "political" ]
      },
      {
         "address_components" : [
            {
               "long_name" : "Turkey",
               "short_name" : "TR",
               "types" : [ "country", "political" ]
            }
         ],
         "formatted_address" : "Turkey",
         "geometry" : {
            "bounds" : {
               "northeast" : {
                  "lat" : 42.3666999,
                  "lng" : 44.8178449
               },
               "southwest" : {
                  "lat" : 35.808592,
                  "lng" : 25.5377
               }
            },
            "location" : {
               "lat" : 38.963745,
               "lng" : 35.243322
            },
            "location_type" : "APPROXIMATE",
            "viewport" : {
               "northeast" : {
                  "lat" : 42.3666999,
                  "lng" : 44.8178449
               },
               "southwest" : {
                  "lat" : 35.808592,
                  "lng" : 25.5377
               }
            }
         },
         "place_id" : "ChIJcSZPllwVsBQRKl9iKtTb2UA",
         "types" : [ "country", "political" ]
      }
   ],
   "status" : "OK"
}
