{
   "plus_code" : {
      "compound_code" : "2WG9+F9 Manno, Switzerland",
      "global_code" : "8FRC2WG9+F9"
   },
   "results" : [
      {
         "address_components" : [
            {
               "long_name" : "2C",
               "short_name" : "2C",
               "types" : [ "street_number" ]
            },
            {
               "long_name" : "Via Cantonale",
               "short_name" : "Via Cantonale",
               "types" : [ "route" ]
            },
            {
               "long_name" : "Manno TI",
               "short_name" : "Manno TI",
               "types" : [ "locality", "political" ]
            },
            {
               "long_name" : "Bezirk Lugano",
               "short_name" : "Bezirk Lugano",
               "types" : [ "administrative_area_level_2", "political" ]
            },
            {
               "long_name" : "Tessin",
               "short_name" : "TI",
               "types" : [ "administrative_area_level_1", "political" ]
            },
            {
               "long_name" : "Switzerland",
               "short_name" : "CH",
               "types" : [ "country", "political" ]
            },
            {
               "long_name" : "6928",
               "short_name" : "6928",
               "types" : [ "postal_code" ]
            }
         ],
         "formatted_address" : "Via Cantonale 2C, 6928 Manno TI, Switzerland",
         "geometry" : {
            "location" : {
               "lat" : 46.0261922,
               "lng" : 8.9184818
            },
            "location_type" : "ROOFTOP",
            "viewport" : {
               "northeast" : {
                  "lat" : 46.02754118029149,
                  "lng" : 8.919830780291504
               },
               "southwest" : {
                  "lat" : 46.02484321970849,
                  "lng" : 8.917132819708499
               }
            }
         },
         "place_id" : "ChIJmVT8B5gyhEcRQkObC39J_Bw",
         "plus_code" : {
            "compound_code" : "2WG9+F9 Manno, Switzerland",
            "global_code" : "8FRC2WG9+F9"
         },
         "types" : [ "establishment", "point_of_interest" ]
      },
      {
         "address_components" : [
            {
               "long_name" : "1",
               "short_name" : "1",
               "types" : [ "street_number" ]
            },
            {
               "long_name" : "Via Galleria",
               "short_name" : "Via Galleria",
               "types" : [ "route" ]
            },
            {
               "long_name" : "Manno TI",
               "short_name" : "Manno TI",
               "types" : [ "locality", "political" ]
            },
            {
               "long_name" : "Bezirk Lugano",
               "short_name" : "Bezirk Lugano",
               "types" : [ "administrative_area_level_2", "political" ]
            },
            {
               "long_name" : "Tessin",
               "short_name" : "TI",
               "types" : [ "administrative_area_level_1", "political" ]
            },
            {
               "long_name" : "Switzerland",
               "short_name" : "CH",
               "types" : [ "country", "political" ]
            },
            {
               "long_name" : "6928",
               "short_name" : "6928",
               "types" : [ "postal_code" ]
            }
         ],
         "formatted_address" : "Via Galleria 1, 6928 Manno TI, Switzerland",
         "geometry" : {
            "bounds" : {
               "northeast" : {
                  "lat" : 46.0271962,
                  "lng" : 8.9189591
               },
               "southwest" : {
                  "lat" : 46.0259864,
                  "lng" : 8.9180858
               }
            },
            "location" : {
               "lat" : 46.0264614,
               "lng" : 8.9184401
            },
            "location_type" : "ROOFTOP",
            "viewport" : {
               "northeast" : {
                  "lat" : 46.0279402802915,
                  "lng" : 8.919871430291503
               },
               "southwest" : {
                  "lat" : 46.0252423197085,
                  "lng" : 8.917173469708498
               }
            }
         },
         "place_id" : "ChIJr7frLZYyhEcRlI06kJxtzGs",
         "types" : [ "premise" ]
      },
      {
         "address_components" : [
            {
               "long_name" : "6",
               "short_name" : "6",
               "types" : [ "street_number" ]
            },
            {
               "long_name" : "Via Cantonale",
               "short_name" : "Via Cantonale",
               "types" : [ "route" ]
            },
            {
               "long_name" : "Manno TI",
               "short_name" : "Manno TI",
               "types" : [ "locality", "political" ]
            },
            {
               "long_name" : "Bezirk Lugano",
               "short_name" : "Bezirk Lugano",
               "types" : [ "administrative_area_level_2", "political" ]
            },
            {
               "long_name" : "Tessin",
               "short_name" : "TI",
               "types" : [ "administrative_area_level_1", "political" ]
            },
            {
               "long_name" : "Switzerland",
               "short_name" : "CH",
               "types" : [ "country", "political" ]
            },
            {
               "long_name" : "6928",
               "short_name" : "6928",
               "types" : [ "postal_code" ]
            }
         ],
         "formatted_address" : "Via Cantonale 6, 6928 Manno TI, Switzerland",
         "geometry" : {
            "location" : {
               "lat" : 46.02653979999999,
               "lng" : 8.918522399999999
            },
            "location_type" : "ROOFTOP",
            "viewport" : {
               "northeast" : {
                  "lat" : 46.02788878029149,
                  "lng" : 8.9198713802915
               },
               "southwest" : {
                  "lat" : 46.02519081970849,
                  "lng" : 8.917173419708496
               }
            }
         },
         "place_id" : "ChIJj__GLZYyhEcRJ_qOMh2QVqI",
         "plus_code" : {
            "compound_code" : "2WG9+JC Manno, Switzerland",
            "global_code" : "8FRC2WG9+JC"
         },
         "types" : [ "street_address" ]
      },
      {
         "address_components" : [
            {
               "long_name" : "6",
               "short_name" : "6",
               "types" : [ "street_number" ]
            },
            {
               "long_name" : "Via Cantonale",
               "short_name" : "Via Cantonale",
               "types" : [ "route" ]
            },
            {
               "long_name" : "Manno TI",
               "short_name" : "Manno TI",
               "types" : [ "locality", "political" ]
            },
            {
               "long_name" : "Tessin",
               "short_name" : "TI",
               "types" : [ "administrative_area_level_1", "political" ]
            },
            {
               "long_name" : "Switzerland",
               "short_name" : "CH",
               "types" : [ "country", "political" ]
            },
            {
               "long_name" : "6928",
               "short_name" : "6928",
               "types" : [ "postal_code" ]
            }
         ],
         "formatted_address" : "Via Cantonale 6, 6928 Manno TI, Switzerland",
         "geometry" : {
            "location" : {
               "lat" : 46.026683,
               "lng" : 8.9180195
            },
            "location_type" : "RANGE_INTERPOLATED",
            "viewport" : {
               "northeast" : {
                  "lat" : 46.0280319802915,
                  "lng" : 8.919368480291501
               },
               "southwest" : {
                  "lat" : 46.0253340197085,
                  "lng" : 8.916670519708498
               }
            }
         },
         "place_id" : "EidWaWEgQ2FudG9uYWxlIDYsIDY5MjggTWFubm8gVEksIFNjaHdlaXoiGhIYChQKEglvNjh9vTKERxFyP_UkHn4EbxAG",
         "types" : [ "street_address" ]
      },
      {
         "address_components" : [
            {
               "long_name" : "Manno",
               "short_name" : "Manno",
               "types" : [ "locality", "political" ]
            },
            {
               "long_name" : "Lugano District",
               "short_name" : "Lugano District",
               "types" : [ "administrative_area_level_2", "political" ]
            },
            {
               "long_name" : "Ticino",
               "short_name" : "TI",
               "types" : [ "administrative_area_level_1", "political" ]
            },
            {
               "long_name" : "Switzerland",
               "short_name" : "CH",
               "types" : [ "country", "political" ]
            }
         ],
         "formatted_address" : "Manno, Switzerland",
         "geometry" : {
            "bounds" : {
               "northeast" : {
                  "lat" : 46.03923,
                  "lng" : 8.92868
               },
               "southwest" : {
                  "lat" : 46.02032,
                  "lng" : 8.907439999999999
               }
            },
            "location" : {
               "lat" : 46.0342979,
               "lng" : 8.919411200000001
            },
            "location_type" : "APPROXIMATE",
            "viewport" : {
               "northeast" : {
                  "lat" : 46.03923,
                  "lng" : 8.92868
               },
               "southwest" : {
                  "lat" : 46.02032,
                  "lng" : 8.907439999999999
               }
            }
         },
         "place_id" : "ChIJh6My970yhEcR3LMIP6YMRAU",
         "types" : [ "locality", "political" ]
      },
      {
         "address_components" : [
            {
               "long_name" : "6928",
               "short_name" : "6928",
               "types" : [ "postal_code" ]
            },
            {
               "long_name" : "Manno",
               "short_name" : "Manno",
               "types" : [ "locality", "political" ]
            },
            {
               "long_name" : "Lugano District",
               "short_name" : "Lugano District",
               "types" : [ "administrative_area_level_2", "political" ]
            },
            {
               "long_name" : "Ticino",
               "short_name" : "TI",
               "types" : [ "administrative_area_level_1", "political" ]
            },
            {
               "long_name" : "Switzerland",
               "short_name" : "CH",
               "types" : [ "country", "political" ]
            }
         ],
         "formatted_address" : "6928 Manno, Switzerland",
         "geometry" : {
            "bounds" : {
               "northeast" : {
                  "lat" : 46.0393282,
                  "lng" : 8.9287215
               },
               "southwest" : {
                  "lat" : 46.0203763,
                  "lng" : 8.907315499999999
               }
            },
            "location" : {
               "lat" : 46.0308188,
               "lng" : 8.922201299999999
            },
            "location_type" : "APPROXIMATE",
            "viewport" : {
               "northeast" : {
                  "lat" : 46.0393282,
                  "lng" : 8.9287215
               },
               "southwest" : {
                  "lat" : 46.0203763,
                  "lng" : 8.907315499999999
               }
            }
         },
         "place_id" : "ChIJ-3dMFr4yhEcRrQY3UDBPMTo",
         "types" : [ "postal_code" ]
      },
      {
         "address_components" : [
            {
               "long_name" : "Lugano District",
               "short_name" : "Lugano District",
               "types" : [ "administrative_area_level_2", "political" ]
            },
            {
               "long_name" : "Ticino",
               "short_name" : "TI",
               "types" : [ "administrative_area_level_1", "political" ]
            },
            {
               "long_name" : "Switzerland",
               "short_name" : "CH",
               "types" : [ "country", "political" ]
            }
         ],
         "formatted_address" : "Lugano District, Switzerland",
         "geometry" : {
            "bounds" : {
               "northeast" : {
                  "lat" : 46.14724,
                  "lng" : 9.089630099999999
               },
               "southwest" : {
                  "lat" : 45.9086499,
                  "lng" : 8.785959999999999
               }
            },
            "location" : {
               "lat" : 46.0503329,
               "lng" : 8.948965899999999
            },
            "location_type" : "APPROXIMATE",
            "viewport" : {
               "northeast" : {
                  "lat" : 46.14724,
                  "lng" : 9.089630099999999
               },
               "southwest" : {
                  "lat" : 45.9086499,
                  "lng" : 8.785959999999999
               }
            }
         },
         "place_id" : "ChIJP_lEB_XJhUcR2xk-dzhQ7Ew",
         "types" : [ "administrative_area_level_2", "political" ]
      },
      {
         "address_components" : [
            {
               "long_name" : "Ticino",
               "short_name" : "Ticino",
               "types" : [ "administrative_area_level_1", "political" ]
            },
            {
               "long_name" : "Switzerland",
               "short_name" : "CH",
               "types" : [ "country", "political" ]
            }
         ],
         "formatted_address" : "Ticino, Switzerland",
         "geometry" : {
            "bounds" : {
               "northeast" : {
                  "lat" : 46.63241,
                  "lng" : 9.159730000000001
               },
               "southwest" : {
                  "lat" : 45.81792,
                  "lng" : 8.38218
               }
            },
            "location" : {
               "lat" : 46.331734,
               "lng" : 8.800452900000002
            },
            "location_type" : "APPROXIMATE",
            "viewport" : {
               "northeast" : {
                  "lat" : 46.63241,
                  "lng" : 9.159730000000001
               },
               "southwest" : {
                  "lat" : 45.81792,
                  "lng" : 8.38218
               }
            }
         },
         "place_id" : "ChIJg946LtqXhUcRuN5YORraPgw",
         "types" : [ "administrative_area_level_1", "political" ]
      },
      {
         "address_components" : [
            {
               "long_name" : "Switzerland",
               "short_name" : "CH",
               "types" : [ "country", "political" ]
            }
         ],
         "formatted_address" : "Switzerland",
         "geometry" : {
            "bounds" : {
               "northeast" : {
                  "lat" : 47.8084546,
                  "lng" : 10.4923401
               },
               "southwest" : {
                  "lat" : 45.81792,
                  "lng" : 5.95608
               }
            },
            "location" : {
               "lat" : 46.818188,
               "lng" : 8.227511999999999
            },
            "location_type" : "APPROXIMATE",
            "viewport" : {
               "northeast" : {
                  "lat" : 47.8084546,
                  "lng" : 10.4923401
               },
               "southwest" : {
                  "lat" : 45.81792,
                  "lng" : 5.95608
               }
            }
         },
         "place_id" : "ChIJYW1Zb-9kjEcRFXvLDxG1Vlw",
         "types" : [ "country", "political" ]
      }
   ],
   "status" : "OK"
}
