{
   "results" : [
      {
         "address_components" : [
            {
               "long_name" : "Rued Langgaards Vej",
               "short_name" : "Rued Langgaards Vej",
               "types" : [ "route" ]
            },
            {
               "long_name" : "København S",
               "short_name" : "København S",
               "types" : [ "political", "sublocality", "sublocality_level_1" ]
            },
            {
               "long_name" : "København",
               "short_name" : "København",
               "types" : [ "locality", "political" ]
            },
            {
               "long_name" : "København",
               "short_name" : "København",
               "types" : [ "administrative_area_level_2", "political" ]
            },
            {
               "long_name" : "Denmark",
               "short_name" : "DK",
               "types" : [ "country", "political" ]
            },
            {
               "long_name" : "2300",
               "short_name" : "2300",
               "types" : [ "postal_code" ]
            }
         ],
         "formatted_address" : "Rued Langgaards Vej, 2300 København, Denmark",
         "geometry" : {
            "bounds" : {
               "northeast" : {
                  "lat" : 55.66012749999999,
                  "lng" : 12.5916526
               },
               "southwest" : {
                  "lat" : 55.6589798,
                  "lng" : 12.5905611
               }
            },
            "location" : {
               "lat" : 55.65965670000001,
               "lng" : 12.5910476
            },
            "location_type" : "ROOFTOP",
            "viewport" : {
               "northeast" : {
                  "lat" : 55.6609026302915,
                  "lng" : 12.5924558302915
               },
               "southwest" : {
                  "lat" : 55.6582046697085,
                  "lng" : 12.5897578697085
               }
            }
         },
         "place_id" : "ChIJad5DA0VTUkYRu6vtX-Df5tY",
         "types" : [ "premise" ]
      },
      {
         "address_components" : [
            {
               "long_name" : "Emil Holms Kanal",
               "short_name" : "Emil Holms Kanal",
               "types" : [ "route" ]
            },
            {
               "long_name" : "København S",
               "short_name" : "København S",
               "types" : [ "political", "sublocality", "sublocality_level_1" ]
            },
            {
               "long_name" : "København",
               "short_name" : "København",
               "types" : [ "locality", "political" ]
            },
            {
               "long_name" : "København",
               "short_name" : "København",
               "types" : [ "administrative_area_level_2", "political" ]
            },
            {
               "long_name" : "Denmark",
               "short_name" : "DK",
               "types" : [ "country", "political" ]
            },
            {
               "long_name" : "2300",
               "short_name" : "2300",
               "types" : [ "postal_code" ]
            }
         ],
         "formatted_address" : "Emil Holms Kanal, 2300 København, Denmark",
         "geometry" : {
            "bounds" : {
               "northeast" : {
                  "lat" : 55.66022049999999,
                  "lng" : 12.5908102
               },
               "southwest" : {
                  "lat" : 55.6589451,
                  "lng" : 12.5903575
               }
            },
            "location" : {
               "lat" : 55.6595828,
               "lng" : 12.5905838
            },
            "location_type" : "GEOMETRIC_CENTER",
            "viewport" : {
               "northeast" : {
                  "lat" : 55.66093178029149,
                  "lng" : 12.5919328302915
               },
               "southwest" : {
                  "lat" : 55.6582338197085,
                  "lng" : 12.5892348697085
               }
            }
         },
         "place_id" : "ChIJlQEx_URTUkYRlToMwAjqE0E",
         "types" : [ "route" ]
      },
      {
         "address_components" : [
            {
               "long_name" : "Amager Vest",
               "short_name" : "Amager Vest",
               "types" : [ "political", "sublocality", "sublocality_level_2" ]
            },
            {
               "long_name" : "Copenhagen",
               "short_name" : "Copenhagen",
               "types" : [ "locality", "political" ]
            },
            {
               "long_name" : "København",
               "short_name" : "København",
               "types" : [ "administrative_area_level_2", "political" ]
            },
            {
               "long_name" : "Capital Region of Denmark",
               "short_name" : "Capital Region of Denmark",
               "types" : [ "administrative_area_level_1", "political" ]
            },
            {
               "long_name" : "Denmark",
               "short_name" : "DK",
               "types" : [ "country", "political" ]
            }
         ],
         "formatted_address" : "Amager Vest, Copenhagen, Denmark",
         "geometry" : {
            "bounds" : {
               "northeast" : {
                  "lat" : 55.6698339,
                  "lng" : 12.617159
               },
               "southwest" : {
                  "lat" : 55.613753,
                  "lng" : 12.5133141
               }
            },
            "location" : {
               "lat" : 55.64080449999999,
               "lng" : 12.5836187
            },
            "location_type" : "APPROXIMATE",
            "viewport" : {
               "northeast" : {
                  "lat" : 55.6698339,
                  "lng" : 12.617159
               },
               "southwest" : {
                  "lat" : 55.613753,
                  "lng" : 12.5133141
               }
            }
         },
         "place_id" : "ChIJiSpNkF5TUkYRUI2FjFRWDPw",
         "types" : [ "political", "sublocality", "sublocality_level_2" ]
      },
      {
         "address_components" : [
            {
               "long_name" : "København S",
               "short_name" : "København S",
               "types" : [ "political", "sublocality", "sublocality_level_1" ]
            },
            {
               "long_name" : "København",
               "short_name" : "København",
               "types" : [ "locality", "political" ]
            },
            {
               "long_name" : "København",
               "short_name" : "København",
               "types" : [ "administrative_area_level_2", "political" ]
            },
            {
               "long_name" : "Capital Region of Denmark",
               "short_name" : "Capital Region of Denmark",
               "types" : [ "administrative_area_level_1", "political" ]
            },
            {
               "long_name" : "Denmark",
               "short_name" : "DK",
               "types" : [ "country", "political" ]
            },
            {
               "long_name" : "2300",
               "short_name" : "2300",
               "types" : [ "postal_code" ]
            }
         ],
         "formatted_address" : "København S, 2300 København, Denmark",
         "geometry" : {
            "bounds" : {
               "northeast" : {
                  "lat" : 55.6905137,
                  "lng" : 12.6495913
               },
               "southwest" : {
                  "lat" : 55.61544079999999,
                  "lng" : 12.535374
               }
            },
            "location" : {
               "lat" : 55.6508754,
               "lng" : 12.5991891
            },
            "location_type" : "APPROXIMATE",
            "viewport" : {
               "northeast" : {
                  "lat" : 55.6905137,
                  "lng" : 12.6495913
               },
               "southwest" : {
                  "lat" : 55.61544079999999,
                  "lng" : 12.535374
               }
            }
         },
         "place_id" : "ChIJUUMIXVpTUkYRyD2bcXPy4i8",
         "types" : [ "political", "sublocality", "sublocality_level_1" ]
      },
      {
         "address_components" : [
            {
               "long_name" : "Copenhagen",
               "short_name" : "Copenhagen",
               "types" : [ "locality", "political" ]
            },
            {
               "long_name" : "København",
               "short_name" : "København",
               "types" : [ "administrative_area_level_2", "political" ]
            },
            {
               "long_name" : "Capital Region of Denmark",
               "short_name" : "Capital Region of Denmark",
               "types" : [ "administrative_area_level_1", "political" ]
            },
            {
               "long_name" : "Denmark",
               "short_name" : "DK",
               "types" : [ "country", "political" ]
            }
         ],
         "formatted_address" : "Copenhagen, Denmark",
         "geometry" : {
            "bounds" : {
               "northeast" : {
                  "lat" : 55.7270937,
                  "lng" : 12.7342654
               },
               "southwest" : {
                  "lat" : 55.615441,
                  "lng" : 12.4533824
               }
            },
            "location" : {
               "lat" : 55.6760968,
               "lng" : 12.5683372
            },
            "location_type" : "APPROXIMATE",
            "viewport" : {
               "northeast" : {
                  "lat" : 55.7270937,
                  "lng" : 12.7342654
               },
               "southwest" : {
                  "lat" : 55.615441,
                  "lng" : 12.4533824
               }
            }
         },
         "place_id" : "ChIJIz2AXDxTUkYRuGeU5t1-3QQ",
         "types" : [ "locality", "political" ]
      },
      {
         "address_components" : [
            {
               "long_name" : "2300",
               "short_name" : "2300",
               "types" : [ "postal_code" ]
            },
            {
               "long_name" : "København S",
               "short_name" : "København S",
               "types" : [ "political", "sublocality", "sublocality_level_1" ]
            },
            {
               "long_name" : "Denmark",
               "short_name" : "DK",
               "types" : [ "country", "political" ]
            }
         ],
         "formatted_address" : "2300 København S, Denmark",
         "geometry" : {
            "bounds" : {
               "northeast" : {
                  "lat" : 55.6912581,
                  "lng" : 12.6515895
               },
               "southwest" : {
                  "lat" : 55.614064,
                  "lng" : 12.5134037
               }
            },
            "location" : {
               "lat" : 55.6571378,
               "lng" : 12.6094232
            },
            "location_type" : "APPROXIMATE",
            "viewport" : {
               "northeast" : {
                  "lat" : 55.6912581,
                  "lng" : 12.6515895
               },
               "southwest" : {
                  "lat" : 55.614064,
                  "lng" : 12.5134037
               }
            }
         },
         "place_id" : "ChIJ0_TbUVpTUkYRbKZLKK6-gJQ",
         "types" : [ "postal_code" ]
      },
      {
         "address_components" : [
            {
               "long_name" : "København S",
               "short_name" : "København S",
               "types" : [ "postal_town" ]
            },
            {
               "long_name" : "København S",
               "short_name" : "København S",
               "types" : [ "political", "sublocality", "sublocality_level_1" ]
            },
            {
               "long_name" : "Denmark",
               "short_name" : "DK",
               "types" : [ "country", "political" ]
            },
            {
               "long_name" : "2300",
               "short_name" : "2300",
               "types" : [ "postal_code" ]
            }
         ],
         "formatted_address" : "København S, 2300 København S, Denmark",
         "geometry" : {
            "bounds" : {
               "northeast" : {
                  "lat" : 55.6912581,
                  "lng" : 12.6515895
               },
               "southwest" : {
                  "lat" : 55.614064,
                  "lng" : 12.5134037
               }
            },
            "location" : {
               "lat" : 55.6508754,
               "lng" : 12.5991891
            },
            "location_type" : "APPROXIMATE",
            "viewport" : {
               "northeast" : {
                  "lat" : 55.6912581,
                  "lng" : 12.6515895
               },
               "southwest" : {
                  "lat" : 55.614064,
                  "lng" : 12.5134037
               }
            }
         },
         "place_id" : "ChIJPZm_gVBTUkYRoAWIW-0vPA8",
         "types" : [ "postal_town" ]
      },
      {
         "address_components" : [
            {
               "long_name" : "København",
               "short_name" : "København",
               "types" : [ "administrative_area_level_2", "political" ]
            },
            {
               "long_name" : "Capital Region of Denmark",
               "short_name" : "Capital Region of Denmark",
               "types" : [ "administrative_area_level_1", "political" ]
            },
            {
               "long_name" : "Denmark",
               "short_name" : "DK",
               "types" : [ "country", "political" ]
            }
         ],
         "formatted_address" : "København, Denmark",
         "geometry" : {
            "bounds" : {
               "northeast" : {
                  "lat" : 55.73266899999999,
                  "lng" : 12.7339459
               },
               "southwest" : {
                  "lat" : 55.615481,
                  "lng" : 12.453255
               }
            },
            "location" : {
               "lat" : 55.6570828,
               "lng" : 12.5937561
            },
            "location_type" : "APPROXIMATE",
            "viewport" : {
               "northeast" : {
                  "lat" : 55.73266899999999,
                  "lng" : 12.7339459
               },
               "southwest" : {
                  "lat" : 55.615481,
                  "lng" : 12.453255
               }
            }
         },
         "place_id" : "ChIJiflw5SJTUkYRQk2g-SoIpbQ",
         "types" : [ "administrative_area_level_2", "political" ]
      },
      {
         "address_components" : [
            {
               "long_name" : "Capital Region of Denmark",
               "short_name" : "Capital Region of Denmark",
               "types" : [ "administrative_area_level_1", "political" ]
            },
            {
               "long_name" : "Denmark",
               "short_name" : "DK",
               "types" : [ "country", "political" ]
            }
         ],
         "formatted_address" : "Capital Region of Denmark, Denmark",
         "geometry" : {
            "bounds" : {
               "northeast" : {
                  "lat" : 56.200283,
                  "lng" : 15.1572181
               },
               "southwest" : {
                  "lat" : 54.9863569,
                  "lng" : 11.694833
               }
            },
            "location" : {
               "lat" : 55.6751812,
               "lng" : 12.5493261
            },
            "location_type" : "APPROXIMATE",
            "viewport" : {
               "northeast" : {
                  "lat" : 56.200283,
                  "lng" : 15.1572181
               },
               "southwest" : {
                  "lat" : 54.9863569,
                  "lng" : 11.694833
               }
            }
         },
         "place_id" : "ChIJb8pj4aWGU0YRUFSorMmvAAM",
         "types" : [ "administrative_area_level_1", "political" ]
      },
      {
         "address_components" : [
            {
               "long_name" : "Copenhagen Metropolitan Area",
               "short_name" : "Copenhagen Metropolitan Area",
               "types" : [ "political" ]
            },
            {
               "long_name" : "Denmark",
               "short_name" : "DK",
               "types" : [ "country", "political" ]
            }
         ],
         "formatted_address" : "Copenhagen Metropolitan Area, Denmark",
         "geometry" : {
            "bounds" : {
               "northeast" : {
                  "lat" : 56.200283,
                  "lng" : 12.7897501
               },
               "southwest" : {
                  "lat" : 55.235722,
                  "lng" : 11.694833
               }
            },
            "location" : {
               "lat" : 55.8565124,
               "lng" : 12.3011513
            },
            "location_type" : "APPROXIMATE",
            "viewport" : {
               "northeast" : {
                  "lat" : 56.200283,
                  "lng" : 12.7897501
               },
               "southwest" : {
                  "lat" : 55.235722,
                  "lng" : 11.694833
               }
            }
         },
         "place_id" : "ChIJ-21cXIZbUkYR-TBs5PohaxU",
         "types" : [ "political" ]
      },
      {
         "address_components" : [
            {
               "long_name" : "Denmark",
               "short_name" : "DK",
               "types" : [ "country", "political" ]
            }
         ],
         "formatted_address" : "Denmark",
         "geometry" : {
            "bounds" : {
               "northeast" : {
                  "lat" : 58.02846,
                  "lng" : 15.2298
               },
               "southwest" : {
                  "lat" : 54.4317001,
                  "lng" : 7.855200099999999
               }
            },
            "location" : {
               "lat" : 56.26392,
               "lng" : 9.501785
            },
            "location_type" : "APPROXIMATE",
            "viewport" : {
               "northeast" : {
                  "lat" : 58.02846,
                  "lng" : 15.2298
               },
               "southwest" : {
                  "lat" : 54.4317001,
                  "lng" : 7.855200099999999
               }
            }
         },
         "place_id" : "ChIJ-1-U7rYnS0YRzZLgw9BDh1I",
         "types" : [ "country", "political" ]
      }
   ],
   "status" : "OK"
}
