{
   "plus_code" : {
      "compound_code" : "73JH+2X Burnaby, BC, Canada",
      "global_code" : "84XV73JH+2X"
   },
   "results" : [
      {
         "address_components" : [
            {
               "long_name" : "8888",
               "short_name" : "8888",
               "types" : [ "street_number" ]
            },
            {
               "long_name" : "University Drive",
               "short_name" : "University Drive",
               "types" : [ "route" ]
            },
            {
               "long_name" : "Burnaby",
               "short_name" : "Burnaby",
               "types" : [ "locality", "political" ]
            },
            {
               "long_name" : "Greater Vancouver",
               "short_name" : "Greater Vancouver",
               "types" : [ "administrative_area_level_2", "political" ]
            },
            {
               "long_name" : "British Columbia",
               "short_name" : "BC",
               "types" : [ "administrative_area_level_1", "political" ]
            },
            {
               "long_name" : "Canada",
               "short_name" : "CA",
               "types" : [ "country", "political" ]
            },
            {
               "long_name" : "V5A 1S6",
               "short_name" : "V5A 1S6",
               "types" : [ "postal_code" ]
            }
         ],
         "formatted_address" : "8888 University Drive, Burnaby, BC V5A 1S6, Canada",
         "geometry" : {
            "location" : {
               "lat" : 49.2800145,
               "lng" : -122.9200592
            },
            "location_type" : "ROOFTOP",
            "viewport" : {
               "northeast" : {
                  "lat" : 49.2813634802915,
                  "lng" : -122.9187102197085
               },
               "southwest" : {
                  "lat" : 49.2786655197085,
                  "lng" : -122.9214081802915
               }
            }
         },
         "place_id" : "ChIJhRvMv8F5hlQRJfURF27P0HY",
         "plus_code" : {
            "compound_code" : "73JH+2X Burnaby, British Columbia, Canada",
            "global_code" : "84XV73JH+2X"
         },
         "types" : [ "establishment", "point_of_interest" ]
      },
      {
         "address_components" : [
            {
               "long_name" : "8888",
               "short_name" : "8888",
               "types" : [ "street_number" ]
            },
            {
               "long_name" : "University Drive",
               "short_name" : "University Dr",
               "types" : [ "route" ]
            },
            {
               "long_name" : "Burnaby",
               "short_name" : "Burnaby",
               "types" : [ "locality", "political" ]
            },
            {
               "long_name" : "Greater Vancouver",
               "short_name" : "Greater Vancouver",
               "types" : [ "administrative_area_level_2", "political" ]
            },
            {
               "long_name" : "British Columbia",
               "short_name" : "BC",
               "types" : [ "administrative_area_level_1", "political" ]
            },
            {
               "long_name" : "Canada",
               "short_name" : "CA",
               "types" : [ "country", "political" ]
            },
            {
               "long_name" : "V5A 1S6",
               "short_name" : "V5A 1S6",
               "types" : [ "postal_code" ]
            }
         ],
         "formatted_address" : "8888 University Dr, Burnaby, BC V5A 1S6, Canada",
         "geometry" : {
            "location" : {
               "lat" : 49.2800145,
               "lng" : -122.9200592
            },
            "location_type" : "ROOFTOP",
            "viewport" : {
               "northeast" : {
                  "lat" : 49.2813634802915,
                  "lng" : -122.9187102197085
               },
               "southwest" : {
                  "lat" : 49.2786655197085,
                  "lng" : -122.9214081802915
               }
            }
         },
         "place_id" : "ChIJtxo_yrh5hlQRTcEku1I4kuE",
         "plus_code" : {
            "compound_code" : "73JH+2X Burnaby, British Columbia, Canada",
            "global_code" : "84XV73JH+2X"
         },
         "types" : [ "street_address" ]
      },
      {
         "address_components" : [
            {
               "long_name" : "Gaglardi Way",
               "short_name" : "Gaglardi Way",
               "types" : [ "route" ]
            },
            {
               "long_name" : "Burnaby",
               "short_name" : "Burnaby",
               "types" : [ "locality", "political" ]
            },
            {
               "long_name" : "Greater Vancouver",
               "short_name" : "Greater Vancouver",
               "types" : [ "administrative_area_level_2", "political" ]
            },
            {
               "long_name" : "British Columbia",
               "short_name" : "BC",
               "types" : [ "administrative_area_level_1", "political" ]
            },
            {
               "long_name" : "Canada",
               "short_name" : "CA",
               "types" : [ "country", "political" ]
            },
            {
               "long_name" : "V5A",
               "short_name" : "V5A",
               "types" : [ "postal_code", "postal_code_prefix" ]
            }
         ],
         "formatted_address" : "Gaglardi Way, Burnaby, BC V5A, Canada",
         "geometry" : {
            "bounds" : {
               "northeast" : {
                  "lat" : 49.2801226,
                  "lng" : -122.9199396
               },
               "southwest" : {
                  "lat" : 49.2796478,
                  "lng" : -122.9199989
               }
            },
            "location" : {
               "lat" : 49.2798852,
               "lng" : -122.9199692
            },
            "location_type" : "GEOMETRIC_CENTER",
            "viewport" : {
               "northeast" : {
                  "lat" : 49.2812341802915,
                  "lng" : -122.9186202697085
               },
               "southwest" : {
                  "lat" : 49.2785362197085,
                  "lng" : -122.9213182302915
               }
            }
         },
         "place_id" : "ChIJMUpXV5V5hlQRrgfSQ4PYYfc",
         "types" : [ "route" ]
      },
      {
         "address_components" : [
            {
               "long_name" : "V5A",
               "short_name" : "V5A",
               "types" : [ "postal_code", "postal_code_prefix" ]
            },
            {
               "long_name" : "Burnaby",
               "short_name" : "Burnaby",
               "types" : [ "locality", "political" ]
            },
            {
               "long_name" : "Greater Vancouver",
               "short_name" : "Greater Vancouver",
               "types" : [ "administrative_area_level_2", "political" ]
            },
            {
               "long_name" : "British Columbia",
               "short_name" : "BC",
               "types" : [ "administrative_area_level_1", "political" ]
            },
            {
               "long_name" : "Canada",
               "short_name" : "CA",
               "types" : [ "country", "political" ]
            }
         ],
         "formatted_address" : "Burnaby, BC V5A, Canada",
         "geometry" : {
            "bounds" : {
               "northeast" : {
                  "lat" : 49.292516,
                  "lng" : -122.8938331
               },
               "southwest" : {
                  "lat" : 49.239267,
                  "lng" : -122.980894
               }
            },
            "location" : {
               "lat" : 49.2686175,
               "lng" : -122.9364381
            },
            "location_type" : "APPROXIMATE",
            "viewport" : {
               "northeast" : {
                  "lat" : 49.292516,
                  "lng" : -122.8938331
               },
               "southwest" : {
                  "lat" : 49.239267,
                  "lng" : -122.980894
               }
            }
         },
         "place_id" : "ChIJ4bu-19h5hlQRhAzB1urRwTw",
         "types" : [ "postal_code", "postal_code_prefix" ]
      },
      {
         "address_components" : [
            {
               "long_name" : "Burnaby",
               "short_name" : "Burnaby",
               "types" : [ "locality", "political" ]
            },
            {
               "long_name" : "Greater Vancouver",
               "short_name" : "Greater Vancouver",
               "types" : [ "administrative_area_level_2", "political" ]
            },
            {
               "long_name" : "British Columbia",
               "short_name" : "BC",
               "types" : [ "administrative_area_level_1", "political" ]
            },
            {
               "long_name" : "Canada",
               "short_name" : "CA",
               "types" : [ "country", "political" ]
            }
         ],
         "formatted_address" : "Burnaby, BC, Canada",
         "geometry" : {
            "bounds" : {
               "northeast" : {
                  "lat" : 49.2993349,
                  "lng" : -122.891689
               },
               "southwest" : {
                  "lat" : 49.180637,
                  "lng" : -123.0246499
               }
            },
            "location" : {
               "lat" : 49.2488091,
               "lng" : -122.9805104
            },
            "location_type" : "APPROXIMATE",
            "viewport" : {
               "northeast" : {
                  "lat" : 49.2993349,
                  "lng" : -122.891689
               },
               "southwest" : {
                  "lat" : 49.180637,
                  "lng" : -123.0246499
               }
            }
         },
         "place_id" : "ChIJc4OcIah3hlQRabFSh3NyCt0",
         "types" : [ "locality", "political" ]
      },
      {
         "address_components" : [
            {
               "long_name" : "Greater Vancouver",
               "short_name" : "Greater Vancouver",
               "types" : [ "administrative_area_level_2", "political" ]
            },
            {
               "long_name" : "British Columbia",
               "short_name" : "BC",
               "types" : [ "administrative_area_level_1", "political" ]
            },
            {
               "long_name" : "Canada",
               "short_name" : "CA",
               "types" : [ "country", "political" ]
            }
         ],
         "formatted_address" : "Greater Vancouver, BC, Canada",
         "geometry" : {
            "bounds" : {
               "northeast" : {
                  "lat" : 49.5745549,
                  "lng" : -122.408262
               },
               "southwest" : {
                  "lat" : 49.00205589999999,
                  "lng" : -123.6224361
               }
            },
            "location" : {
               "lat" : 49.2501243,
               "lng" : -123.0824217
            },
            "location_type" : "APPROXIMATE",
            "viewport" : {
               "northeast" : {
                  "lat" : 49.5745549,
                  "lng" : -122.408262
               },
               "southwest" : {
                  "lat" : 49.00205589999999,
                  "lng" : -123.6224361
               }
            }
         },
         "place_id" : "ChIJpd_5BZDOYlQRpvz0npdsnM4",
         "types" : [ "administrative_area_level_2", "political" ]
      },
      {
         "address_components" : [
            {
               "long_name" : "British Columbia",
               "short_name" : "British Columbia",
               "types" : [ "administrative_area_level_1", "political" ]
            },
            {
               "long_name" : "Canada",
               "short_name" : "CA",
               "types" : [ "country", "political" ]
            }
         ],
         "formatted_address" : "British Columbia, Canada",
         "geometry" : {
            "bounds" : {
               "northeast" : {
                  "lat" : 60.0001489,
                  "lng" : -114.054221
               },
               "southwest" : {
                  "lat" : 48.224556,
                  "lng" : -139.0570702
               }
            },
            "location" : {
               "lat" : 53.7266683,
               "lng" : -127.6476205
            },
            "location_type" : "APPROXIMATE",
            "viewport" : {
               "northeast" : {
                  "lat" : 60.0001489,
                  "lng" : -114.054221
               },
               "southwest" : {
                  "lat" : 48.224556,
                  "lng" : -139.0570702
               }
            }
         },
         "place_id" : "ChIJr2prqsdmelMR-fHnN-lBG4g",
         "types" : [ "administrative_area_level_1", "political" ]
      },
      {
         "address_components" : [
            {
               "long_name" : "Canada",
               "short_name" : "CA",
               "types" : [ "country", "political" ]
            }
         ],
         "formatted_address" : "Canada",
         "geometry" : {
            "bounds" : {
               "northeast" : {
                  "lat" : 83.63809999999999,
                  "lng" : -50.9766
               },
               "southwest" : {
                  "lat" : 41.6765559,
                  "lng" : -141.00187
               }
            },
            "location" : {
               "lat" : 56.130366,
               "lng" : -106.346771
            },
            "location_type" : "APPROXIMATE",
            "viewport" : {
               "northeast" : {
                  "lat" : 83.63809999999999,
                  "lng" : -50.9766
               },
               "southwest" : {
                  "lat" : 41.6765559,
                  "lng" : -141.00187
               }
            }
         },
         "place_id" : "ChIJ2WrMN9MDDUsRpY9Doiq3aJk",
         "types" : [ "country", "political" ]
      }
   ],
   "status" : "OK"
}
