{
   "plus_code" : {
      "compound_code" : "XP3V+PM Lawrence, KS, USA",
      "global_code" : "86C6XP3V+PM"
   },
   "results" : [
      {
         "address_components" : [
            {
               "long_name" : "1450",
               "short_name" : "1450",
               "types" : [ "street_number" ]
            },
            {
               "long_name" : "Jayhawk Boulevard",
               "short_name" : "Jayhawk Blvd",
               "types" : [ "route" ]
            },
            {
               "long_name" : "Lawrence",
               "short_name" : "Lawrence",
               "types" : [ "locality", "political" ]
            },
            {
               "long_name" : "Douglas County",
               "short_name" : "Douglas County",
               "types" : [ "administrative_area_level_2", "political" ]
            },
            {
               "long_name" : "Kansas",
               "short_name" : "KS",
               "types" : [ "administrative_area_level_1", "political" ]
            },
            {
               "long_name" : "United States",
               "short_name" : "US",
               "types" : [ "country", "political" ]
            },
            {
               "long_name" : "66045",
               "short_name" : "66045",
               "types" : [ "postal_code" ]
            }
         ],
         "formatted_address" : "1450 Jayhawk Blvd, Lawrence, KS 66045, USA",
         "geometry" : {
            "location" : {
               "lat" : 38.9543439,
               "lng" : -95.2557961
            },
            "location_type" : "ROOFTOP",
            "viewport" : {
               "northeast" : {
                  "lat" : 38.95569288029149,
                  "lng" : -95.25444711970849
               },
               "southwest" : {
                  "lat" : 38.9529949197085,
                  "lng" : -95.25714508029149
               }
            }
         },
         "place_id" : "ChIJc9ao8zJvv4cRKIIjqyFOcVM",
         "plus_code" : {
            "compound_code" : "XP3V+PM Lawrence, Kansas, United States",
            "global_code" : "86C6XP3V+PM"
         },
         "types" : [ "establishment", "point_of_interest", "university" ]
      },
      {
         "address_components" : [
            {
               "long_name" : "1605",
               "short_name" : "1605",
               "types" : [ "street_number" ]
            },
            {
               "long_name" : "Child Care Drive",
               "short_name" : "Child Care Dr",
               "types" : [ "route" ]
            },
            {
               "long_name" : "Lawrence",
               "short_name" : "Lawrence",
               "types" : [ "locality", "political" ]
            },
            {
               "long_name" : "Douglas County",
               "short_name" : "Douglas County",
               "types" : [ "administrative_area_level_2", "political" ]
            },
            {
               "long_name" : "Kansas",
               "short_name" : "KS",
               "types" : [ "administrative_area_level_1", "political" ]
            },
            {
               "long_name" : "United States",
               "short_name" : "US",
               "types" : [ "country", "political" ]
            },
            {
               "long_name" : "66044",
               "short_name" : "66044",
               "types" : [ "postal_code" ]
            }
         ],
         "formatted_address" : "1605 Child Care Dr, Lawrence, KS 66044, USA",
         "geometry" : {
            "bounds" : {
               "northeast" : {
                  "lat" : 38.9539561,
                  "lng" : -95.2553702
               },
               "southwest" : {
                  "lat" : 38.9531941,
                  "lng" : -95.25634319999999
               }
            },
            "location" : {
               "lat" : 38.9537819,
               "lng" : -95.25595199999999
            },
            "location_type" : "ROOFTOP",
            "viewport" : {
               "northeast" : {
                  "lat" : 38.9549240802915,
                  "lng" : -95.25450771970849
               },
               "southwest" : {
                  "lat" : 38.9522261197085,
                  "lng" : -95.25720568029149
               }
            }
         },
         "place_id" : "ChIJA3B92jJvv4cRuMP4PDAG7Fc",
         "types" : [ "premise" ]
      },
      {
         "address_components" : [
            {
               "long_name" : "1621",
               "short_name" : "1621",
               "types" : [ "street_number" ]
            },
            {
               "long_name" : "Ousdahl Road",
               "short_name" : "Ousdahl Rd",
               "types" : [ "route" ]
            },
            {
               "long_name" : "Lawrence",
               "short_name" : "Lawrence",
               "types" : [ "locality", "political" ]
            },
            {
               "long_name" : "Douglas County",
               "short_name" : "Douglas County",
               "types" : [ "administrative_area_level_2", "political" ]
            },
            {
               "long_name" : "Kansas",
               "short_name" : "KS",
               "types" : [ "administrative_area_level_1", "political" ]
            },
            {
               "long_name" : "United States",
               "short_name" : "US",
               "types" : [ "country", "political" ]
            },
            {
               "long_name" : "66045",
               "short_name" : "66045",
               "types" : [ "postal_code" ]
            }
         ],
         "formatted_address" : "1621 Ousdahl Rd, Lawrence, KS 66045, USA",
         "geometry" : {
            "location" : {
               "lat" : 38.9548553,
               "lng" : -95.25567199999999
            },
            "location_type" : "ROOFTOP",
            "viewport" : {
               "northeast" : {
                  "lat" : 38.9562042802915,
                  "lng" : -95.25432301970848
               },
               "southwest" : {
                  "lat" : 38.9535063197085,
                  "lng" : -95.2570209802915
               }
            }
         },
         "place_id" : "ChIJIzyYqc1ov4cRjYNVN5BBRAw",
         "plus_code" : {
            "compound_code" : "XP3V+WP Lawrence, Kansas, United States",
            "global_code" : "86C6XP3V+WP"
         },
         "types" : [ "street_address" ]
      },
      {
         "address_components" : [
            {
               "long_name" : "1616",
               "short_name" : "1616",
               "types" : [ "street_number" ]
            },
            {
               "long_name" : "Ellis Drive",
               "short_name" : "Ellis Dr",
               "types" : [ "route" ]
            },
            {
               "long_name" : "Lawrence",
               "short_name" : "Lawrence",
               "types" : [ "locality", "political" ]
            },
            {
               "long_name" : "Kansas",
               "short_name" : "KS",
               "types" : [ "administrative_area_level_1", "political" ]
            },
            {
               "long_name" : "United States",
               "short_name" : "US",
               "types" : [ "country", "political" ]
            },
            {
               "long_name" : "66044",
               "short_name" : "66044",
               "types" : [ "postal_code" ]
            },
            {
               "long_name" : "3843",
               "short_name" : "3843",
               "types" : [ "postal_code_suffix" ]
            }
         ],
         "formatted_address" : "1616 Ellis Dr, Lawrence, KS 66044, USA",
         "geometry" : {
            "location" : {
               "lat" : 38.9546893,
               "lng" : -95.25664909999999
            },
            "location_type" : "RANGE_INTERPOLATED",
            "viewport" : {
               "northeast" : {
                  "lat" : 38.95603828029149,
                  "lng" : -95.25530011970849
               },
               "southwest" : {
                  "lat" : 38.9533403197085,
                  "lng" : -95.2579980802915
               }
            }
         },
         "place_id" : "EiYxNjE2IEVsbGlzIERyLCBMYXdyZW5jZSwgS1MgNjYwNDQsIFVTQSIbEhkKFAoSCeliPe0yb7-HEaaqoaRhOsLuENAM",
         "types" : [ "street_address" ]
      },
      {
         "address_components" : [
            {
               "long_name" : "Lawrence",
               "short_name" : "Lawrence",
               "types" : [ "locality", "political" ]
            },
            {
               "long_name" : "Douglas County",
               "short_name" : "Douglas County",
               "types" : [ "administrative_area_level_2", "political" ]
            },
            {
               "long_name" : "Kansas",
               "short_name" : "KS",
               "types" : [ "administrative_area_level_1", "political" ]
            },
            {
               "long_name" : "United States",
               "short_name" : "US",
               "types" : [ "country", "political" ]
            }
         ],
         "formatted_address" : "Lawrence, KS, USA",
         "geometry" : {
            "bounds" : {
               "northeast" : {
                  "lat" : 39.03360110000001,
                  "lng" : -95.16655999999999
               },
               "southwest" : {
                  "lat" : 38.913376,
                  "lng" : -95.3352939
               }
            },
            "location" : {
               "lat" : 38.9716689,
               "lng" : -95.2352501
            },
            "location_type" : "APPROXIMATE",
            "viewport" : {
               "northeast" : {
                  "lat" : 39.03360110000001,
                  "lng" : -95.16655999999999
               },
               "southwest" : {
                  "lat" : 38.913376,
                  "lng" : -95.3352939
               }
            }
         },
         "place_id" : "ChIJg5hHzsdAv4cRLqt4BNUTFxU",
         "types" : [ "locality", "political" ]
      },
      {
         "address_components" : [
            {
               "long_name" : "66044",
               "short_name" : "66044",
               "types" : [ "postal_code" ]
            },
            {
               "long_name" : "Lawrence",
               "short_name" : "Lawrence",
               "types" : [ "locality", "political" ]
            },
            {
               "long_name" : "Kansas",
               "short_name" : "KS",
               "types" : [ "administrative_area_level_1", "political" ]
            },
            {
               "long_name" : "United States",
               "short_name" : "US",
               "types" : [ "country", "political" ]
            }
         ],
         "formatted_address" : "Lawrence, KS 66044, USA",
         "geometry" : {
            "bounds" : {
               "northeast" : {
                  "lat" : 39.114201,
                  "lng" : -95.1278239
               },
               "southwest" : {
                  "lat" : 38.9499439,
                  "lng" : -95.2926229
               }
            },
            "location" : {
               "lat" : 39.0176677,
               "lng" : -95.2057909
            },
            "location_type" : "APPROXIMATE",
            "viewport" : {
               "northeast" : {
                  "lat" : 39.114201,
                  "lng" : -95.1278239
               },
               "southwest" : {
                  "lat" : 38.9499439,
                  "lng" : -95.2926229
               }
            }
         },
         "place_id" : "ChIJX--DL0llv4cRiSLMZ1mu9V8",
         "types" : [ "postal_code" ]
      },
      {
         "address_components" : [
            {
               "long_name" : "Douglas County",
               "short_name" : "Douglas County",
               "types" : [ "administrative_area_level_2", "political" ]
            },
            {
               "long_name" : "Kansas",
               "short_name" : "KS",
               "types" : [ "administrative_area_level_1", "political" ]
            },
            {
               "long_name" : "United States",
               "short_name" : "US",
               "types" : [ "country", "political" ]
            }
         ],
         "formatted_address" : "Douglas County, KS, USA",
         "geometry" : {
            "bounds" : {
               "northeast" : {
                  "lat" : 39.069783,
                  "lng" : -95.05584789999999
               },
               "southwest" : {
                  "lat" : 38.7382718,
                  "lng" : -95.5019001
               }
            },
            "location" : {
               "lat" : 38.9107835,
               "lng" : -95.26844369999999
            },
            "location_type" : "APPROXIMATE",
            "viewport" : {
               "northeast" : {
                  "lat" : 39.069783,
                  "lng" : -95.05584789999999
               },
               "southwest" : {
                  "lat" : 38.7382718,
                  "lng" : -95.5019001
               }
            }
         },
         "place_id" : "ChIJ_ZHW2GlJv4cRZxh5fFv330E",
         "types" : [ "administrative_area_level_2", "political" ]
      },
      {
         "address_components" : [
            {
               "long_name" : "Kansas",
               "short_name" : "Kansas",
               "types" : [ "administrative_area_level_1", "political" ]
            },
            {
               "long_name" : "United States",
               "short_name" : "US",
               "types" : [ "country", "political" ]
            }
         ],
         "formatted_address" : "Kansas, USA",
         "geometry" : {
            "bounds" : {
               "northeast" : {
                  "lat" : 40.0045419,
                  "lng" : -94.588387
               },
               "southwest" : {
                  "lat" : 36.9930159,
                  "lng" : -102.0517688
               }
            },
            "location" : {
               "lat" : 39.011902,
               "lng" : -98.4842465
            },
            "location_type" : "APPROXIMATE",
            "viewport" : {
               "northeast" : {
                  "lat" : 40.0045419,
                  "lng" : -94.588387
               },
               "southwest" : {
                  "lat" : 36.9930159,
                  "lng" : -102.0517688
               }
            }
         },
         "place_id" : "ChIJawF8cXEXo4cRXwk-S6m0wmg",
         "types" : [ "administrative_area_level_1", "political" ]
      },
      {
         "address_components" : [
            {
               "long_name" : "United States",
               "short_name" : "US",
               "types" : [ "country", "political" ]
            }
         ],
         "formatted_address" : "United States",
         "geometry" : {
            "bounds" : {
               "northeast" : {
                  "lat" : 71.5388001,
                  "lng" : -66.885417
               },
               "southwest" : {
                  "lat" : 18.7763,
                  "lng" : 170.5957
               }
            },
            "location" : {
               "lat" : 37.09024,
               "lng" : -95.712891
            },
            "location_type" : "APPROXIMATE",
            "viewport" : {
               "northeast" : {
                  "lat" : 71.5388001,
                  "lng" : -66.885417
               },
               "southwest" : {
                  "lat" : 18.7763,
                  "lng" : 170.5957
               }
            }
         },
         "place_id" : "ChIJCzYy5IS16lQRQrfeQ5K5Oxw",
         "types" : [ "country", "political" ]
      }
   ],
   "status" : "OK"
}
