{
   "plus_code" : {
      "compound_code" : "7F6J+4V Mount Isa QLD, Australia",
      "global_code" : "5QFX7F6J+4V"
   },
   "results" : [
      {
         "address_components" : [
            {
               "long_name" : "Railway Avenue",
               "short_name" : "Railway Ave",
               "types" : [ "route" ]
            },
            {
               "long_name" : "Mount Isa",
               "short_name" : "Mount Isa",
               "types" : [ "locality", "political" ]
            },
            {
               "long_name" : "Mount Isa City",
               "short_name" : "Mount Isa",
               "types" : [ "administrative_area_level_2", "political" ]
            },
            {
               "long_name" : "Queensland",
               "short_name" : "QLD",
               "types" : [ "administrative_area_level_1", "political" ]
            },
            {
               "long_name" : "Australia",
               "short_name" : "AU",
               "types" : [ "country", "political" ]
            },
            {
               "long_name" : "4825",
               "short_name" : "4825",
               "types" : [ "postal_code" ]
            }
         ],
         "formatted_address" : "Railway Ave, Mount Isa QLD 4825, Australia",
         "geometry" : {
            "location" : {
               "lat" : -20.739669,
               "lng" : 139.4821812
            },
            "location_type" : "GEOMETRIC_CENTER",
            "viewport" : {
               "northeast" : {
                  "lat" : -20.7383200197085,
                  "lng" : 139.4835301802915
               },
               "southwest" : {
                  "lat" : -20.7410179802915,
                  "lng" : 139.4808322197085
               }
            }
         },
         "place_id" : "ChIJU5ULbgNTFmoRoMZgYvLuAA8",
         "plus_code" : {
            "compound_code" : "7F6J+4V Mount Isa, Queensland, Australia",
            "global_code" : "5QFX7F6J+4V"
         },
         "types" : [ "establishment", "point_of_interest" ]
      },
      {
         "address_components" : [
            {
               "long_name" : "50",
               "short_name" : "50",
               "types" : [ "street_number" ]
            },
            {
               "long_name" : "National Route 83",
               "short_name" : "National Route 83",
               "types" : [ "route" ]
            },
            {
               "long_name" : "Mount Isa",
               "short_name" : "Mount Isa",
               "types" : [ "locality", "political" ]
            },
            {
               "long_name" : "Mount Isa City",
               "short_name" : "Mount Isa",
               "types" : [ "administrative_area_level_2", "political" ]
            },
            {
               "long_name" : "Queensland",
               "short_name" : "QLD",
               "types" : [ "administrative_area_level_1", "political" ]
            },
            {
               "long_name" : "Australia",
               "short_name" : "AU",
               "types" : [ "country", "political" ]
            },
            {
               "long_name" : "4825",
               "short_name" : "4825",
               "types" : [ "postal_code" ]
            }
         ],
         "formatted_address" : "50 National Route 83, Mount Isa QLD 4825, Australia",
         "geometry" : {
            "location" : {
               "lat" : -20.739192,
               "lng" : 139.4845551
            },
            "location_type" : "ROOFTOP",
            "viewport" : {
               "northeast" : {
                  "lat" : -20.7378430197085,
                  "lng" : 139.4859040802915
               },
               "southwest" : {
                  "lat" : -20.7405409802915,
                  "lng" : 139.4832061197085
               }
            }
         },
         "place_id" : "ChIJJfMYoa1TFmoRCmy1tLwSPaY",
         "plus_code" : {
            "compound_code" : "7F6M+8R Mount Isa, Queensland, Australia",
            "global_code" : "5QFX7F6M+8R"
         },
         "types" : [ "street_address" ]
      },
      {
         "address_components" : [
            {
               "long_name" : "2",
               "short_name" : "2",
               "types" : [ "street_number" ]
            },
            {
               "long_name" : "Larch Street",
               "short_name" : "Larch St",
               "types" : [ "route" ]
            },
            {
               "long_name" : "Parkside",
               "short_name" : "Parkside",
               "types" : [ "locality", "political" ]
            },
            {
               "long_name" : "Queensland",
               "short_name" : "QLD",
               "types" : [ "administrative_area_level_1", "political" ]
            },
            {
               "long_name" : "Australia",
               "short_name" : "AU",
               "types" : [ "country", "political" ]
            },
            {
               "long_name" : "4825",
               "short_name" : "4825",
               "types" : [ "postal_code" ]
            }
         ],
         "formatted_address" : "2 Larch St, Parkside QLD 4825, Australia",
         "geometry" : {
            "location" : {
               "lat" : -20.7396167,
               "lng" : 139.4846389
            },
            "location_type" : "RANGE_INTERPOLATED",
            "viewport" : {
               "northeast" : {
                  "lat" : -20.7382677197085,
                  "lng" : 139.4859878802915
               },
               "southwest" : {
                  "lat" : -20.7409656802915,
                  "lng" : 139.4832899197085
               }
            }
         },
         "place_id" : "EigyIExhcmNoIFN0LCBQYXJrc2lkZSBRTEQgNDgyNSwgQXVzdHJhbGlhIhoSGAoUChIJ672CdK1TFmoR0MW8V_HuABMQAg",
         "types" : [ "street_address" ]
      },
      {
         "address_components" : [
            {
               "long_name" : "Mount Isa",
               "short_name" : "Mount Isa",
               "types" : [ "colloquial_area", "locality", "political" ]
            },
            {
               "long_name" : "Mount Isa City",
               "short_name" : "Mount Isa",
               "types" : [ "administrative_area_level_2", "political" ]
            },
            {
               "long_name" : "Queensland",
               "short_name" : "QLD",
               "types" : [ "administrative_area_level_1", "political" ]
            },
            {
               "long_name" : "Australia",
               "short_name" : "AU",
               "types" : [ "country", "political" ]
            },
            {
               "long_name" : "4825",
               "short_name" : "4825",
               "types" : [ "postal_code" ]
            }
         ],
         "formatted_address" : "Mount Isa QLD 4825, Australia",
         "geometry" : {
            "bounds" : {
               "northeast" : {
                  "lat" : -20.650018,
                  "lng" : 139.561795
               },
               "southwest" : {
                  "lat" : -20.779763,
                  "lng" : 139.4750001
               }
            },
            "location" : {
               "lat" : -20.7255748,
               "lng" : 139.4927085
            },
            "location_type" : "APPROXIMATE",
            "viewport" : {
               "northeast" : {
                  "lat" : -20.650018,
                  "lng" : 139.561795
               },
               "southwest" : {
                  "lat" : -20.779763,
                  "lng" : 139.4750001
               }
            }
         },
         "place_id" : "ChIJmRs_Zk-wF2oRMHEgf_HuAAQ",
         "types" : [ "colloquial_area", "locality", "political" ]
      },
      {
         "address_components" : [
            {
               "long_name" : "Mount Isa",
               "short_name" : "Mount Isa",
               "types" : [ "locality", "political" ]
            },
            {
               "long_name" : "Mount Isa City",
               "short_name" : "Mount Isa",
               "types" : [ "administrative_area_level_2", "political" ]
            },
            {
               "long_name" : "Queensland",
               "short_name" : "QLD",
               "types" : [ "administrative_area_level_1", "political" ]
            },
            {
               "long_name" : "Australia",
               "short_name" : "AU",
               "types" : [ "country", "political" ]
            },
            {
               "long_name" : "4825",
               "short_name" : "4825",
               "types" : [ "postal_code" ]
            }
         ],
         "formatted_address" : "Mount Isa QLD 4825, Australia",
         "geometry" : {
            "bounds" : {
               "northeast" : {
                  "lat" : -20.0220594,
                  "lng" : 140.0328872
               },
               "southwest" : {
                  "lat" : -20.9677216,
                  "lng" : 138.8699382
               }
            },
            "location" : {
               "lat" : -20.6976372,
               "lng" : 139.4850601
            },
            "location_type" : "APPROXIMATE",
            "viewport" : {
               "northeast" : {
                  "lat" : -20.0220594,
                  "lng" : 140.0328872
               },
               "southwest" : {
                  "lat" : -20.9677216,
                  "lng" : 138.8699382
               }
            }
         },
         "place_id" : "ChIJ1_HJeftSFmoRsA8hf_HuAAU",
         "types" : [ "locality", "political" ]
      },
      {
         "address_components" : [
            {
               "long_name" : "Mount Isa City",
               "short_name" : "Mount Isa",
               "types" : [ "administrative_area_level_2", "political" ]
            },
            {
               "long_name" : "Queensland",
               "short_name" : "QLD",
               "types" : [ "administrative_area_level_1", "political" ]
            },
            {
               "long_name" : "Australia",
               "short_name" : "AU",
               "types" : [ "country", "political" ]
            }
         ],
         "formatted_address" : "Mount Isa, QLD, Australia",
         "geometry" : {
            "bounds" : {
               "northeast" : {
                  "lat" : -18.1775381,
                  "lng" : 140.0328872
               },
               "southwest" : {
                  "lat" : -21.3149793,
                  "lng" : 137.9955162
               }
            },
            "location" : {
               "lat" : -20.0716836,
               "lng" : 138.3988186
            },
            "location_type" : "APPROXIMATE",
            "viewport" : {
               "northeast" : {
                  "lat" : -18.1775381,
                  "lng" : 140.0328872
               },
               "southwest" : {
                  "lat" : -21.3149793,
                  "lng" : 137.9955162
               }
            }
         },
         "place_id" : "ChIJN-Utm07oGWoRfJjhT8zMYbA",
         "types" : [ "administrative_area_level_2", "political" ]
      },
      {
         "address_components" : [
            {
               "long_name" : "4825",
               "short_name" : "4825",
               "types" : [ "postal_code" ]
            },
            {
               "long_name" : "Menzie",
               "short_name" : "Menzie",
               "types" : [ "locality", "political" ]
            },
            {
               "long_name" : "Queensland",
               "short_name" : "QLD",
               "types" : [ "administrative_area_level_1", "political" ]
            },
            {
               "long_name" : "Australia",
               "short_name" : "AU",
               "types" : [ "country", "political" ]
            }
         ],
         "formatted_address" : "Menzie QLD 4825, Australia",
         "geometry" : {
            "bounds" : {
               "northeast" : {
                  "lat" : -16.8764721,
                  "lng" : 141.6919536
               },
               "southwest" : {
                  "lat" : -22.7738938,
                  "lng" : 136.440959
               }
            },
            "location" : {
               "lat" : -20.6905688,
               "lng" : 138.3988186
            },
            "location_type" : "APPROXIMATE",
            "viewport" : {
               "northeast" : {
                  "lat" : -16.8764721,
                  "lng" : 141.6919536
               },
               "southwest" : {
                  "lat" : -22.7738938,
                  "lng" : 136.440959
               }
            }
         },
         "place_id" : "ChIJEVK39q3oF2oRcCkJ0_TuABw",
         "postcode_localities" : [
            "Alpurrurulam",
            "Barkly",
            "Breakaway",
            "Buckingham",
            "Carrandotta",
            "Dajarra",
            "Duchess",
            "Fielding",
            "Fisher",
            "Georgina",
            "Gunpowder",
            "Happy Valley",
            "Healy",
            "Kalkadoon",
            "Lanskey",
            "Lawn Hill",
            "Menzie",
            "Mica Creek",
            "Miles End",
            "Mornington",
            "Mount Isa",
            "Parkside",
            "Pioneer",
            "Piturie",
            "Ranken",
            "Ryan",
            "Soldiers Hill",
            "Spreadborough",
            "Sunset",
            "The Gap",
            "Townview",
            "Waverley",
            "Winston"
         ],
         "types" : [ "postal_code" ]
      },
      {
         "address_components" : [
            {
               "long_name" : "Queensland",
               "short_name" : "Queensland",
               "types" : [ "administrative_area_level_1", "political" ]
            },
            {
               "long_name" : "Australia",
               "short_name" : "AU",
               "types" : [ "country", "political" ]
            }
         ],
         "formatted_address" : "Queensland, Australia",
         "geometry" : {
            "bounds" : {
               "northeast" : {
                  "lat" : -9.210063,
                  "lng" : 153.6497891
               },
               "southwest" : {
                  "lat" : -29.1778976,
                  "lng" : 137.9959572
               }
            },
            "location" : {
               "lat" : -20.9175738,
               "lng" : 142.7027956
            },
            "location_type" : "APPROXIMATE",
            "viewport" : {
               "northeast" : {
                  "lat" : -9.210063,
                  "lng" : 153.6497891
               },
               "southwest" : {
                  "lat" : -29.1778976,
                  "lng" : 137.9959572
               }
            }
         },
         "place_id" : "ChIJ_dxieiTf1GsRmb4SdiLQ8vU",
         "types" : [ "administrative_area_level_1", "political" ]
      },
      {
         "address_components" : [
            {
               "long_name" : "Australia",
               "short_name" : "AU",
               "types" : [ "country", "political" ]
            }
         ],
         "formatted_address" : "Australia",
         "geometry" : {
            "bounds" : {
               "northeast" : {
                  "lat" : -9.187026399999999,
                  "lng" : 159.2872223
               },
               "southwest" : {
                  "lat" : -54.83376579999999,
                  "lng" : 110.9510339
               }
            },
            "location" : {
               "lat" : -25.274398,
               "lng" : 133.775136
            },
            "location_type" : "APPROXIMATE",
            "viewport" : {
               "northeast" : {
                  "lat" : -9.187026399999999,
                  "lng" : 159.2872223
               },
               "southwest" : {
                  "lat" : -54.83376579999999,
                  "lng" : 110.9510339
               }
            }
         },
         "place_id" : "ChIJ38WHZwf9KysRUhNblaFnglM",
         "types" : [ "country", "political" ]
      }
   ],
   "status" : "OK"
}
