{
   "plus_code" : {
      "compound_code" : "R86V+5F Gentilly, France",
      "global_code" : "8FW4R86V+5F"
   },
   "results" : [
      {
         "address_components" : [
            {
               "long_name" : "82",
               "short_name" : "82",
               "types" : [ "street_number" ]
            },
            {
               "long_name" : "Avenue Raspail",
               "short_name" : "Avenue Raspail",
               "types" : [ "route" ]
            },
            {
               "long_name" : "Gentilly",
               "short_name" : "Gentilly",
               "types" : [ "locality", "political" ]
            },
            {
               "long_name" : "Val-de-Marne",
               "short_name" : "Val-de-Marne",
               "types" : [ "administrative_area_level_2", "political" ]
            },
            {
               "long_name" : "Île-de-France",
               "short_name" : "Île-de-France",
               "types" : [ "administrative_area_level_1", "political" ]
            },
            {
               "long_name" : "France",
               "short_name" : "FR",
               "types" : [ "country", "political" ]
            },
            {
               "long_name" : "94250",
               "short_name" : "94250",
               "types" : [ "postal_code" ]
            }
         ],
         "formatted_address" : "82 Avenue Raspail, 94250 Gentilly, France",
         "geometry" : {
            "location" : {
               "lat" : 48.8103843,
               "lng" : 2.3436421
            },
            "location_type" : "ROOFTOP",
            "viewport" : {
               "northeast" : {
                  "lat" : 48.8117332802915,
                  "lng" : 2.344991080291502
               },
               "southwest" : {
                  "lat" : 48.8090353197085,
                  "lng" : 2.342293119708498
               }
            }
         },
         "place_id" : "ChIJgdzegnNx5kcRc_g7EHQcaB8",
         "plus_code" : {
            "compound_code" : "R86V+5F Gentilly, France",
            "global_code" : "8FW4R86V+5F"
         },
         "types" : [ "establishment", "point_of_interest" ]
      },
      {
         "address_components" : [
            {
               "long_name" : "82",
               "short_name" : "82",
               "types" : [ "street_number" ]
            },
            {
               "long_name" : "Avenue Raspail",
               "short_name" : "Avenue Raspail",
               "types" : [ "route" ]
            },
            {
               "long_name" : "Gentilly",
               "short_name" : "Gentilly",
               "types" : [ "locality", "political" ]
            },
            {
               "long_name" : "Val-de-Marne",
               "short_name" : "Val-de-Marne",
               "types" : [ "administrative_area_level_2", "political" ]
            },
            {
               "long_name" : "Île-de-France",
               "short_name" : "Île-de-France",
               "types" : [ "administrative_area_level_1", "political" ]
            },
            {
               "long_name" : "France",
               "short_name" : "FR",
               "types" : [ "country", "political" ]
            },
            {
               "long_name" : "94250",
               "short_name" : "94250",
               "types" : [ "postal_code" ]
            }
         ],
         "formatted_address" : "82 Avenue Raspail, 94250 Gentilly, France",
         "geometry" : {
            "location" : {
               "lat" : 48.8103843,
               "lng" : 2.3436421
            },
            "location_type" : "ROOFTOP",
            "viewport" : {
               "northeast" : {
                  "lat" : 48.8117332802915,
                  "lng" : 2.344991080291502
               },
               "southwest" : {
                  "lat" : 48.8090353197085,
                  "lng" : 2.342293119708498
               }
            }
         },
         "place_id" : "ChIJgdzegnNx5kcRsTSUAPnv2bI",
         "plus_code" : {
            "compound_code" : "R86V+5F Gentilly, France",
            "global_code" : "8FW4R86V+5F"
         },
         "types" : [ "street_address" ]
      },
      {
         "address_components" : [
            {
               "long_name" : "82",
               "short_name" : "82",
               "types" : [ "street_number" ]
            },
            {
               "long_name" : "Avenue Raspail",
               "short_name" : "Avenue Raspail",
               "types" : [ "route" ]
            },
            {
               "long_name" : "Gentilly",
               "short_name" : "Gentilly",
               "types" : [ "locality", "political" ]
            },
            {
               "long_name" : "France",
               "short_name" : "FR",
               "types" : [ "country", "political" ]
            },
            {
               "long_name" : "94250",
               "short_name" : "94250",
               "types" : [ "postal_code" ]
            }
         ],
         "formatted_address" : "82 Avenue Raspail, 94250 Gentilly, France",
         "geometry" : {
            "location" : {
               "lat" : 48.8101861,
               "lng" : 2.3439017
            },
            "location_type" : "RANGE_INTERPOLATED",
            "viewport" : {
               "northeast" : {
                  "lat" : 48.81153508029149,
                  "lng" : 2.345250680291502
               },
               "southwest" : {
                  "lat" : 48.80883711970849,
                  "lng" : 2.342552719708498
               }
            }
         },
         "place_id" : "Eik4MiBBdmVudWUgUmFzcGFpbCwgOTQyNTAgR2VudGlsbHksIEZyYW5jZSIaEhgKFAoSCQv-UIVzceZHEZPHAOm2_VFXEFI",
         "types" : [ "street_address" ]
      },
      {
         "address_components" : [
            {
               "long_name" : "Gentilly",
               "short_name" : "Gentilly",
               "types" : [ "locality", "political" ]
            },
            {
               "long_name" : "Val-de-Marne",
               "short_name" : "Val-de-Marne",
               "types" : [ "administrative_area_level_2", "political" ]
            },
            {
               "long_name" : "Île-de-France",
               "short_name" : "Île-de-France",
               "types" : [ "administrative_area_level_1", "political" ]
            },
            {
               "long_name" : "France",
               "short_name" : "FR",
               "types" : [ "country", "political" ]
            },
            {
               "long_name" : "94250",
               "short_name" : "94250",
               "types" : [ "postal_code" ]
            }
         ],
         "formatted_address" : "94250 Gentilly, France",
         "geometry" : {
            "bounds" : {
               "northeast" : {
                  "lat" : 48.8184889,
                  "lng" : 2.356331
               },
               "southwest" : {
                  "lat" : 48.80537,
                  "lng" : 2.3290449
               }
            },
            "location" : {
               "lat" : 48.8138999,
               "lng" : 2.344688
            },
            "location_type" : "APPROXIMATE",
            "viewport" : {
               "northeast" : {
                  "lat" : 48.8184889,
                  "lng" : 2.356331
               },
               "southwest" : {
                  "lat" : 48.80537,
                  "lng" : 2.3290449
               }
            }
         },
         "place_id" : "ChIJRQ0vknRx5kcRIDmLaMOCCwQ",
         "types" : [ "locality", "political" ]
      },
      {
         "address_components" : [
            {
               "long_name" : "94250",
               "short_name" : "94250",
               "types" : [ "postal_code" ]
            },
            {
               "long_name" : "Gentilly",
               "short_name" : "Gentilly",
               "types" : [ "locality", "political" ]
            },
            {
               "long_name" : "Val-de-Marne",
               "short_name" : "Val-de-Marne",
               "types" : [ "administrative_area_level_2", "political" ]
            },
            {
               "long_name" : "Île-de-France",
               "short_name" : "Île-de-France",
               "types" : [ "administrative_area_level_1", "political" ]
            },
            {
               "long_name" : "France",
               "short_name" : "FR",
               "types" : [ "country", "political" ]
            }
         ],
         "formatted_address" : "94250 Gentilly, France",
         "geometry" : {
            "bounds" : {
               "northeast" : {
                  "lat" : 48.81851289999999,
                  "lng" : 2.3564187
               },
               "southwest" : {
                  "lat" : 48.8053675,
                  "lng" : 2.329117
               }
            },
            "location" : {
               "lat" : 48.8121798,
               "lng" : 2.3450311
            },
            "location_type" : "APPROXIMATE",
            "viewport" : {
               "northeast" : {
                  "lat" : 48.81851289999999,
                  "lng" : 2.3564187
               },
               "southwest" : {
                  "lat" : 48.8053675,
                  "lng" : 2.329117
               }
            }
         },
         "place_id" : "ChIJRQ0vknRx5kcRIIXY4caCCxw",
         "types" : [ "postal_code" ]
      },
      {
         "address_components" : [
            {
               "long_name" : "Val-de-Marne",
               "short_name" : "Val-de-Marne",
               "types" : [ "administrative_area_level_2", "political" ]
            },
            {
               "long_name" : "Île-de-France",
               "short_name" : "Île-de-France",
               "types" : [ "administrative_area_level_1", "political" ]
            },
            {
               "long_name" : "France",
               "short_name" : "FR",
               "types" : [ "country", "political" ]
            }
         ],
         "formatted_address" : "Val-de-Marne, France",
         "geometry" : {
            "bounds" : {
               "northeast" : {
                  "lat" : 48.861484,
                  "lng" : 2.6156419
               },
               "southwest" : {
                  "lat" : 48.68764300000001,
                  "lng" : 2.3086759
               }
            },
            "location" : {
               "lat" : 48.7931426,
               "lng" : 2.4740337
            },
            "location_type" : "APPROXIMATE",
            "viewport" : {
               "northeast" : {
                  "lat" : 48.861484,
                  "lng" : 2.6156419
               },
               "southwest" : {
                  "lat" : 48.68764300000001,
                  "lng" : 2.3086759
               }
            }
         },
         "place_id" : "ChIJaxiZwqcM5kcRYCuLaMOCCwM",
         "types" : [ "administrative_area_level_2", "political" ]
      },
      {
         "address_components" : [
            {
               "long_name" : "Île-de-France",
               "short_name" : "Île-de-France",
               "types" : [ "administrative_area_level_1", "political" ]
            },
            {
               "long_name" : "France",
               "short_name" : "FR",
               "types" : [ "country", "political" ]
            }
         ],
         "formatted_address" : "Île-de-France, France",
         "geometry" : {
            "bounds" : {
               "northeast" : {
                  "lat" : 49.241504,
                  "lng" : 3.5590069
               },
               "southwest" : {
                  "lat" : 48.1200811,
                  "lng" : 1.44617
               }
            },
            "location" : {
               "lat" : 48.8499198,
               "lng" : 2.6370411
            },
            "location_type" : "APPROXIMATE",
            "viewport" : {
               "northeast" : {
                  "lat" : 49.241504,
                  "lng" : 3.5590069
               },
               "southwest" : {
                  "lat" : 48.1200811,
                  "lng" : 1.44617
               }
            }
         },
         "place_id" : "ChIJF4ymA8Th5UcRcCWLaMOCCwE",
         "types" : [ "administrative_area_level_1", "political" ]
      },
      {
         "address_components" : [
            {
               "long_name" : "France",
               "short_name" : "FR",
               "types" : [ "country", "political" ]
            }
         ],
         "formatted_address" : "France",
         "geometry" : {
            "bounds" : {
               "northeast" : {
                  "lat" : 51.1241999,
                  "lng" : 9.6624999
               },
               "southwest" : {
                  "lat" : 41.31433,
                  "lng" : -5.5591
               }
            },
            "location" : {
               "lat" : 46.227638,
               "lng" : 2.213749
            },
            "location_type" : "APPROXIMATE",
            "viewport" : {
               "northeast" : {
                  "lat" : 51.1241999,
                  "lng" : 9.6624999
               },
               "southwest" : {
                  "lat" : 41.31433,
                  "lng" : -5.5591
               }
            }
         },
         "place_id" : "ChIJMVd4MymgVA0R99lHx5Y__Ws",
         "types" : [ "country", "political" ]
      }
   ],
   "status" : "OK"
}
