{
   "plus_code" : {
      "compound_code" : "X33C+Q6 Knoxville, TN, USA",
      "global_code" : "867RX33C+Q6"
   },
   "results" : [
      {
         "address_components" : [
            {
               "long_name" : "1015",
               "short_name" : "1015",
               "types" : [ "street_number" ]
            },
            {
               "long_name" : "Volunteer Boulevard",
               "short_name" : "Volunteer Blvd",
               "types" : [ "route" ]
            },
            {
               "long_name" : "Knoxville",
               "short_name" : "Knoxville",
               "types" : [ "locality", "political" ]
            },
            {
               "long_name" : "Knox County",
               "short_name" : "Knox County",
               "types" : [ "administrative_area_level_2", "political" ]
            },
            {
               "long_name" : "Tennessee",
               "short_name" : "TN",
               "types" : [ "administrative_area_level_1", "political" ]
            },
            {
               "long_name" : "United States",
               "short_name" : "US",
               "types" : [ "country", "political" ]
            },
            {
               "long_name" : "37996",
               "short_name" : "37996",
               "types" : [ "postal_code" ]
            },
            {
               "long_name" : "4519",
               "short_name" : "4519",
               "types" : [ "postal_code_suffix" ]
            }
         ],
         "formatted_address" : "1015 Volunteer Blvd, Knoxville, TN 37996, USA",
         "geometry" : {
            "location" : {
               "lat" : 35.9550925,
               "lng" : -83.92976349999999
            },
            "location_type" : "ROOFTOP",
            "viewport" : {
               "northeast" : {
                  "lat" : 35.9564414802915,
                  "lng" : -83.92841451970848
               },
               "southwest" : {
                  "lat" : 35.9537435197085,
                  "lng" : -83.93111248029149
               }
            }
         },
         "place_id" : "ChIJX0q5rOEXXIgR-rQ2moeTz7s",
         "plus_code" : {
            "compound_code" : "X34C+23 Knoxville, Tennessee, United States",
            "global_code" : "867RX34C+23"
         },
         "types" : [ "establishment", "library", "point_of_interest" ]
      },
      {
         "address_components" : [
            {
               "long_name" : "Unnamed Road",
               "short_name" : "Unnamed Road",
               "types" : [ "route" ]
            },
            {
               "long_name" : "Knoxville",
               "short_name" : "Knoxville",
               "types" : [ "locality", "political" ]
            },
            {
               "long_name" : "Knox County",
               "short_name" : "Knox County",
               "types" : [ "administrative_area_level_2", "political" ]
            },
            {
               "long_name" : "Tennessee",
               "short_name" : "TN",
               "types" : [ "administrative_area_level_1", "political" ]
            },
            {
               "long_name" : "United States",
               "short_name" : "US",
               "types" : [ "country", "political" ]
            },
            {
               "long_name" : "37916",
               "short_name" : "37916",
               "types" : [ "postal_code" ]
            }
         ],
         "formatted_address" : "Unnamed Road, Knoxville, TN 37916, USA",
         "geometry" : {
            "bounds" : {
               "northeast" : {
                  "lat" : 35.9546925,
                  "lng" : -83.9290793
               },
               "southwest" : {
                  "lat" : 35.954161,
                  "lng" : -83.9294269
               }
            },
            "location" : {
               "lat" : 35.9544268,
               "lng" : -83.92925310000001
            },
            "location_type" : "GEOMETRIC_CENTER",
            "viewport" : {
               "northeast" : {
                  "lat" : 35.9557757302915,
                  "lng" : -83.92790411970849
               },
               "southwest" : {
                  "lat" : 35.9530777697085,
                  "lng" : -83.93060208029149
               }
            }
         },
         "place_id" : "ChIJ3_QrBuEXXIgR4vRpuPjtoXU",
         "types" : [ "route" ]
      },
      {
         "address_components" : [
            {
               "long_name" : "37916",
               "short_name" : "37916",
               "types" : [ "postal_code" ]
            },
            {
               "long_name" : "Knoxville",
               "short_name" : "Knoxville",
               "types" : [ "locality", "political" ]
            },
            {
               "long_name" : "Knox County",
               "short_name" : "Knox County",
               "types" : [ "administrative_area_level_2", "political" ]
            },
            {
               "long_name" : "Tennessee",
               "short_name" : "TN",
               "types" : [ "administrative_area_level_1", "political" ]
            },
            {
               "long_name" : "United States",
               "short_name" : "US",
               "types" : [ "country", "political" ]
            }
         ],
         "formatted_address" : "Knoxville, TN 37916, USA",
         "geometry" : {
            "bounds" : {
               "northeast" : {
                  "lat" : 35.965692,
                  "lng" : -83.9200999
               },
               "southwest" : {
                  "lat" : 35.9411939,
                  "lng" : -83.94656909999999
               }
            },
            "location" : {
               "lat" : 35.9536716,
               "lng" : -83.92810919999999
            },
            "location_type" : "APPROXIMATE",
            "viewport" : {
               "northeast" : {
                  "lat" : 35.965692,
                  "lng" : -83.9200999
               },
               "southwest" : {
                  "lat" : 35.9411939,
                  "lng" : -83.94656909999999
               }
            }
         },
         "place_id" : "ChIJBZ8bFF89XIgRohmbq-OuCso",
         "types" : [ "postal_code" ]
      },
      {
         "address_components" : [
            {
               "long_name" : "Knoxville",
               "short_name" : "Knoxville",
               "types" : [ "locality", "political" ]
            },
            {
               "long_name" : "Knox County",
               "short_name" : "Knox County",
               "types" : [ "administrative_area_level_2", "political" ]
            },
            {
               "long_name" : "Tennessee",
               "short_name" : "TN",
               "types" : [ "administrative_area_level_1", "political" ]
            },
            {
               "long_name" : "United States",
               "short_name" : "US",
               "types" : [ "country", "political" ]
            }
         ],
         "formatted_address" : "Knoxville, TN, USA",
         "geometry" : {
            "bounds" : {
               "northeast" : {
                  "lat" : 36.067428,
                  "lng" : -83.688543
               },
               "southwest" : {
                  "lat" : 35.8494959,
                  "lng" : -84.16162199999999
               }
            },
            "location" : {
               "lat" : 35.9606384,
               "lng" : -83.9207392
            },
            "location_type" : "APPROXIMATE",
            "viewport" : {
               "northeast" : {
                  "lat" : 36.067428,
                  "lng" : -83.688543
               },
               "southwest" : {
                  "lat" : 35.8494959,
                  "lng" : -84.16162199999999
               }
            }
         },
         "place_id" : "ChIJqULORiIWXIgRxTT1xNqS6ns",
         "types" : [ "locality", "political" ]
      },
      {
         "address_components" : [
            {
               "long_name" : "Knox County",
               "short_name" : "Knox County",
               "types" : [ "administrative_area_level_2", "political" ]
            },
            {
               "long_name" : "Tennessee",
               "short_name" : "TN",
               "types" : [ "administrative_area_level_1", "political" ]
            },
            {
               "long_name" : "United States",
               "short_name" : "US",
               "types" : [ "country", "political" ]
            }
         ],
         "formatted_address" : "Knox County, TN, USA",
         "geometry" : {
            "bounds" : {
               "northeast" : {
                  "lat" : 36.1864791,
                  "lng" : -83.6508899
               },
               "southwest" : {
                  "lat" : 35.7938059,
                  "lng" : -84.27346989999999
               }
            },
            "location" : {
               "lat" : 35.9874629,
               "lng" : -83.9419784
            },
            "location_type" : "APPROXIMATE",
            "viewport" : {
               "northeast" : {
                  "lat" : 36.1864791,
                  "lng" : -83.6508899
               },
               "southwest" : {
                  "lat" : 35.7938059,
                  "lng" : -84.27346989999999
               }
            }
         },
         "place_id" : "ChIJdQBFcKMmXIgRhNPZ1WdQsBY",
         "types" : [ "administrative_area_level_2", "political" ]
      },
      {
         "address_components" : [
            {
               "long_name" : "Tennessee",
               "short_name" : "Tennessee",
               "types" : [ "administrative_area_level_1", "political" ]
            },
            {
               "long_name" : "United States",
               "short_name" : "US",
               "types" : [ "country", "political" ]
            }
         ],
         "formatted_address" : "Tennessee, USA",
         "geometry" : {
            "bounds" : {
               "northeast" : {
                  "lat" : 36.678118,
                  "lng" : -81.6469
               },
               "southwest" : {
                  "lat" : 34.9829239,
                  "lng" : -90.3102978
               }
            },
            "location" : {
               "lat" : 35.5174913,
               "lng" : -86.5804473
            },
            "location_type" : "APPROXIMATE",
            "viewport" : {
               "northeast" : {
                  "lat" : 36.678118,
                  "lng" : -81.6469
               },
               "southwest" : {
                  "lat" : 34.9829239,
                  "lng" : -90.3102978
               }
            }
         },
         "place_id" : "ChIJA8-XniNLYYgRVpGBpcEgPgM",
         "types" : [ "administrative_area_level_1", "political" ]
      },
      {
         "address_components" : [
            {
               "long_name" : "United States",
               "short_name" : "US",
               "types" : [ "country", "political" ]
            }
         ],
         "formatted_address" : "United States",
         "geometry" : {
            "bounds" : {
               "northeast" : {
                  "lat" : 71.5388001,
                  "lng" : -66.885417
               },
               "southwest" : {
                  "lat" : 18.7763,
                  "lng" : 170.5957
               }
            },
            "location" : {
               "lat" : 37.09024,
               "lng" : -95.712891
            },
            "location_type" : "APPROXIMATE",
            "viewport" : {
               "northeast" : {
                  "lat" : 71.5388001,
                  "lng" : -66.885417
               },
               "southwest" : {
                  "lat" : 18.7763,
                  "lng" : 170.5957
               }
            }
         },
         "place_id" : "ChIJCzYy5IS16lQRQrfeQ5K5Oxw",
         "types" : [ "country", "political" ]
      }
   ],
   "status" : "OK"
}
