{
   "plus_code" : {
      "compound_code" : "9C9H+H7 Odense, Denmark",
      "global_code" : "9F7G9C9H+H7"
   },
   "results" : [
      {
         "address_components" : [
            {
               "long_name" : "55",
               "short_name" : "55",
               "types" : [ "street_number" ]
            },
            {
               "long_name" : "Campusvej",
               "short_name" : "Campusvej",
               "types" : [ "route" ]
            },
            {
               "long_name" : "Odense M",
               "short_name" : "Odense M",
               "types" : [ "political", "sublocality", "sublocality_level_1" ]
            },
            {
               "long_name" : "Odense",
               "short_name" : "Odense",
               "types" : [ "locality", "political" ]
            },
            {
               "long_name" : "Denmark",
               "short_name" : "DK",
               "types" : [ "country", "political" ]
            },
            {
               "long_name" : "5230",
               "short_name" : "5230",
               "types" : [ "postal_code" ]
            }
         ],
         "formatted_address" : "Campusvej 55, 5230 Odense, Denmark",
         "geometry" : {
            "location" : {
               "lat" : 55.3689827,
               "lng" : 10.4282364
            },
            "location_type" : "ROOFTOP",
            "viewport" : {
               "northeast" : {
                  "lat" : 55.37033168029149,
                  "lng" : 10.4295853802915
               },
               "southwest" : {
                  "lat" : 55.3676337197085,
                  "lng" : 10.4268874197085
               }
            }
         },
         "place_id" : "ChIJ1T1j4k8gTUYRij5c2phDYKk",
         "plus_code" : {
            "compound_code" : "9C9H+H7 Odense, Odense Municipality, Denmark",
            "global_code" : "9F7G9C9H+H7"
         },
         "types" : [ "establishment", "point_of_interest", "university" ]
      },
      {
         "address_components" : [
            {
               "long_name" : "27",
               "short_name" : "27",
               "types" : [ "street_number" ]
            },
            {
               "long_name" : "Campusvej",
               "short_name" : "Campusvej",
               "types" : [ "route" ]
            },
            {
               "long_name" : "Odense M",
               "short_name" : "Odense M",
               "types" : [ "political", "sublocality", "sublocality_level_1" ]
            },
            {
               "long_name" : "Odense",
               "short_name" : "Odense",
               "types" : [ "locality", "political" ]
            },
            {
               "long_name" : "Denmark",
               "short_name" : "DK",
               "types" : [ "country", "political" ]
            },
            {
               "long_name" : "5230",
               "short_name" : "5230",
               "types" : [ "postal_code" ]
            }
         ],
         "formatted_address" : "Campusvej 27, 5230 Odense, Denmark",
         "geometry" : {
            "location" : {
               "lat" : 55.368627,
               "lng" : 10.4282432
            },
            "location_type" : "ROOFTOP",
            "viewport" : {
               "northeast" : {
                  "lat" : 55.36997598029149,
                  "lng" : 10.4295921802915
               },
               "southwest" : {
                  "lat" : 55.36727801970849,
                  "lng" : 10.4268942197085
               }
            }
         },
         "place_id" : "ChIJPQAT_U8gTUYRt8ReDjU9DdY",
         "plus_code" : {
            "compound_code" : "9C9H+F7 Odense, Odense Municipality, Denmark",
            "global_code" : "9F7G9C9H+F7"
         },
         "types" : [ "street_address" ]
      },
      {
         "address_components" : [
            {
               "long_name" : "27",
               "short_name" : "27",
               "types" : [ "street_number" ]
            },
            {
               "long_name" : "Campusvej",
               "short_name" : "Campusvej",
               "types" : [ "route" ]
            },
            {
               "long_name" : "Odense M",
               "short_name" : "Odense M",
               "types" : [ "political", "sublocality", "sublocality_level_1" ]
            },
            {
               "long_name" : "Odense",
               "short_name" : "Odense",
               "types" : [ "administrative_area_level_2", "political" ]
            },
            {
               "long_name" : "Denmark",
               "short_name" : "DK",
               "types" : [ "country", "political" ]
            },
            {
               "long_name" : "5230",
               "short_name" : "5230",
               "types" : [ "postal_code" ]
            }
         ],
         "formatted_address" : "Campusvej 27, 5230 Odense, Denmark",
         "geometry" : {
            "location" : {
               "lat" : 55.36851799999999,
               "lng" : 10.4282515
            },
            "location_type" : "RANGE_INTERPOLATED",
            "viewport" : {
               "northeast" : {
                  "lat" : 55.3698669802915,
                  "lng" : 10.4296004802915
               },
               "southwest" : {
                  "lat" : 55.3671690197085,
                  "lng" : 10.4269025197085
               }
            }
         },
         "place_id" : "EiJDYW1wdXN2ZWogMjcsIDUyMzAgT2RlbnNlLCBEYW5tYXJrIhoSGAoUChIJxzyr4k8gTUYRoyOUKLWphsgQGw",
         "types" : [ "street_address" ]
      },
      {
         "address_components" : [
            {
               "long_name" : "Odense M",
               "short_name" : "Odense M",
               "types" : [ "postal_town" ]
            },
            {
               "long_name" : "Odense M",
               "short_name" : "Odense M",
               "types" : [ "political", "sublocality", "sublocality_level_1" ]
            },
            {
               "long_name" : "Odense",
               "short_name" : "Odense",
               "types" : [ "locality", "political" ]
            },
            {
               "long_name" : "Denmark",
               "short_name" : "DK",
               "types" : [ "country", "political" ]
            },
            {
               "long_name" : "5230",
               "short_name" : "5230",
               "types" : [ "postal_code" ]
            }
         ],
         "formatted_address" : "Odense M, 5230 Odense M, Denmark",
         "geometry" : {
            "bounds" : {
               "northeast" : {
                  "lat" : 55.39336489999999,
                  "lng" : 10.4349828
               },
               "southwest" : {
                  "lat" : 55.3629512,
                  "lng" : 10.371099
               }
            },
            "location" : {
               "lat" : 55.37906169999999,
               "lng" : 10.4033399
            },
            "location_type" : "APPROXIMATE",
            "viewport" : {
               "northeast" : {
                  "lat" : 55.39336489999999,
                  "lng" : 10.4349828
               },
               "southwest" : {
                  "lat" : 55.3629512,
                  "lng" : 10.371099
               }
            }
         },
         "place_id" : "ChIJB3XPTGwgTUYRcMK7eGli3C0",
         "types" : [ "postal_town" ]
      },
      {
         "address_components" : [
            {
               "long_name" : "5230",
               "short_name" : "5230",
               "types" : [ "postal_code" ]
            },
            {
               "long_name" : "Odense M",
               "short_name" : "Odense M",
               "types" : [ "political", "sublocality", "sublocality_level_1" ]
            },
            {
               "long_name" : "Odense",
               "short_name" : "Odense",
               "types" : [ "locality", "political" ]
            },
            {
               "long_name" : "Denmark",
               "short_name" : "DK",
               "types" : [ "country", "political" ]
            }
         ],
         "formatted_address" : "5230 Odense M, Denmark",
         "geometry" : {
            "bounds" : {
               "northeast" : {
                  "lat" : 55.39336489999999,
                  "lng" : 10.4349828
               },
               "southwest" : {
                  "lat" : 55.3629512,
                  "lng" : 10.371099
               }
            },
            "location" : {
               "lat" : 55.37906169999999,
               "lng" : 10.4033399
            },
            "location_type" : "APPROXIMATE",
            "viewport" : {
               "northeast" : {
                  "lat" : 55.39336489999999,
                  "lng" : 10.4349828
               },
               "southwest" : {
                  "lat" : 55.3629512,
                  "lng" : 10.371099
               }
            }
         },
         "place_id" : "ChIJvaR_HA0gTUYRfPih2qxMv1k",
         "types" : [ "postal_code" ]
      },
      {
         "address_components" : [
            {
               "long_name" : "Odense M",
               "short_name" : "Odense M",
               "types" : [ "political", "sublocality", "sublocality_level_1" ]
            },
            {
               "long_name" : "Odense",
               "short_name" : "Odense",
               "types" : [ "locality", "political" ]
            },
            {
               "long_name" : "Denmark",
               "short_name" : "DK",
               "types" : [ "country", "political" ]
            },
            {
               "long_name" : "5230",
               "short_name" : "5230",
               "types" : [ "postal_code" ]
            }
         ],
         "formatted_address" : "Odense M, 5230 Odense, Denmark",
         "geometry" : {
            "bounds" : {
               "northeast" : {
                  "lat" : 55.39336489999999,
                  "lng" : 10.4349828
               },
               "southwest" : {
                  "lat" : 55.3629512,
                  "lng" : 10.371099
               }
            },
            "location" : {
               "lat" : 55.37906169999999,
               "lng" : 10.4033399
            },
            "location_type" : "APPROXIMATE",
            "viewport" : {
               "northeast" : {
                  "lat" : 55.39336489999999,
                  "lng" : 10.4349828
               },
               "southwest" : {
                  "lat" : 55.3629512,
                  "lng" : 10.371099
               }
            }
         },
         "place_id" : "ChIJU5vyZWwgTUYR2GNxg3EA3eI",
         "types" : [ "political", "sublocality", "sublocality_level_1" ]
      },
      {
         "address_components" : [
            {
               "long_name" : "Odense",
               "short_name" : "Odense",
               "types" : [ "locality", "political" ]
            },
            {
               "long_name" : "Denmark",
               "short_name" : "DK",
               "types" : [ "country", "political" ]
            }
         ],
         "formatted_address" : "Odense, Denmark",
         "geometry" : {
            "bounds" : {
               "northeast" : {
                  "lat" : 55.4803016,
                  "lng" : 10.5768529
               },
               "southwest" : {
                  "lat" : 55.288194,
                  "lng" : 10.2187859
               }
            },
            "location" : {
               "lat" : 55.40375599999999,
               "lng" : 10.40237
            },
            "location_type" : "APPROXIMATE",
            "viewport" : {
               "northeast" : {
                  "lat" : 55.4803016,
                  "lng" : 10.5768529
               },
               "southwest" : {
                  "lat" : 55.288194,
                  "lng" : 10.2187859
               }
            }
         },
         "place_id" : "ChIJwSSXQjXZTEYR7PUvO9U0Hjs",
         "types" : [ "locality", "political" ]
      },
      {
         "address_components" : [
            {
               "long_name" : "Odense Municipality",
               "short_name" : "Odense Municipality",
               "types" : [ "administrative_area_level_2", "political" ]
            },
            {
               "long_name" : "Denmark",
               "short_name" : "DK",
               "types" : [ "country", "political" ]
            }
         ],
         "formatted_address" : "Odense Municipality, Denmark",
         "geometry" : {
            "bounds" : {
               "northeast" : {
                  "lat" : 55.4821351,
                  "lng" : 10.5770241
               },
               "southwest" : {
                  "lat" : 55.288366,
                  "lng" : 10.1753021
               }
            },
            "location" : {
               "lat" : 55.3861015,
               "lng" : 10.3537945
            },
            "location_type" : "APPROXIMATE",
            "viewport" : {
               "northeast" : {
                  "lat" : 55.4821351,
                  "lng" : 10.5770241
               },
               "southwest" : {
                  "lat" : 55.288366,
                  "lng" : 10.1753021
               }
            }
         },
         "place_id" : "ChIJwSSXQjXZTEYRByAj2dD1f7c",
         "types" : [ "administrative_area_level_2", "political" ]
      },
      {
         "address_components" : [
            {
               "long_name" : "Region of Southern Denmark",
               "short_name" : "Region of Southern Denmark",
               "types" : [ "administrative_area_level_1", "political" ]
            },
            {
               "long_name" : "Denmark",
               "short_name" : "DK",
               "types" : [ "country", "political" ]
            }
         ],
         "formatted_address" : "Region of Southern Denmark, Denmark",
         "geometry" : {
            "bounds" : {
               "northeast" : {
                  "lat" : 55.956633,
                  "lng" : 10.9557689
               },
               "southwest" : {
                  "lat" : 54.7218369,
                  "lng" : 8.072558899999999
               }
            },
            "location" : {
               "lat" : 55.3307714,
               "lng" : 9.0924903
            },
            "location_type" : "APPROXIMATE",
            "viewport" : {
               "northeast" : {
                  "lat" : 55.956633,
                  "lng" : 10.9557689
               },
               "southwest" : {
                  "lat" : 54.7218369,
                  "lng" : 8.072558899999999
               }
            }
         },
         "place_id" : "ChIJF0eXAaulTEYRQFSorMmvAAM",
         "types" : [ "administrative_area_level_1", "political" ]
      },
      {
         "address_components" : [
            {
               "long_name" : "Denmark",
               "short_name" : "DK",
               "types" : [ "country", "political" ]
            }
         ],
         "formatted_address" : "Denmark",
         "geometry" : {
            "bounds" : {
               "northeast" : {
                  "lat" : 58.02846,
                  "lng" : 15.2298
               },
               "southwest" : {
                  "lat" : 54.4317001,
                  "lng" : 7.855200099999999
               }
            },
            "location" : {
               "lat" : 56.26392,
               "lng" : 9.501785
            },
            "location_type" : "APPROXIMATE",
            "viewport" : {
               "northeast" : {
                  "lat" : 58.02846,
                  "lng" : 15.2298
               },
               "southwest" : {
                  "lat" : 54.4317001,
                  "lng" : 7.855200099999999
               }
            }
         },
         "place_id" : "ChIJ-1-U7rYnS0YRzZLgw9BDh1I",
         "types" : [ "country", "political" ]
      }
   ],
   "status" : "OK"
}
