{
   "plus_code" : {
      "compound_code" : "3M9Q+QH Turin, Metropolitan City of Turin, Italy",
      "global_code" : "8FQ93M9Q+QH"
   },
   "results" : [
      {
         "address_components" : [
            {
               "long_name" : "8",
               "short_name" : "8",
               "types" : [ "street_number" ]
            },
            {
               "long_name" : "Via Giuseppe Verdi",
               "short_name" : "Via G. Verdi",
               "types" : [ "route" ]
            },
            {
               "long_name" : "Torino",
               "short_name" : "Torino",
               "types" : [ "locality", "political" ]
            },
            {
               "long_name" : "Torino",
               "short_name" : "Torino",
               "types" : [ "administrative_area_level_3", "political" ]
            },
            {
               "long_name" : "Città Metropolitana di Torino",
               "short_name" : "TO",
               "types" : [ "administrative_area_level_2", "political" ]
            },
            {
               "long_name" : "Piemonte",
               "short_name" : "Piemonte",
               "types" : [ "administrative_area_level_1", "political" ]
            },
            {
               "long_name" : "Italy",
               "short_name" : "IT",
               "types" : [ "country", "political" ]
            },
            {
               "long_name" : "10124",
               "short_name" : "10124",
               "types" : [ "postal_code" ]
            }
         ],
         "formatted_address" : "Via Giuseppe Verdi, 8, 10124 Torino TO, Italy",
         "geometry" : {
            "location" : {
               "lat" : 45.06942799999999,
               "lng" : 7.6889006
            },
            "location_type" : "ROOFTOP",
            "viewport" : {
               "northeast" : {
                  "lat" : 45.0707769802915,
                  "lng" : 7.690249580291503
               },
               "southwest" : {
                  "lat" : 45.0680790197085,
                  "lng" : 7.687551619708498
               }
            }
         },
         "place_id" : "ChIJNy1yz3ptiEcRtqbN-nI4NDc",
         "plus_code" : {
            "compound_code" : "3M9Q+QH Turin, Metropolitan City of Turin, Italy",
            "global_code" : "8FQ93M9Q+QH"
         },
         "types" : [ "establishment", "point_of_interest", "university" ]
      },
      {
         "address_components" : [
            {
               "long_name" : "17",
               "short_name" : "17",
               "types" : [ "street_number" ]
            },
            {
               "long_name" : "Via Po",
               "short_name" : "Via Po",
               "types" : [ "route" ]
            },
            {
               "long_name" : "Torino",
               "short_name" : "Torino",
               "types" : [ "locality", "political" ]
            },
            {
               "long_name" : "Torino",
               "short_name" : "Torino",
               "types" : [ "administrative_area_level_3", "political" ]
            },
            {
               "long_name" : "Città Metropolitana di Torino",
               "short_name" : "TO",
               "types" : [ "administrative_area_level_2", "political" ]
            },
            {
               "long_name" : "Piemonte",
               "short_name" : "Piemonte",
               "types" : [ "administrative_area_level_1", "political" ]
            },
            {
               "long_name" : "Italy",
               "short_name" : "IT",
               "types" : [ "country", "political" ]
            },
            {
               "long_name" : "10123",
               "short_name" : "10123",
               "types" : [ "postal_code" ]
            }
         ],
         "formatted_address" : "Via Po, 17, 10123 Torino TO, Italy",
         "geometry" : {
            "location" : {
               "lat" : 45.06924919999999,
               "lng" : 7.6887594
            },
            "location_type" : "ROOFTOP",
            "viewport" : {
               "northeast" : {
                  "lat" : 45.07059818029149,
                  "lng" : 7.690108380291503
               },
               "southwest" : {
                  "lat" : 45.06790021970849,
                  "lng" : 7.687410419708498
               }
            }
         },
         "place_id" : "ChIJRaktyXptiEcRcoaJai_haNg",
         "plus_code" : {
            "compound_code" : "3M9Q+MG Turin, Metropolitan City of Turin, Italy",
            "global_code" : "8FQ93M9Q+MG"
         },
         "types" : [ "street_address" ]
      },
      {
         "address_components" : [
            {
               "long_name" : "12",
               "short_name" : "12",
               "types" : [ "street_number" ]
            },
            {
               "long_name" : "Via Po",
               "short_name" : "Via Po",
               "types" : [ "route" ]
            },
            {
               "long_name" : "Torino",
               "short_name" : "Torino",
               "types" : [ "locality", "political" ]
            },
            {
               "long_name" : "Torino",
               "short_name" : "Torino",
               "types" : [ "administrative_area_level_3", "political" ]
            },
            {
               "long_name" : "Città Metropolitana di Torino",
               "short_name" : "TO",
               "types" : [ "administrative_area_level_2", "political" ]
            },
            {
               "long_name" : "Italy",
               "short_name" : "IT",
               "types" : [ "country", "political" ]
            },
            {
               "long_name" : "10123",
               "short_name" : "10123",
               "types" : [ "postal_code" ]
            }
         ],
         "formatted_address" : "Via Po, 12, 10123 Torino TO, Italy",
         "geometry" : {
            "location" : {
               "lat" : 45.0691135,
               "lng" : 7.6887523
            },
            "location_type" : "RANGE_INTERPOLATED",
            "viewport" : {
               "northeast" : {
                  "lat" : 45.0704624802915,
                  "lng" : 7.690101280291502
               },
               "southwest" : {
                  "lat" : 45.0677645197085,
                  "lng" : 7.687403319708498
               }
            }
         },
         "place_id" : "EiNWaWEgUG8sIDEyLCAxMDEyMyBUb3Jpbm8gVE8sIEl0YWxpYSIaEhgKFAoSCaub8st6bYhHEVnleJXLX4GrEAw",
         "types" : [ "street_address" ]
      },
      {
         "address_components" : [
            {
               "long_name" : "10124",
               "short_name" : "10124",
               "types" : [ "postal_code" ]
            },
            {
               "long_name" : "Turin",
               "short_name" : "Turin",
               "types" : [ "locality", "political" ]
            },
            {
               "long_name" : "Turin",
               "short_name" : "Turin",
               "types" : [ "administrative_area_level_3", "political" ]
            },
            {
               "long_name" : "Metropolitan City of Turin",
               "short_name" : "TO",
               "types" : [ "administrative_area_level_2", "political" ]
            },
            {
               "long_name" : "Piedmont",
               "short_name" : "Piedmont",
               "types" : [ "administrative_area_level_1", "political" ]
            },
            {
               "long_name" : "Italy",
               "short_name" : "IT",
               "types" : [ "country", "political" ]
            }
         ],
         "formatted_address" : "10124 Turin, Metropolitan City of Turin, Italy",
         "geometry" : {
            "bounds" : {
               "northeast" : {
                  "lat" : 45.0756261,
                  "lng" : 7.7082633
               },
               "southwest" : {
                  "lat" : 45.062388,
                  "lng" : 7.68462
               }
            },
            "location" : {
               "lat" : 45.0694634,
               "lng" : 7.6968477
            },
            "location_type" : "APPROXIMATE",
            "viewport" : {
               "northeast" : {
                  "lat" : 45.0756261,
                  "lng" : 7.7082633
               },
               "southwest" : {
                  "lat" : 45.062388,
                  "lng" : 7.68462
               }
            }
         },
         "place_id" : "ChIJ6UeJW31tiEcRgKS3k4DmBRw",
         "types" : [ "postal_code" ]
      },
      {
         "address_components" : [
            {
               "long_name" : "Centro",
               "short_name" : "Centro",
               "types" : [ "neighborhood", "political" ]
            },
            {
               "long_name" : "Torino",
               "short_name" : "Torino",
               "types" : [ "locality", "political" ]
            },
            {
               "long_name" : "Torino",
               "short_name" : "Torino",
               "types" : [ "administrative_area_level_3", "political" ]
            },
            {
               "long_name" : "Città Metropolitana di Torino",
               "short_name" : "TO",
               "types" : [ "administrative_area_level_2", "political" ]
            },
            {
               "long_name" : "Piemonte",
               "short_name" : "Piemonte",
               "types" : [ "administrative_area_level_1", "political" ]
            },
            {
               "long_name" : "Italy",
               "short_name" : "IT",
               "types" : [ "country", "political" ]
            }
         ],
         "formatted_address" : "Centro, Torino TO, Italy",
         "geometry" : {
            "bounds" : {
               "northeast" : {
                  "lat" : 45.0806271,
                  "lng" : 7.6985835
               },
               "southwest" : {
                  "lat" : 45.0584561,
                  "lng" : 7.6628351
               }
            },
            "location" : {
               "lat" : 45.071819,
               "lng" : 7.6793437
            },
            "location_type" : "APPROXIMATE",
            "viewport" : {
               "northeast" : {
                  "lat" : 45.0806271,
                  "lng" : 7.6985835
               },
               "southwest" : {
                  "lat" : 45.0584561,
                  "lng" : 7.6628351
               }
            }
         },
         "place_id" : "ChIJRaDfB3JtiEcRsstYWBHn_5Q",
         "types" : [ "neighborhood", "political" ]
      },
      {
         "address_components" : [
            {
               "long_name" : "Turin",
               "short_name" : "Turin",
               "types" : [ "locality", "political" ]
            },
            {
               "long_name" : "Turin",
               "short_name" : "Turin",
               "types" : [ "administrative_area_level_3", "political" ]
            },
            {
               "long_name" : "Metropolitan City of Turin",
               "short_name" : "TO",
               "types" : [ "administrative_area_level_2", "political" ]
            },
            {
               "long_name" : "Piedmont",
               "short_name" : "Piedmont",
               "types" : [ "administrative_area_level_1", "political" ]
            },
            {
               "long_name" : "Italy",
               "short_name" : "IT",
               "types" : [ "country", "political" ]
            }
         ],
         "formatted_address" : "Turin, Metropolitan City of Turin, Italy",
         "geometry" : {
            "bounds" : {
               "northeast" : {
                  "lat" : 45.1335014,
                  "lng" : 7.7623282
               },
               "southwest" : {
                  "lat" : 45.00677659999999,
                  "lng" : 7.5778502
               }
            },
            "location" : {
               "lat" : 45.070312,
               "lng" : 7.686856499999999
            },
            "location_type" : "APPROXIMATE",
            "viewport" : {
               "northeast" : {
                  "lat" : 45.1335014,
                  "lng" : 7.7623282
               },
               "southwest" : {
                  "lat" : 45.00677659999999,
                  "lng" : 7.5778502
               }
            }
         },
         "place_id" : "ChIJJb4YZBJtiEcRv3ec1gP4A4k",
         "types" : [ "locality", "political" ]
      },
      {
         "address_components" : [
            {
               "long_name" : "Turin",
               "short_name" : "Turin",
               "types" : [ "administrative_area_level_3", "locality", "political" ]
            },
            {
               "long_name" : "Metropolitan City of Turin",
               "short_name" : "TO",
               "types" : [ "administrative_area_level_2", "political" ]
            },
            {
               "long_name" : "Piedmont",
               "short_name" : "Piedmont",
               "types" : [ "administrative_area_level_1", "political" ]
            },
            {
               "long_name" : "Italy",
               "short_name" : "IT",
               "types" : [ "country", "political" ]
            }
         ],
         "formatted_address" : "Turin, Metropolitan City of Turin, Italy",
         "geometry" : {
            "bounds" : {
               "northeast" : {
                  "lat" : 45.1402009,
                  "lng" : 7.7733629
               },
               "southwest" : {
                  "lat" : 45.00677659999999,
                  "lng" : 7.5778502
               }
            },
            "location" : {
               "lat" : 45.0703393,
               "lng" : 7.686864
            },
            "location_type" : "APPROXIMATE",
            "viewport" : {
               "northeast" : {
                  "lat" : 45.1402009,
                  "lng" : 7.7733629
               },
               "southwest" : {
                  "lat" : 45.00677659999999,
                  "lng" : 7.5778502
               }
            }
         },
         "place_id" : "ChIJ31ztwwxtiEcR4JQ8R33mBQQ",
         "types" : [ "administrative_area_level_3", "locality", "political" ]
      },
      {
         "address_components" : [
            {
               "long_name" : "Metropolitan City of Turin",
               "short_name" : "Metropolitan City of Turin",
               "types" : [ "administrative_area_level_2", "political" ]
            },
            {
               "long_name" : "Piedmont",
               "short_name" : "Piedmont",
               "types" : [ "administrative_area_level_1", "political" ]
            },
            {
               "long_name" : "Italy",
               "short_name" : "IT",
               "types" : [ "country", "political" ]
            }
         ],
         "formatted_address" : "Metropolitan City of Turin, Italy",
         "geometry" : {
            "bounds" : {
               "northeast" : {
                  "lat" : 45.6023132,
                  "lng" : 8.1518579
               },
               "southwest" : {
                  "lat" : 44.713731,
                  "lng" : 6.6266304
               }
            },
            "location" : {
               "lat" : 45.063299,
               "lng" : 7.669289
            },
            "location_type" : "APPROXIMATE",
            "viewport" : {
               "northeast" : {
                  "lat" : 45.6023132,
                  "lng" : 8.1518579
               },
               "southwest" : {
                  "lat" : 44.713731,
                  "lng" : 6.6266304
               }
            }
         },
         "place_id" : "ChIJ_8Ubk5VFiEcRcH08R33mBQM",
         "types" : [ "administrative_area_level_2", "political" ]
      },
      {
         "address_components" : [
            {
               "long_name" : "Piedmont",
               "short_name" : "Piedmont",
               "types" : [ "administrative_area_level_1", "political" ]
            },
            {
               "long_name" : "Italy",
               "short_name" : "IT",
               "types" : [ "country", "political" ]
            }
         ],
         "formatted_address" : "Piedmont, Italy",
         "geometry" : {
            "bounds" : {
               "northeast" : {
                  "lat" : 46.4644351,
                  "lng" : 9.214264099999999
               },
               "southwest" : {
                  "lat" : 44.0600899,
                  "lng" : 6.6266304
               }
            },
            "location" : {
               "lat" : 45.0522366,
               "lng" : 7.5153885
            },
            "location_type" : "APPROXIMATE",
            "viewport" : {
               "northeast" : {
                  "lat" : 46.4644351,
                  "lng" : 9.214264099999999
               },
               "southwest" : {
                  "lat" : 44.0600899,
                  "lng" : 6.6266304
               }
            }
         },
         "place_id" : "ChIJZ7GdATt0h0cR_zsS8u24x7w",
         "types" : [ "administrative_area_level_1", "political" ]
      },
      {
         "address_components" : [
            {
               "long_name" : "Italy",
               "short_name" : "IT",
               "types" : [ "country", "political" ]
            }
         ],
         "formatted_address" : "Italy",
         "geometry" : {
            "bounds" : {
               "northeast" : {
                  "lat" : 47.092,
                  "lng" : 18.7975999
               },
               "southwest" : {
                  "lat" : 35.4897,
                  "lng" : 6.6267201
               }
            },
            "location" : {
               "lat" : 41.87194,
               "lng" : 12.56738
            },
            "location_type" : "APPROXIMATE",
            "viewport" : {
               "northeast" : {
                  "lat" : 47.092,
                  "lng" : 18.7975999
               },
               "southwest" : {
                  "lat" : 35.4897,
                  "lng" : 6.6267201
               }
            }
         },
         "place_id" : "ChIJA9KNRIL-1BIRb15jJFz1LOI",
         "types" : [ "country", "political" ]
      }
   ],
   "status" : "OK"
}
