{
   "plus_code" : {
      "compound_code" : "JCGG+M2 Fukuoka, Fukuoka Prefecture, Japan",
      "global_code" : "8Q5GJCGG+M2"
   },
   "results" : [
      {
         "address_components" : [
            {
               "long_name" : "Unnamed Road",
               "short_name" : "Unnamed Road",
               "types" : [ "route" ]
            },
            {
               "long_name" : "6 Chome",
               "short_name" : "6 Chome",
               "types" : [ "political", "sublocality", "sublocality_level_3" ]
            },
            {
               "long_name" : "Hakozaki",
               "short_name" : "Hakozaki",
               "types" : [ "political", "sublocality", "sublocality_level_2" ]
            },
            {
               "long_name" : "Higashi-ku",
               "short_name" : "Higashi-ku",
               "types" : [ "political", "sublocality", "sublocality_level_1" ]
            },
            {
               "long_name" : "Fukuoka-shi",
               "short_name" : "Fukuoka-shi",
               "types" : [ "locality", "political" ]
            },
            {
               "long_name" : "Fukuoka-ken",
               "short_name" : "Fukuoka-ken",
               "types" : [ "administrative_area_level_1", "political" ]
            },
            {
               "long_name" : "Japan",
               "short_name" : "JP",
               "types" : [ "country", "political" ]
            },
            {
               "long_name" : "812-0053",
               "short_name" : "812-0053",
               "types" : [ "postal_code" ]
            }
         ],
         "formatted_address" : "Unnamed Road, 6 Chome Hakozaki, Higashi-ku, Fukuoka-shi, Fukuoka-ken 812-0053, Japan",
         "geometry" : {
            "bounds" : {
               "northeast" : {
                  "lat" : 33.6305646,
                  "lng" : 130.4251339
               },
               "southwest" : {
                  "lat" : 33.6258798,
                  "lng" : 130.4232249
               }
            },
            "location" : {
               "lat" : 33.6282222,
               "lng" : 130.4241794
            },
            "location_type" : "GEOMETRIC_CENTER",
            "viewport" : {
               "northeast" : {
                  "lat" : 33.6305646,
                  "lng" : 130.4255283802915
               },
               "southwest" : {
                  "lat" : 33.6258798,
                  "lng" : 130.4228304197085
               }
            }
         },
         "place_id" : "ChIJT8O_GkmOQTUR6lgV_SU_Uy0",
         "types" : [ "route" ]
      },
      {
         "address_components" : [
            {
               "long_name" : "6 Chome",
               "short_name" : "6 Chome",
               "types" : [ "political", "sublocality", "sublocality_level_3" ]
            },
            {
               "long_name" : "Hakozaki",
               "short_name" : "Hakozaki",
               "types" : [ "political", "sublocality", "sublocality_level_2" ]
            },
            {
               "long_name" : "Higashi Ward",
               "short_name" : "Higashi Ward",
               "types" : [ "political", "sublocality", "sublocality_level_1" ]
            },
            {
               "long_name" : "Fukuoka",
               "short_name" : "Fukuoka",
               "types" : [ "locality", "political" ]
            },
            {
               "long_name" : "Fukuoka Prefecture",
               "short_name" : "Fukuoka Prefecture",
               "types" : [ "administrative_area_level_1", "political" ]
            },
            {
               "long_name" : "Japan",
               "short_name" : "JP",
               "types" : [ "country", "political" ]
            },
            {
               "long_name" : "812-0053",
               "short_name" : "812-0053",
               "types" : [ "postal_code" ]
            }
         ],
         "formatted_address" : "6 Chome Hakozaki, Higashi Ward, Fukuoka, Fukuoka Prefecture 812-0053, Japan",
         "geometry" : {
            "bounds" : {
               "northeast" : {
                  "lat" : 33.6323977,
                  "lng" : 130.4276595
               },
               "southwest" : {
                  "lat" : 33.6206881,
                  "lng" : 130.4200519
               }
            },
            "location" : {
               "lat" : 33.6248068,
               "lng" : 130.4214601
            },
            "location_type" : "APPROXIMATE",
            "viewport" : {
               "northeast" : {
                  "lat" : 33.6323977,
                  "lng" : 130.4276595
               },
               "southwest" : {
                  "lat" : 33.6206881,
                  "lng" : 130.4200519
               }
            }
         },
         "place_id" : "ChIJUfSMtUmOQTUR--dA-nSX92A",
         "types" : [ "political", "sublocality", "sublocality_level_3" ]
      },
      {
         "address_components" : [
            {
               "long_name" : "10",
               "short_name" : "10",
               "types" : [ "political", "sublocality", "sublocality_level_4" ]
            },
            {
               "long_name" : "6 Chome",
               "short_name" : "6 Chome",
               "types" : [ "political", "sublocality", "sublocality_level_3" ]
            },
            {
               "long_name" : "Hakozaki",
               "short_name" : "Hakozaki",
               "types" : [ "political", "sublocality", "sublocality_level_2" ]
            },
            {
               "long_name" : "Higashi Ward",
               "short_name" : "Higashi Ward",
               "types" : [ "political", "sublocality", "sublocality_level_1" ]
            },
            {
               "long_name" : "Fukuoka",
               "short_name" : "Fukuoka",
               "types" : [ "locality", "political" ]
            },
            {
               "long_name" : "Fukuoka Prefecture",
               "short_name" : "Fukuoka Prefecture",
               "types" : [ "administrative_area_level_1", "political" ]
            },
            {
               "long_name" : "Japan",
               "short_name" : "JP",
               "types" : [ "country", "political" ]
            },
            {
               "long_name" : "812-0053",
               "short_name" : "812-0053",
               "types" : [ "postal_code" ]
            }
         ],
         "formatted_address" : "6 Chome-10 Hakozaki, Higashi Ward, Fukuoka, Fukuoka Prefecture 812-0053, Japan",
         "geometry" : {
            "bounds" : {
               "northeast" : {
                  "lat" : 33.6321175,
                  "lng" : 130.427165
               },
               "southwest" : {
                  "lat" : 33.6206881,
                  "lng" : 130.4214327
               }
            },
            "location" : {
               "lat" : 33.6271705,
               "lng" : 130.4249154
            },
            "location_type" : "GEOMETRIC_CENTER",
            "viewport" : {
               "northeast" : {
                  "lat" : 33.6321175,
                  "lng" : 130.427165
               },
               "southwest" : {
                  "lat" : 33.6206881,
                  "lng" : 130.4214327
               }
            }
         },
         "place_id" : "ChIJwV8XuEmOQTUR6ghHY5siQZQ",
         "types" : [ "political", "sublocality", "sublocality_level_4" ]
      },
      {
         "address_components" : [
            {
               "long_name" : "Hakozaki",
               "short_name" : "Hakozaki",
               "types" : [ "political", "sublocality", "sublocality_level_2" ]
            },
            {
               "long_name" : "Higashi Ward",
               "short_name" : "Higashi Ward",
               "types" : [ "political", "sublocality", "sublocality_level_1" ]
            },
            {
               "long_name" : "Fukuoka",
               "short_name" : "Fukuoka",
               "types" : [ "locality", "political" ]
            },
            {
               "long_name" : "Fukuoka Prefecture",
               "short_name" : "Fukuoka Prefecture",
               "types" : [ "administrative_area_level_1", "political" ]
            },
            {
               "long_name" : "Japan",
               "short_name" : "JP",
               "types" : [ "country", "political" ]
            },
            {
               "long_name" : "812-0053",
               "short_name" : "812-0053",
               "types" : [ "postal_code" ]
            }
         ],
         "formatted_address" : "Hakozaki, Higashi Ward, Fukuoka, Fukuoka Prefecture 812-0053, Japan",
         "geometry" : {
            "bounds" : {
               "northeast" : {
                  "lat" : 33.6411466,
                  "lng" : 130.4278038
               },
               "southwest" : {
                  "lat" : 33.612511,
                  "lng" : 130.4121579
               }
            },
            "location" : {
               "lat" : 33.6181799,
               "lng" : 130.4226241
            },
            "location_type" : "APPROXIMATE",
            "viewport" : {
               "northeast" : {
                  "lat" : 33.6411466,
                  "lng" : 130.4278038
               },
               "southwest" : {
                  "lat" : 33.612511,
                  "lng" : 130.4121579
               }
            }
         },
         "place_id" : "ChIJNfdkCjiOQTURPkUsTuMtO1s",
         "types" : [ "political", "sublocality", "sublocality_level_2" ]
      },
      {
         "address_components" : [
            {
               "long_name" : "812-0053",
               "short_name" : "812-0053",
               "types" : [ "postal_code" ]
            },
            {
               "long_name" : "Hakozaki",
               "short_name" : "Hakozaki",
               "types" : [ "political", "sublocality", "sublocality_level_2" ]
            },
            {
               "long_name" : "Higashi Ward",
               "short_name" : "Higashi Ward",
               "types" : [ "political", "sublocality", "sublocality_level_1" ]
            },
            {
               "long_name" : "Fukuoka",
               "short_name" : "Fukuoka",
               "types" : [ "locality", "political" ]
            },
            {
               "long_name" : "Fukuoka Prefecture",
               "short_name" : "Fukuoka Prefecture",
               "types" : [ "administrative_area_level_1", "political" ]
            },
            {
               "long_name" : "Japan",
               "short_name" : "JP",
               "types" : [ "country", "political" ]
            }
         ],
         "formatted_address" : "812-0053, Japan",
         "geometry" : {
            "bounds" : {
               "northeast" : {
                  "lat" : 33.6411488,
                  "lng" : 130.4278067
               },
               "southwest" : {
                  "lat" : 33.6125063,
                  "lng" : 130.4121549
               }
            },
            "location" : {
               "lat" : 33.6231042,
               "lng" : 130.4236161
            },
            "location_type" : "APPROXIMATE",
            "viewport" : {
               "northeast" : {
                  "lat" : 33.6411488,
                  "lng" : 130.4278067
               },
               "southwest" : {
                  "lat" : 33.6125063,
                  "lng" : 130.4121549
               }
            }
         },
         "place_id" : "ChIJE90Q_zCOQTURvnE9BzbDzes",
         "types" : [ "postal_code" ]
      },
      {
         "address_components" : [
            {
               "long_name" : "Higashi Ward",
               "short_name" : "Higashi Ward",
               "types" : [ "political", "sublocality", "sublocality_level_1" ]
            },
            {
               "long_name" : "Fukuoka",
               "short_name" : "Fukuoka",
               "types" : [ "locality", "political" ]
            },
            {
               "long_name" : "Fukuoka Prefecture",
               "short_name" : "Fukuoka Prefecture",
               "types" : [ "administrative_area_level_1", "political" ]
            },
            {
               "long_name" : "Japan",
               "short_name" : "JP",
               "types" : [ "country", "political" ]
            }
         ],
         "formatted_address" : "Higashi Ward, Fukuoka, Fukuoka Prefecture, Japan",
         "geometry" : {
            "bounds" : {
               "northeast" : {
                  "lat" : 33.7124072,
                  "lng" : 130.4952857
               },
               "southwest" : {
                  "lat" : 33.6057803,
                  "lng" : 130.2857689
               }
            },
            "location" : {
               "lat" : 33.6177464,
               "lng" : 130.4173912
            },
            "location_type" : "APPROXIMATE",
            "viewport" : {
               "northeast" : {
                  "lat" : 33.7124072,
                  "lng" : 130.4952857
               },
               "southwest" : {
                  "lat" : 33.6057803,
                  "lng" : 130.2857689
               }
            }
         },
         "place_id" : "ChIJJ_3RKYCOQTURsJAULhvqXp8",
         "types" : [ "political", "sublocality", "sublocality_level_1" ]
      },
      {
         "address_components" : [
            {
               "long_name" : "Fukuoka",
               "short_name" : "Fukuoka",
               "types" : [ "locality", "political" ]
            },
            {
               "long_name" : "Fukuoka Prefecture",
               "short_name" : "Fukuoka Prefecture",
               "types" : [ "administrative_area_level_1", "political" ]
            },
            {
               "long_name" : "Japan",
               "short_name" : "JP",
               "types" : [ "country", "political" ]
            }
         ],
         "formatted_address" : "Fukuoka, Fukuoka Prefecture, Japan",
         "geometry" : {
            "bounds" : {
               "northeast" : {
                  "lat" : 33.8741158,
                  "lng" : 130.4952857
               },
               "southwest" : {
                  "lat" : 33.4251209,
                  "lng" : 130.0327939
               }
            },
            "location" : {
               "lat" : 33.5903547,
               "lng" : 130.4017155
            },
            "location_type" : "APPROXIMATE",
            "viewport" : {
               "northeast" : {
                  "lat" : 33.8741158,
                  "lng" : 130.4952857
               },
               "southwest" : {
                  "lat" : 33.4251209,
                  "lng" : 130.0327939
               }
            }
         },
         "place_id" : "ChIJKYSE6aHtQTURg4c5NplyCvY",
         "types" : [ "locality", "political" ]
      },
      {
         "address_components" : [
            {
               "long_name" : "Fukuoka Prefecture",
               "short_name" : "Fukuoka Prefecture",
               "types" : [ "administrative_area_level_1", "political" ]
            },
            {
               "long_name" : "Japan",
               "short_name" : "JP",
               "types" : [ "country", "political" ]
            }
         ],
         "formatted_address" : "Fukuoka Prefecture, Japan",
         "geometry" : {
            "bounds" : {
               "northeast" : {
                  "lat" : 34.2503082,
                  "lng" : 131.1906981
               },
               "southwest" : {
                  "lat" : 33.0000079,
                  "lng" : 129.9818264
               }
            },
            "location" : {
               "lat" : 33.6065756,
               "lng" : 130.418297
            },
            "location_type" : "APPROXIMATE",
            "viewport" : {
               "northeast" : {
                  "lat" : 34.2503082,
                  "lng" : 131.1906981
               },
               "southwest" : {
                  "lat" : 33.0000079,
                  "lng" : 129.9818264
               }
            }
         },
         "place_id" : "ChIJJbF-93qBQTURTThRSvsPopc",
         "types" : [ "administrative_area_level_1", "political" ]
      },
      {
         "address_components" : [
            {
               "long_name" : "Japan",
               "short_name" : "JP",
               "types" : [ "country", "political" ]
            }
         ],
         "formatted_address" : "Japan",
         "geometry" : {
            "bounds" : {
               "northeast" : {
                  "lat" : 45.6412626,
                  "lng" : 154.0031455
               },
               "southwest" : {
                  "lat" : 20.3585295,
                  "lng" : 122.8554688
               }
            },
            "location" : {
               "lat" : 36.204824,
               "lng" : 138.252924
            },
            "location_type" : "APPROXIMATE",
            "viewport" : {
               "northeast" : {
                  "lat" : 45.6412626,
                  "lng" : 154.0031455
               },
               "southwest" : {
                  "lat" : 20.3585295,
                  "lng" : 122.8554688
               }
            }
         },
         "place_id" : "ChIJLxl_1w9OZzQRRFJmfNR1QvU",
         "types" : [ "country", "political" ]
      }
   ],
   "status" : "OK"
}
