{
   "plus_code" : {
      "compound_code" : "QXQX+JP Hsinchu, East District, Hsinchu City, Taiwan",
      "global_code" : "7QP2QXQX+JP"
   },
   "results" : [
      {
         "address_components" : [
            {
               "long_name" : "1001號",
               "short_name" : "1001號",
               "types" : [ "street_number" ]
            },
            {
               "long_name" : "Daxue Road",
               "short_name" : "Daxue Road",
               "types" : [ "route" ]
            },
            {
               "long_name" : "East District",
               "short_name" : "East District",
               "types" : [ "administrative_area_level_3", "political" ]
            },
            {
               "long_name" : "Hsinchu City",
               "short_name" : "Hsinchu City",
               "types" : [ "administrative_area_level_2", "political" ]
            },
            {
               "long_name" : "Taiwan",
               "short_name" : "TW",
               "types" : [ "country", "political" ]
            },
            {
               "long_name" : "30010",
               "short_name" : "30010",
               "types" : [ "postal_code" ]
            }
         ],
         "formatted_address" : "No. 1001號, Daxue Road, East District, Hsinchu City, Taiwan 30010",
         "geometry" : {
            "location" : {
               "lat" : 24.789067,
               "lng" : 120.999263
            },
            "location_type" : "ROOFTOP",
            "viewport" : {
               "northeast" : {
                  "lat" : 24.7904159802915,
                  "lng" : 121.0006119802915
               },
               "southwest" : {
                  "lat" : 24.7877180197085,
                  "lng" : 120.9979140197085
               }
            }
         },
         "place_id" : "ChIJMV8k71c2aDQRmj5yOn_aKTk",
         "plus_code" : {
            "compound_code" : "QXQX+JP Hsinchu, East District, Hsinchu City, Taiwan",
            "global_code" : "7QP2QXQX+JP"
         },
         "types" : [ "establishment", "point_of_interest", "university" ]
      },
      {
         "address_components" : [
            {
               "long_name" : "1001",
               "short_name" : "1001",
               "types" : [ "street_number" ]
            },
            {
               "long_name" : "Daxue Road",
               "short_name" : "Daxue Road",
               "types" : [ "route" ]
            },
            {
               "long_name" : "East District",
               "short_name" : "East District",
               "types" : [ "administrative_area_level_3", "political" ]
            },
            {
               "long_name" : "Hsinchu City",
               "short_name" : "Hsinchu City",
               "types" : [ "administrative_area_level_2", "political" ]
            },
            {
               "long_name" : "Taiwan",
               "short_name" : "TW",
               "types" : [ "country", "political" ]
            },
            {
               "long_name" : "300",
               "short_name" : "300",
               "types" : [ "postal_code" ]
            }
         ],
         "formatted_address" : "No. 1001, Daxue Road, East District, Hsinchu City, Taiwan 300",
         "geometry" : {
            "location" : {
               "lat" : 24.7890674,
               "lng" : 120.9992634
            },
            "location_type" : "ROOFTOP",
            "viewport" : {
               "northeast" : {
                  "lat" : 24.7904163802915,
                  "lng" : 121.0006123802915
               },
               "southwest" : {
                  "lat" : 24.7877184197085,
                  "lng" : 120.9979144197085
               }
            }
         },
         "place_id" : "ChIJKTr23BE2aDQRGVA8ii6513w",
         "plus_code" : {
            "compound_code" : "QXQX+JP Hsinchu, East District, Hsinchu City, Taiwan",
            "global_code" : "7QP2QXQX+JP"
         },
         "types" : [ "street_address" ]
      },
      {
         "address_components" : [
            {
               "long_name" : "1001",
               "short_name" : "1001",
               "types" : [ "street_number" ]
            },
            {
               "long_name" : "Daxue Road",
               "short_name" : "Daxue Road",
               "types" : [ "route" ]
            },
            {
               "long_name" : "East District",
               "short_name" : "East District",
               "types" : [ "administrative_area_level_3", "political" ]
            },
            {
               "long_name" : "Hsinchu City",
               "short_name" : "Hsinchu City",
               "types" : [ "administrative_area_level_2", "political" ]
            },
            {
               "long_name" : "Taiwan",
               "short_name" : "TW",
               "types" : [ "country", "political" ]
            },
            {
               "long_name" : "300",
               "short_name" : "300",
               "types" : [ "postal_code" ]
            }
         ],
         "formatted_address" : "No. 1001, Daxue Road, East District, Hsinchu City, Taiwan 300",
         "geometry" : {
            "location" : {
               "lat" : 24.7887166,
               "lng" : 120.9995919
            },
            "location_type" : "RANGE_INTERPOLATED",
            "viewport" : {
               "northeast" : {
                  "lat" : 24.7900655802915,
                  "lng" : 121.0009408802915
               },
               "southwest" : {
                  "lat" : 24.78736761970849,
                  "lng" : 120.9982429197085
               }
            }
         },
         "place_id" : "EigzMDDlj7DngaPmlrDnq7nluILmnbHljYDlpKflrbjot68xMDAx6JmfIhsSGQoUChIJSUZt2xE2aDQR2jhE5P1-9FAQ6Qc",
         "types" : [ "street_address" ]
      },
      {
         "address_components" : [
            {
               "long_name" : "光明里",
               "short_name" : "光明里",
               "types" : [ "administrative_area_level_4", "political" ]
            },
            {
               "long_name" : "東區",
               "short_name" : "東區",
               "types" : [ "administrative_area_level_3", "political" ]
            },
            {
               "long_name" : "新竹市",
               "short_name" : "新竹市",
               "types" : [ "administrative_area_level_2", "political" ]
            },
            {
               "long_name" : "Taiwan",
               "short_name" : "TW",
               "types" : [ "country", "political" ]
            },
            {
               "long_name" : "300",
               "short_name" : "300",
               "types" : [ "postal_code" ]
            }
         ],
         "formatted_address" : "300, Taiwan, 新竹市東區光明里",
         "geometry" : {
            "bounds" : {
               "northeast" : {
                  "lat" : 24.7998215,
                  "lng" : 121.0055793
               },
               "southwest" : {
                  "lat" : 24.7826199,
                  "lng" : 120.9778747
               }
            },
            "location" : {
               "lat" : 24.7887403,
               "lng" : 120.9962356
            },
            "location_type" : "APPROXIMATE",
            "viewport" : {
               "northeast" : {
                  "lat" : 24.7998215,
                  "lng" : 121.0055793
               },
               "southwest" : {
                  "lat" : 24.7826199,
                  "lng" : 120.9778747
               }
            }
         },
         "place_id" : "ChIJXW0bawk2aDQRlSR_EpFgF9k",
         "types" : [ "administrative_area_level_4", "political" ]
      },
      {
         "address_components" : [
            {
               "long_name" : "Hsinchu",
               "short_name" : "Hsinchu",
               "types" : [ "colloquial_area", "locality", "political" ]
            },
            {
               "long_name" : "East District",
               "short_name" : "East District",
               "types" : [ "administrative_area_level_3", "political" ]
            },
            {
               "long_name" : "Hsinchu City",
               "short_name" : "Hsinchu City",
               "types" : [ "administrative_area_level_2", "political" ]
            },
            {
               "long_name" : "Taiwan",
               "short_name" : "TW",
               "types" : [ "country", "political" ]
            }
         ],
         "formatted_address" : "Hsinchu, East District, Hsinchu City, Taiwan",
         "geometry" : {
            "bounds" : {
               "northeast" : {
                  "lat" : 24.8261386,
                  "lng" : 121.0292242
               },
               "southwest" : {
                  "lat" : 24.7408195,
                  "lng" : 120.9041431
               }
            },
            "location" : {
               "lat" : 24.8138287,
               "lng" : 120.9674798
            },
            "location_type" : "APPROXIMATE",
            "viewport" : {
               "northeast" : {
                  "lat" : 24.8261386,
                  "lng" : 121.0292242
               },
               "southwest" : {
                  "lat" : 24.7408195,
                  "lng" : 120.9041431
               }
            }
         },
         "place_id" : "ChIJEUtLGts1aDQRDDvTtbzcCdQ",
         "types" : [ "colloquial_area", "locality", "political" ]
      },
      {
         "address_components" : [
            {
               "long_name" : "East District",
               "short_name" : "East District",
               "types" : [ "administrative_area_level_3", "political" ]
            },
            {
               "long_name" : "Hsinchu City",
               "short_name" : "Hsinchu City",
               "types" : [ "administrative_area_level_2", "political" ]
            },
            {
               "long_name" : "Taiwan",
               "short_name" : "TW",
               "types" : [ "country", "political" ]
            },
            {
               "long_name" : "300",
               "short_name" : "300",
               "types" : [ "postal_code" ]
            }
         ],
         "formatted_address" : "East District, Hsinchu City, Taiwan 300",
         "geometry" : {
            "bounds" : {
               "northeast" : {
                  "lat" : 24.8260951,
                  "lng" : 121.0335449
               },
               "southwest" : {
                  "lat" : 24.7508903,
                  "lng" : 120.9580438
               }
            },
            "location" : {
               "lat" : 24.7920604,
               "lng" : 120.9933678
            },
            "location_type" : "APPROXIMATE",
            "viewport" : {
               "northeast" : {
                  "lat" : 24.8260951,
                  "lng" : 121.0335449
               },
               "southwest" : {
                  "lat" : 24.7508903,
                  "lng" : 120.9580438
               }
            }
         },
         "place_id" : "ChIJrRQLBA82aDQR5inqmxHPVc0",
         "types" : [ "administrative_area_level_3", "political" ]
      },
      {
         "address_components" : [
            {
               "long_name" : "Hsinchu City",
               "short_name" : "Hsinchu City",
               "types" : [ "administrative_area_level_2", "political" ]
            },
            {
               "long_name" : "Taiwan",
               "short_name" : "TW",
               "types" : [ "country", "political" ]
            },
            {
               "long_name" : "300",
               "short_name" : "300",
               "types" : [ "postal_code" ]
            }
         ],
         "formatted_address" : "Hsinchu City, Taiwan 300",
         "geometry" : {
            "bounds" : {
               "northeast" : {
                  "lat" : 24.8569956,
                  "lng" : 121.0335449
               },
               "southwest" : {
                  "lat" : 24.7125478,
                  "lng" : 120.8785096
               }
            },
            "location" : {
               "lat" : 24.8138297,
               "lng" : 120.9674752
            },
            "location_type" : "APPROXIMATE",
            "viewport" : {
               "northeast" : {
                  "lat" : 24.8569956,
                  "lng" : 121.0335449
               },
               "southwest" : {
                  "lat" : 24.7125478,
                  "lng" : 120.8785096
               }
            }
         },
         "place_id" : "ChIJ9-datXdKaDQR-x-h4mLoTF4",
         "types" : [ "administrative_area_level_2", "political" ]
      },
      {
         "address_components" : [
            {
               "long_name" : "300",
               "short_name" : "300",
               "types" : [ "postal_code" ]
            },
            {
               "long_name" : "Hsinchu City",
               "short_name" : "Hsinchu City",
               "types" : [ "administrative_area_level_2", "political" ]
            },
            {
               "long_name" : "Taiwan",
               "short_name" : "TW",
               "types" : [ "country", "political" ]
            }
         ],
         "formatted_address" : "Hsinchu City, Taiwan 300",
         "geometry" : {
            "bounds" : {
               "northeast" : {
                  "lat" : 24.8569956,
                  "lng" : 121.0335449
               },
               "southwest" : {
                  "lat" : 24.7125478,
                  "lng" : 120.8785096
               }
            },
            "location" : {
               "lat" : 24.8039455,
               "lng" : 120.9646866
            },
            "location_type" : "APPROXIMATE",
            "viewport" : {
               "northeast" : {
                  "lat" : 24.8569956,
                  "lng" : 121.0335449
               },
               "southwest" : {
                  "lat" : 24.7125478,
                  "lng" : 120.8785096
               }
            }
         },
         "place_id" : "ChIJw6i4dK81aDQRCRpIJjRGW-k",
         "types" : [ "postal_code" ]
      },
      {
         "address_components" : [
            {
               "long_name" : "Taiwan Province",
               "short_name" : "Taiwan Province",
               "types" : [ "administrative_area_level_1", "political" ]
            },
            {
               "long_name" : "Taiwan",
               "short_name" : "TW",
               "types" : [ "country", "political" ]
            }
         ],
         "formatted_address" : "Taiwan Province, Taiwan",
         "geometry" : {
            "bounds" : {
               "northeast" : {
                  "lat" : 25.1956281,
                  "lng" : 121.9660124
               },
               "southwest" : {
                  "lat" : 21.8966958,
                  "lng" : 119.3144141
               }
            },
            "location" : {
               "lat" : 22.6158015,
               "lng" : 120.7120023
            },
            "location_type" : "APPROXIMATE",
            "viewport" : {
               "northeast" : {
                  "lat" : 25.1956281,
                  "lng" : 121.9660124
               },
               "southwest" : {
                  "lat" : 21.8966958,
                  "lng" : 119.3144141
               }
            }
         },
         "place_id" : "ChIJoSFawR-waDQR-6m5DFTfH-8",
         "types" : [ "administrative_area_level_1", "political" ]
      },
      {
         "address_components" : [
            {
               "long_name" : "Taiwan",
               "short_name" : "TW",
               "types" : [ "country", "political" ]
            }
         ],
         "formatted_address" : "Taiwan",
         "geometry" : {
            "bounds" : {
               "northeast" : {
                  "lat" : 26.4545,
                  "lng" : 123.5021012
               },
               "southwest" : {
                  "lat" : 20.5170001,
                  "lng" : 116.6665
               }
            },
            "location" : {
               "lat" : 23.69781,
               "lng" : 120.960515
            },
            "location_type" : "APPROXIMATE",
            "viewport" : {
               "northeast" : {
                  "lat" : 26.4545,
                  "lng" : 123.5021012
               },
               "southwest" : {
                  "lat" : 20.5170001,
                  "lng" : 116.6665
               }
            }
         },
         "place_id" : "ChIJL1cHXAbzbjQRaVScvwTwEec",
         "types" : [ "country", "political" ]
      }
   ],
   "status" : "OK"
}
