{
   "plus_code" : {
      "compound_code" : "R7W5+54 Naples, Metropolitan City of Naples, Italy",
      "global_code" : "8FGPR7W5+54"
   },
   "results" : [
      {
         "address_components" : [
            {
               "long_name" : "40",
               "short_name" : "40",
               "types" : [ "street_number" ]
            },
            {
               "long_name" : "Corso Umberto I",
               "short_name" : "Corso Umberto I",
               "types" : [ "route" ]
            },
            {
               "long_name" : "Napoli",
               "short_name" : "Napoli",
               "types" : [ "locality", "political" ]
            },
            {
               "long_name" : "Napoli",
               "short_name" : "Napoli",
               "types" : [ "administrative_area_level_3", "political" ]
            },
            {
               "long_name" : "Città Metropolitana di Napoli",
               "short_name" : "NA",
               "types" : [ "administrative_area_level_2", "political" ]
            },
            {
               "long_name" : "Campania",
               "short_name" : "Campania",
               "types" : [ "administrative_area_level_1", "political" ]
            },
            {
               "long_name" : "Italy",
               "short_name" : "IT",
               "types" : [ "country", "political" ]
            },
            {
               "long_name" : "80138",
               "short_name" : "80138",
               "types" : [ "postal_code" ]
            }
         ],
         "formatted_address" : "Corso Umberto I, 40, 80138 Napoli NA, Italy",
         "geometry" : {
            "location" : {
               "lat" : 40.845492,
               "lng" : 14.2578058
            },
            "location_type" : "ROOFTOP",
            "viewport" : {
               "northeast" : {
                  "lat" : 40.8468409802915,
                  "lng" : 14.2591547802915
               },
               "southwest" : {
                  "lat" : 40.8441430197085,
                  "lng" : 14.2564568197085
               }
            }
         },
         "place_id" : "ChIJt--LgUYIOxMRxHacgvVTeNo",
         "plus_code" : {
            "compound_code" : "R7W5+54 Naples, Metropolitan City of Naples, Italy",
            "global_code" : "8FGPR7W5+54"
         },
         "types" : [ "establishment", "point_of_interest", "university" ]
      },
      {
         "address_components" : [
            {
               "long_name" : "25",
               "short_name" : "25",
               "types" : [ "street_number" ]
            },
            {
               "long_name" : "Via Mezzocannone",
               "short_name" : "Via Mezzocannone",
               "types" : [ "route" ]
            },
            {
               "long_name" : "Napoli",
               "short_name" : "Napoli",
               "types" : [ "locality", "political" ]
            },
            {
               "long_name" : "Napoli",
               "short_name" : "Napoli",
               "types" : [ "administrative_area_level_3", "political" ]
            },
            {
               "long_name" : "Città Metropolitana di Napoli",
               "short_name" : "NA",
               "types" : [ "administrative_area_level_2", "political" ]
            },
            {
               "long_name" : "Campania",
               "short_name" : "Campania",
               "types" : [ "administrative_area_level_1", "political" ]
            },
            {
               "long_name" : "Italy",
               "short_name" : "IT",
               "types" : [ "country", "political" ]
            },
            {
               "long_name" : "80134",
               "short_name" : "80134",
               "types" : [ "postal_code" ]
            }
         ],
         "formatted_address" : "Via Mezzocannone, 25, 80134 Napoli NA, Italy",
         "geometry" : {
            "location" : {
               "lat" : 40.8455362,
               "lng" : 14.2576724
            },
            "location_type" : "ROOFTOP",
            "viewport" : {
               "northeast" : {
                  "lat" : 40.8468851802915,
                  "lng" : 14.2590213802915
               },
               "southwest" : {
                  "lat" : 40.8441872197085,
                  "lng" : 14.2563234197085
               }
            }
         },
         "place_id" : "ChIJecupJkQIOxMRO-hfCMNv7JI",
         "plus_code" : {
            "compound_code" : "R7W5+63 Naples, Metropolitan City of Naples, Italy",
            "global_code" : "8FGPR7W5+63"
         },
         "types" : [ "street_address" ]
      },
      {
         "address_components" : [
            {
               "long_name" : "65",
               "short_name" : "65",
               "types" : [ "street_number" ]
            },
            {
               "long_name" : "Corso Umberto I",
               "short_name" : "Corso Umberto I",
               "types" : [ "route" ]
            },
            {
               "long_name" : "Napoli",
               "short_name" : "Napoli",
               "types" : [ "locality", "political" ]
            },
            {
               "long_name" : "Napoli",
               "short_name" : "Napoli",
               "types" : [ "administrative_area_level_3", "political" ]
            },
            {
               "long_name" : "Città Metropolitana di Napoli",
               "short_name" : "NA",
               "types" : [ "administrative_area_level_2", "political" ]
            },
            {
               "long_name" : "Italy",
               "short_name" : "IT",
               "types" : [ "country", "political" ]
            },
            {
               "long_name" : "80138",
               "short_name" : "80138",
               "types" : [ "postal_code" ]
            }
         ],
         "formatted_address" : "Corso Umberto I, 65, 80138 Napoli NA, Italy",
         "geometry" : {
            "location" : {
               "lat" : 40.84526899999999,
               "lng" : 14.2580768
            },
            "location_type" : "RANGE_INTERPOLATED",
            "viewport" : {
               "northeast" : {
                  "lat" : 40.84661798029149,
                  "lng" : 14.2594257802915
               },
               "southwest" : {
                  "lat" : 40.84392001970849,
                  "lng" : 14.2567278197085
               }
            }
         },
         "place_id" : "EixDb3JzbyBVbWJlcnRvIEksIDY1LCA4MDEzOCBOYXBvbGkgTkEsIEl0YWxpYSIaEhgKFAoSCQl5iZNGCDsTEYjjAfUE9Gb-EEE",
         "types" : [ "street_address" ]
      },
      {
         "address_components" : [
            {
               "long_name" : "80134",
               "short_name" : "80134",
               "types" : [ "postal_code" ]
            },
            {
               "long_name" : "Naples",
               "short_name" : "Naples",
               "types" : [ "locality", "political" ]
            },
            {
               "long_name" : "Naples",
               "short_name" : "Naples",
               "types" : [ "administrative_area_level_3", "political" ]
            },
            {
               "long_name" : "Metropolitan City of Naples",
               "short_name" : "NA",
               "types" : [ "administrative_area_level_2", "political" ]
            },
            {
               "long_name" : "Campania",
               "short_name" : "Campania",
               "types" : [ "administrative_area_level_1", "political" ]
            },
            {
               "long_name" : "Italy",
               "short_name" : "IT",
               "types" : [ "country", "political" ]
            }
         ],
         "formatted_address" : "80134 Naples, Metropolitan City of Naples, Italy",
         "geometry" : {
            "bounds" : {
               "northeast" : {
                  "lat" : 40.8504929,
                  "lng" : 14.25848
               },
               "southwest" : {
                  "lat" : 40.8406143,
                  "lng" : 14.242564
               }
            },
            "location" : {
               "lat" : 40.846762,
               "lng" : 14.2497686
            },
            "location_type" : "APPROXIMATE",
            "viewport" : {
               "northeast" : {
                  "lat" : 40.8504929,
                  "lng" : 14.25848
               },
               "southwest" : {
                  "lat" : 40.8406143,
                  "lng" : 14.242564
               }
            }
         },
         "place_id" : "ChIJ61P2I1sIOxMRoA4PCyPhCRw",
         "types" : [ "postal_code" ]
      },
      {
         "address_components" : [
            {
               "long_name" : "Decumani",
               "short_name" : "Decumani",
               "types" : [ "neighborhood", "political" ]
            },
            {
               "long_name" : "Napoli",
               "short_name" : "Napoli",
               "types" : [ "locality", "political" ]
            },
            {
               "long_name" : "Napoli",
               "short_name" : "Napoli",
               "types" : [ "administrative_area_level_3", "political" ]
            },
            {
               "long_name" : "Città Metropolitana di Napoli",
               "short_name" : "NA",
               "types" : [ "administrative_area_level_2", "political" ]
            },
            {
               "long_name" : "Campania",
               "short_name" : "Campania",
               "types" : [ "administrative_area_level_1", "political" ]
            },
            {
               "long_name" : "Italy",
               "short_name" : "IT",
               "types" : [ "country", "political" ]
            }
         ],
         "formatted_address" : "Decumani, Napoli NA, Italy",
         "geometry" : {
            "bounds" : {
               "northeast" : {
                  "lat" : 40.8562145,
                  "lng" : 14.2675924
               },
               "southwest" : {
                  "lat" : 40.8431971,
                  "lng" : 14.2499007
               }
            },
            "location" : {
               "lat" : 40.8499326,
               "lng" : 14.2541292
            },
            "location_type" : "APPROXIMATE",
            "viewport" : {
               "northeast" : {
                  "lat" : 40.8562145,
                  "lng" : 14.2675924
               },
               "southwest" : {
                  "lat" : 40.8431971,
                  "lng" : 14.2499007
               }
            }
         },
         "place_id" : "ChIJr3lFj0EIOxMRnLof2s4fkrw",
         "types" : [ "neighborhood", "political" ]
      },
      {
         "address_components" : [
            {
               "long_name" : "Naples",
               "short_name" : "Naples",
               "types" : [ "locality", "political" ]
            },
            {
               "long_name" : "Naples",
               "short_name" : "Naples",
               "types" : [ "administrative_area_level_3", "political" ]
            },
            {
               "long_name" : "Metropolitan City of Naples",
               "short_name" : "NA",
               "types" : [ "administrative_area_level_2", "political" ]
            },
            {
               "long_name" : "Campania",
               "short_name" : "Campania",
               "types" : [ "administrative_area_level_1", "political" ]
            },
            {
               "long_name" : "Italy",
               "short_name" : "IT",
               "types" : [ "country", "political" ]
            }
         ],
         "formatted_address" : "Naples, Metropolitan City of Naples, Italy",
         "geometry" : {
            "bounds" : {
               "northeast" : {
                  "lat" : 40.9159348,
                  "lng" : 14.3537148
               },
               "southwest" : {
                  "lat" : 40.7919321,
                  "lng" : 14.1394899
               }
            },
            "location" : {
               "lat" : 40.8517746,
               "lng" : 14.2681244
            },
            "location_type" : "APPROXIMATE",
            "viewport" : {
               "northeast" : {
                  "lat" : 40.9159348,
                  "lng" : 14.3537148
               },
               "southwest" : {
                  "lat" : 40.7919321,
                  "lng" : 14.1394899
               }
            }
         },
         "place_id" : "ChIJ6_p622YIOxMRfriMZcxDOtI",
         "types" : [ "locality", "political" ]
      },
      {
         "address_components" : [
            {
               "long_name" : "Naples",
               "short_name" : "Naples",
               "types" : [ "administrative_area_level_3", "locality", "political" ]
            },
            {
               "long_name" : "Metropolitan City of Naples",
               "short_name" : "NA",
               "types" : [ "administrative_area_level_2", "political" ]
            },
            {
               "long_name" : "Campania",
               "short_name" : "Campania",
               "types" : [ "administrative_area_level_1", "political" ]
            },
            {
               "long_name" : "Italy",
               "short_name" : "IT",
               "types" : [ "country", "political" ]
            }
         ],
         "formatted_address" : "Naples, Metropolitan City of Naples, Italy",
         "geometry" : {
            "bounds" : {
               "northeast" : {
                  "lat" : 40.9159348,
                  "lng" : 14.3537148
               },
               "southwest" : {
                  "lat" : 40.7912795,
                  "lng" : 14.132299
               }
            },
            "location" : {
               "lat" : 40.8517983,
               "lng" : 14.26812
            },
            "location_type" : "APPROXIMATE",
            "viewport" : {
               "northeast" : {
                  "lat" : 40.9159348,
                  "lng" : 14.3537148
               },
               "southwest" : {
                  "lat" : 40.7912795,
                  "lng" : 14.132299
               }
            }
         },
         "place_id" : "ChIJmX5sak8IOxMRHRl4O8Es9T0",
         "types" : [ "administrative_area_level_3", "locality", "political" ]
      },
      {
         "address_components" : [
            {
               "long_name" : "Metropolitan City of Naples",
               "short_name" : "Metropolitan City of Naples",
               "types" : [ "administrative_area_level_2", "political" ]
            },
            {
               "long_name" : "Campania",
               "short_name" : "Campania",
               "types" : [ "administrative_area_level_1", "political" ]
            },
            {
               "long_name" : "Italy",
               "short_name" : "IT",
               "types" : [ "country", "political" ]
            }
         ],
         "formatted_address" : "Metropolitan City of Naples, Italy",
         "geometry" : {
            "bounds" : {
               "northeast" : {
                  "lat" : 41.0198493,
                  "lng" : 14.6702458
               },
               "southwest" : {
                  "lat" : 40.5358888,
                  "lng" : 13.8510363
               }
            },
            "location" : {
               "lat" : 40.901975,
               "lng" : 14.332644
            },
            "location_type" : "APPROXIMATE",
            "viewport" : {
               "northeast" : {
                  "lat" : 41.0198493,
                  "lng" : 14.6702458
               },
               "southwest" : {
                  "lat" : 40.5358888,
                  "lng" : 13.8510363
               }
            }
         },
         "place_id" : "ChIJa4mNMjwKOxMRUIFimR_hCQM",
         "types" : [ "administrative_area_level_2", "political" ]
      },
      {
         "address_components" : [
            {
               "long_name" : "Campania",
               "short_name" : "Campania",
               "types" : [ "administrative_area_level_1", "political" ]
            },
            {
               "long_name" : "Italy",
               "short_name" : "IT",
               "types" : [ "country", "political" ]
            }
         ],
         "formatted_address" : "Campania, Italy",
         "geometry" : {
            "bounds" : {
               "northeast" : {
                  "lat" : 41.5073731,
                  "lng" : 15.8064455
               },
               "southwest" : {
                  "lat" : 39.9905603,
                  "lng" : 13.7621116
               }
            },
            "location" : {
               "lat" : 41.10994729999999,
               "lng" : 14.8475139
            },
            "location_type" : "APPROXIMATE",
            "viewport" : {
               "northeast" : {
                  "lat" : 41.5073731,
                  "lng" : 15.8064455
               },
               "southwest" : {
                  "lat" : 39.9905603,
                  "lng" : 13.7621116
               }
            }
         },
         "place_id" : "ChIJ35Zq01gTOxMRzUO1VBRFAs0",
         "types" : [ "administrative_area_level_1", "political" ]
      },
      {
         "address_components" : [
            {
               "long_name" : "Italy",
               "short_name" : "IT",
               "types" : [ "country", "political" ]
            }
         ],
         "formatted_address" : "Italy",
         "geometry" : {
            "bounds" : {
               "northeast" : {
                  "lat" : 47.092,
                  "lng" : 18.7975999
               },
               "southwest" : {
                  "lat" : 35.4897,
                  "lng" : 6.6267201
               }
            },
            "location" : {
               "lat" : 41.87194,
               "lng" : 12.56738
            },
            "location_type" : "APPROXIMATE",
            "viewport" : {
               "northeast" : {
                  "lat" : 47.092,
                  "lng" : 18.7975999
               },
               "southwest" : {
                  "lat" : 35.4897,
                  "lng" : 6.6267201
               }
            }
         },
         "place_id" : "ChIJA9KNRIL-1BIRb15jJFz1LOI",
         "types" : [ "country", "political" ]
      }
   ],
   "status" : "OK"
}
