{
   "plus_code" : {
      "compound_code" : "4JRV+3M Magdeburg, Germany",
      "global_code" : "9F4H4JRV+3M"
   },
   "results" : [
      {
         "address_components" : [
            {
               "long_name" : "2",
               "short_name" : "2",
               "types" : [ "street_number" ]
            },
            {
               "long_name" : "Universitätsplatz",
               "short_name" : "Universitätspl.",
               "types" : [ "route" ]
            },
            {
               "long_name" : "Alte Neustadt",
               "short_name" : "Alte Neustadt",
               "types" : [ "political", "sublocality", "sublocality_level_1" ]
            },
            {
               "long_name" : "Magdeburg",
               "short_name" : "MD",
               "types" : [ "locality", "political" ]
            },
            {
               "long_name" : "Sachsen-Anhalt",
               "short_name" : "SA",
               "types" : [ "administrative_area_level_1", "political" ]
            },
            {
               "long_name" : "Germany",
               "short_name" : "DE",
               "types" : [ "country", "political" ]
            },
            {
               "long_name" : "39106",
               "short_name" : "39106",
               "types" : [ "postal_code" ]
            }
         ],
         "formatted_address" : "Universitätspl. 2, 39106 Magdeburg, Germany",
         "geometry" : {
            "location" : {
               "lat" : 52.1402053,
               "lng" : 11.6441991
            },
            "location_type" : "ROOFTOP",
            "viewport" : {
               "northeast" : {
                  "lat" : 52.14155428029149,
                  "lng" : 11.6455480802915
               },
               "southwest" : {
                  "lat" : 52.13885631970849,
                  "lng" : 11.6428501197085
               }
            }
         },
         "place_id" : "ChIJQ8JVhk5fr0cRpmd41uNRpio",
         "plus_code" : {
            "compound_code" : "4JRV+3M Magdeburg, Germany",
            "global_code" : "9F4H4JRV+3M"
         },
         "types" : [ "establishment", "point_of_interest", "university" ]
      },
      {
         "address_components" : [
            {
               "long_name" : "2",
               "short_name" : "2",
               "types" : [ "street_number" ]
            },
            {
               "long_name" : "Universitätsplatz",
               "short_name" : "Universitätspl.",
               "types" : [ "route" ]
            },
            {
               "long_name" : "Altstadt",
               "short_name" : "Altstadt",
               "types" : [ "political", "sublocality", "sublocality_level_1" ]
            },
            {
               "long_name" : "Magdeburg",
               "short_name" : "MD",
               "types" : [ "locality", "political" ]
            },
            {
               "long_name" : "Sachsen-Anhalt",
               "short_name" : "SA",
               "types" : [ "administrative_area_level_1", "political" ]
            },
            {
               "long_name" : "Germany",
               "short_name" : "DE",
               "types" : [ "country", "political" ]
            },
            {
               "long_name" : "39106",
               "short_name" : "39106",
               "types" : [ "postal_code" ]
            }
         ],
         "formatted_address" : "Universitätspl. 2, 39106 Magdeburg, Germany",
         "geometry" : {
            "location" : {
               "lat" : 52.1402053,
               "lng" : 11.6441991
            },
            "location_type" : "ROOFTOP",
            "viewport" : {
               "northeast" : {
                  "lat" : 52.14155428029149,
                  "lng" : 11.6455480802915
               },
               "southwest" : {
                  "lat" : 52.13885631970849,
                  "lng" : 11.6428501197085
               }
            }
         },
         "place_id" : "ChIJZ9SqV05fr0cREewmPpCLdXg",
         "plus_code" : {
            "compound_code" : "4JRV+3M Magdeburg, Germany",
            "global_code" : "9F4H4JRV+3M"
         },
         "types" : [ "street_address" ]
      },
      {
         "address_components" : [
            {
               "long_name" : "Denhardtstraße",
               "short_name" : "Denhardtstraße",
               "types" : [ "route" ]
            },
            {
               "long_name" : "Alte Neustadt",
               "short_name" : "Alte Neustadt",
               "types" : [ "political", "sublocality", "sublocality_level_1" ]
            },
            {
               "long_name" : "Magdeburg",
               "short_name" : "MD",
               "types" : [ "locality", "political" ]
            },
            {
               "long_name" : "Sachsen-Anhalt",
               "short_name" : "SA",
               "types" : [ "administrative_area_level_1", "political" ]
            },
            {
               "long_name" : "Germany",
               "short_name" : "DE",
               "types" : [ "country", "political" ]
            },
            {
               "long_name" : "39106",
               "short_name" : "39106",
               "types" : [ "postal_code" ]
            }
         ],
         "formatted_address" : "Denhardtstraße, 39106 Magdeburg, Germany",
         "geometry" : {
            "bounds" : {
               "northeast" : {
                  "lat" : 52.1399897,
                  "lng" : 11.6445506
               },
               "southwest" : {
                  "lat" : 52.13986999999999,
                  "lng" : 11.6430252
               }
            },
            "location" : {
               "lat" : 52.1399298,
               "lng" : 11.6437879
            },
            "location_type" : "GEOMETRIC_CENTER",
            "viewport" : {
               "northeast" : {
                  "lat" : 52.14127883029149,
                  "lng" : 11.6451368802915
               },
               "southwest" : {
                  "lat" : 52.1385808697085,
                  "lng" : 11.6424389197085
               }
            }
         },
         "place_id" : "ChIJry_OU05fr0cRfvnuACp8jQU",
         "types" : [ "route" ]
      },
      {
         "address_components" : [
            {
               "long_name" : "Alte Neustadt",
               "short_name" : "Alte Neustadt",
               "types" : [ "political", "sublocality", "sublocality_level_1" ]
            },
            {
               "long_name" : "Magdeburg",
               "short_name" : "MD",
               "types" : [ "locality", "political" ]
            },
            {
               "long_name" : "Jerichower Land",
               "short_name" : "JL",
               "types" : [ "administrative_area_level_3", "political" ]
            },
            {
               "long_name" : "Sachsen-Anhalt",
               "short_name" : "SA",
               "types" : [ "administrative_area_level_1", "political" ]
            },
            {
               "long_name" : "Germany",
               "short_name" : "DE",
               "types" : [ "country", "political" ]
            }
         ],
         "formatted_address" : "Alte Neustadt, Magdeburg, Germany",
         "geometry" : {
            "bounds" : {
               "northeast" : {
                  "lat" : 52.153186,
                  "lng" : 11.666992
               },
               "southwest" : {
                  "lat" : 52.1368891,
                  "lng" : 11.6310619
               }
            },
            "location" : {
               "lat" : 52.1448709,
               "lng" : 11.6529148
            },
            "location_type" : "APPROXIMATE",
            "viewport" : {
               "northeast" : {
                  "lat" : 52.153186,
                  "lng" : 11.666992
               },
               "southwest" : {
                  "lat" : 52.1368891,
                  "lng" : 11.6310619
               }
            }
         },
         "place_id" : "ChIJ9_3K1ktfr0cR8OEH-FlmIwU",
         "types" : [ "political", "sublocality", "sublocality_level_1" ]
      },
      {
         "address_components" : [
            {
               "long_name" : "39106",
               "short_name" : "39106",
               "types" : [ "postal_code" ]
            },
            {
               "long_name" : "Alte Neustadt",
               "short_name" : "Alte Neustadt",
               "types" : [ "political", "sublocality", "sublocality_level_1" ]
            },
            {
               "long_name" : "Magdeburg",
               "short_name" : "MD",
               "types" : [ "locality", "political" ]
            },
            {
               "long_name" : "Sachsen-Anhalt",
               "short_name" : "SA",
               "types" : [ "administrative_area_level_1", "political" ]
            },
            {
               "long_name" : "Germany",
               "short_name" : "DE",
               "types" : [ "country", "political" ]
            }
         ],
         "formatted_address" : "39106 Magdeburg, Germany",
         "geometry" : {
            "bounds" : {
               "northeast" : {
                  "lat" : 52.15347389999999,
                  "lng" : 11.669115
               },
               "southwest" : {
                  "lat" : 52.1372799,
                  "lng" : 11.631111
               }
            },
            "location" : {
               "lat" : 52.1422657,
               "lng" : 11.6524366
            },
            "location_type" : "APPROXIMATE",
            "viewport" : {
               "northeast" : {
                  "lat" : 52.15347389999999,
                  "lng" : 11.669115
               },
               "southwest" : {
                  "lat" : 52.1372799,
                  "lng" : 11.631111
               }
            }
         },
         "place_id" : "ChIJJ1B90ktfr0cRkALhRl1mIxw",
         "types" : [ "postal_code" ]
      },
      {
         "address_components" : [
            {
               "long_name" : "Magdeburg",
               "short_name" : "Magdeburg",
               "types" : [ "locality", "political" ]
            },
            {
               "long_name" : "Saxony-Anhalt",
               "short_name" : "SA",
               "types" : [ "administrative_area_level_1", "political" ]
            },
            {
               "long_name" : "Germany",
               "short_name" : "DE",
               "types" : [ "country", "political" ]
            }
         ],
         "formatted_address" : "Magdeburg, Germany",
         "geometry" : {
            "bounds" : {
               "northeast" : {
                  "lat" : 52.2282942,
                  "lng" : 11.766403
               },
               "southwest" : {
                  "lat" : 52.023638,
                  "lng" : 11.5172709
               }
            },
            "location" : {
               "lat" : 52.1205333,
               "lng" : 11.6276237
            },
            "location_type" : "APPROXIMATE",
            "viewport" : {
               "northeast" : {
                  "lat" : 52.2282942,
                  "lng" : 11.766403
               },
               "southwest" : {
                  "lat" : 52.023638,
                  "lng" : 11.5172709
               }
            }
         },
         "place_id" : "ChIJW-raVf_1pUcRYBAH-FlmIwQ",
         "types" : [ "locality", "political" ]
      },
      {
         "address_components" : [
            {
               "long_name" : "Saxony-Anhalt",
               "short_name" : "Saxony-Anhalt",
               "types" : [ "administrative_area_level_1", "political" ]
            },
            {
               "long_name" : "Germany",
               "short_name" : "DE",
               "types" : [ "country", "political" ]
            }
         ],
         "formatted_address" : "Saxony-Anhalt, Germany",
         "geometry" : {
            "bounds" : {
               "northeast" : {
                  "lat" : 53.041787,
                  "lng" : 13.1869875
               },
               "southwest" : {
                  "lat" : 50.9378782,
                  "lng" : 10.560839
               }
            },
            "location" : {
               "lat" : 51.9502649,
               "lng" : 11.6922734
            },
            "location_type" : "APPROXIMATE",
            "viewport" : {
               "northeast" : {
                  "lat" : 53.041787,
                  "lng" : 13.1869875
               },
               "southwest" : {
                  "lat" : 50.9378782,
                  "lng" : 10.560839
               }
            }
         },
         "place_id" : "ChIJgSRR6JnwpUcRdN4O6BbFHdE",
         "types" : [ "administrative_area_level_1", "political" ]
      },
      {
         "address_components" : [
            {
               "long_name" : "Germany",
               "short_name" : "DE",
               "types" : [ "country", "political" ]
            }
         ],
         "formatted_address" : "Germany",
         "geometry" : {
            "bounds" : {
               "northeast" : {
                  "lat" : 55.0815,
                  "lng" : 15.0418962
               },
               "southwest" : {
                  "lat" : 47.2701115,
                  "lng" : 5.8663425
               }
            },
            "location" : {
               "lat" : 51.165691,
               "lng" : 10.451526
            },
            "location_type" : "APPROXIMATE",
            "viewport" : {
               "northeast" : {
                  "lat" : 55.0815,
                  "lng" : 15.0418962
               },
               "southwest" : {
                  "lat" : 47.2701115,
                  "lng" : 5.8663425
               }
            }
         },
         "place_id" : "ChIJa76xwh5ymkcRW-WRjmtd6HU",
         "types" : [ "country", "political" ]
      }
   ],
   "status" : "OK"
}
