{
   "plus_code" : {
      "compound_code" : "9P8P+H6 Parsons, KS, USA",
      "global_code" : "86969P8P+H6"
   },
   "results" : [
      {
         "address_components" : [
            {
               "long_name" : "1907",
               "short_name" : "1907",
               "types" : [ "street_number" ]
            },
            {
               "long_name" : "Harding Drive",
               "short_name" : "Harding Dr",
               "types" : [ "route" ]
            },
            {
               "long_name" : "Parsons",
               "short_name" : "Parsons",
               "types" : [ "locality", "political" ]
            },
            {
               "long_name" : "Labette County",
               "short_name" : "Labette County",
               "types" : [ "administrative_area_level_2", "political" ]
            },
            {
               "long_name" : "Kansas",
               "short_name" : "KS",
               "types" : [ "administrative_area_level_1", "political" ]
            },
            {
               "long_name" : "United States",
               "short_name" : "US",
               "types" : [ "country", "political" ]
            },
            {
               "long_name" : "67357",
               "short_name" : "67357",
               "types" : [ "postal_code" ]
            },
            {
               "long_name" : "8101",
               "short_name" : "8101",
               "types" : [ "postal_code_suffix" ]
            }
         ],
         "formatted_address" : "1907 Harding Dr, Parsons, KS 67357, USA",
         "geometry" : {
            "location" : {
               "lat" : 37.3664814,
               "lng" : -95.26447090000001
            },
            "location_type" : "ROOFTOP",
            "viewport" : {
               "northeast" : {
                  "lat" : 37.3678303802915,
                  "lng" : -95.26312191970851
               },
               "southwest" : {
                  "lat" : 37.3651324197085,
                  "lng" : -95.26581988029152
               }
            }
         },
         "place_id" : "ChIJacOhe48auIcReRhu7zuW4k0",
         "plus_code" : {
            "compound_code" : "9P8P+H6 Parsons, Kansas, United States",
            "global_code" : "86969P8P+H6"
         },
         "types" : [ "establishment", "hospital", "point_of_interest" ]
      },
      {
         "address_components" : [
            {
               "long_name" : "1907",
               "short_name" : "1907",
               "types" : [ "street_number" ]
            },
            {
               "long_name" : "Harding Drive",
               "short_name" : "Harding Dr",
               "types" : [ "route" ]
            },
            {
               "long_name" : "Parsons",
               "short_name" : "Parsons",
               "types" : [ "locality", "political" ]
            },
            {
               "long_name" : "Labette County",
               "short_name" : "Labette County",
               "types" : [ "administrative_area_level_2", "political" ]
            },
            {
               "long_name" : "Kansas",
               "short_name" : "KS",
               "types" : [ "administrative_area_level_1", "political" ]
            },
            {
               "long_name" : "United States",
               "short_name" : "US",
               "types" : [ "country", "political" ]
            },
            {
               "long_name" : "67357",
               "short_name" : "67357",
               "types" : [ "postal_code" ]
            },
            {
               "long_name" : "8101",
               "short_name" : "8101",
               "types" : [ "postal_code_suffix" ]
            }
         ],
         "formatted_address" : "1907 Harding Dr, Parsons, KS 67357, USA",
         "geometry" : {
            "location" : {
               "lat" : 37.3664814,
               "lng" : -95.26447090000001
            },
            "location_type" : "ROOFTOP",
            "viewport" : {
               "northeast" : {
                  "lat" : 37.3678303802915,
                  "lng" : -95.26312191970851
               },
               "southwest" : {
                  "lat" : 37.3651324197085,
                  "lng" : -95.26581988029152
               }
            }
         },
         "place_id" : "ChIJO4w76GMQuIcR021WtVNBoc4",
         "plus_code" : {
            "compound_code" : "9P8P+H6 Parsons, Kansas, United States",
            "global_code" : "86969P8P+H6"
         },
         "types" : [ "street_address" ]
      },
      {
         "address_components" : [
            {
               "long_name" : "1805",
               "short_name" : "1805",
               "types" : [ "street_number" ]
            },
            {
               "long_name" : "Harding Drive",
               "short_name" : "Harding Dr",
               "types" : [ "route" ]
            },
            {
               "long_name" : "Parsons",
               "short_name" : "Parsons",
               "types" : [ "locality", "political" ]
            },
            {
               "long_name" : "Kansas",
               "short_name" : "KS",
               "types" : [ "administrative_area_level_1", "political" ]
            },
            {
               "long_name" : "United States",
               "short_name" : "US",
               "types" : [ "country", "political" ]
            },
            {
               "long_name" : "67357",
               "short_name" : "67357",
               "types" : [ "postal_code" ]
            },
            {
               "long_name" : "8101",
               "short_name" : "8101",
               "types" : [ "postal_code_suffix" ]
            }
         ],
         "formatted_address" : "1805 Harding Dr, Parsons, KS 67357, USA",
         "geometry" : {
            "location" : {
               "lat" : 37.36583419999999,
               "lng" : -95.26502409999999
            },
            "location_type" : "RANGE_INTERPOLATED",
            "viewport" : {
               "northeast" : {
                  "lat" : 37.3671831802915,
                  "lng" : -95.26367511970849
               },
               "southwest" : {
                  "lat" : 37.3644852197085,
                  "lng" : -95.2663730802915
               }
            }
         },
         "place_id" : "EicxODA1IEhhcmRpbmcgRHIsIFBhcnNvbnMsIEtTIDY3MzU3LCBVU0EiGxIZChQKEglR-IqNYxC4hxERmpzYFBfgYxCNDg",
         "types" : [ "street_address" ]
      },
      {
         "address_components" : [
            {
               "long_name" : "Parsons",
               "short_name" : "Parsons",
               "types" : [ "locality", "political" ]
            },
            {
               "long_name" : "Labette County",
               "short_name" : "Labette County",
               "types" : [ "administrative_area_level_2", "political" ]
            },
            {
               "long_name" : "Kansas",
               "short_name" : "KS",
               "types" : [ "administrative_area_level_1", "political" ]
            },
            {
               "long_name" : "United States",
               "short_name" : "US",
               "types" : [ "country", "political" ]
            }
         ],
         "formatted_address" : "Parsons, KS, USA",
         "geometry" : {
            "bounds" : {
               "northeast" : {
                  "lat" : 37.3839909,
                  "lng" : -95.227853
               },
               "southwest" : {
                  "lat" : 37.3035419,
                  "lng" : -95.5195679
               }
            },
            "location" : {
               "lat" : 37.34033840000001,
               "lng" : -95.26108379999999
            },
            "location_type" : "APPROXIMATE",
            "viewport" : {
               "northeast" : {
                  "lat" : 37.3839909,
                  "lng" : -95.227853
               },
               "southwest" : {
                  "lat" : 37.3035419,
                  "lng" : -95.5195679
               }
            }
         },
         "place_id" : "ChIJz51Yp34auIcRxLeEYPCS0VY",
         "types" : [ "locality", "political" ]
      },
      {
         "address_components" : [
            {
               "long_name" : "67357",
               "short_name" : "67357",
               "types" : [ "postal_code" ]
            },
            {
               "long_name" : "Parsons",
               "short_name" : "Parsons",
               "types" : [ "locality", "political" ]
            },
            {
               "long_name" : "Kansas",
               "short_name" : "KS",
               "types" : [ "administrative_area_level_1", "political" ]
            },
            {
               "long_name" : "United States",
               "short_name" : "US",
               "types" : [ "country", "political" ]
            }
         ],
         "formatted_address" : "Parsons, KS 67357, USA",
         "geometry" : {
            "bounds" : {
               "northeast" : {
                  "lat" : 37.471388,
                  "lng" : -95.1015329
               },
               "southwest" : {
                  "lat" : 37.207857,
                  "lng" : -95.413539
               }
            },
            "location" : {
               "lat" : 37.3084425,
               "lng" : -95.26844369999999
            },
            "location_type" : "APPROXIMATE",
            "viewport" : {
               "northeast" : {
                  "lat" : 37.471388,
                  "lng" : -95.1015329
               },
               "southwest" : {
                  "lat" : 37.207857,
                  "lng" : -95.413539
               }
            }
         },
         "place_id" : "ChIJ7-BT34QauIcRsbQUWkV5d-M",
         "types" : [ "postal_code" ]
      },
      {
         "address_components" : [
            {
               "long_name" : "Labette County",
               "short_name" : "Labette County",
               "types" : [ "administrative_area_level_2", "political" ]
            },
            {
               "long_name" : "Kansas",
               "short_name" : "KS",
               "types" : [ "administrative_area_level_1", "political" ]
            },
            {
               "long_name" : "United States",
               "short_name" : "US",
               "types" : [ "country", "political" ]
            }
         ],
         "formatted_address" : "Labette County, KS, USA",
         "geometry" : {
            "bounds" : {
               "northeast" : {
                  "lat" : 37.38436,
                  "lng" : -95.07349690000001
               },
               "southwest" : {
                  "lat" : 36.999249,
                  "lng" : -95.5229349
               }
            },
            "location" : {
               "lat" : 37.2639041,
               "lng" : -95.3102505
            },
            "location_type" : "APPROXIMATE",
            "viewport" : {
               "northeast" : {
                  "lat" : 37.38436,
                  "lng" : -95.07349690000001
               },
               "southwest" : {
                  "lat" : 36.999249,
                  "lng" : -95.5229349
               }
            }
         },
         "place_id" : "ChIJk_vMVcEBuIcRQGcwwqMjHlw",
         "types" : [ "administrative_area_level_2", "political" ]
      },
      {
         "address_components" : [
            {
               "long_name" : "Kansas",
               "short_name" : "Kansas",
               "types" : [ "administrative_area_level_1", "political" ]
            },
            {
               "long_name" : "United States",
               "short_name" : "US",
               "types" : [ "country", "political" ]
            }
         ],
         "formatted_address" : "Kansas, USA",
         "geometry" : {
            "bounds" : {
               "northeast" : {
                  "lat" : 40.0045419,
                  "lng" : -94.588387
               },
               "southwest" : {
                  "lat" : 36.9930159,
                  "lng" : -102.0517688
               }
            },
            "location" : {
               "lat" : 39.011902,
               "lng" : -98.4842465
            },
            "location_type" : "APPROXIMATE",
            "viewport" : {
               "northeast" : {
                  "lat" : 40.0045419,
                  "lng" : -94.588387
               },
               "southwest" : {
                  "lat" : 36.9930159,
                  "lng" : -102.0517688
               }
            }
         },
         "place_id" : "ChIJawF8cXEXo4cRXwk-S6m0wmg",
         "types" : [ "administrative_area_level_1", "political" ]
      },
      {
         "address_components" : [
            {
               "long_name" : "United States",
               "short_name" : "US",
               "types" : [ "country", "political" ]
            }
         ],
         "formatted_address" : "United States",
         "geometry" : {
            "bounds" : {
               "northeast" : {
                  "lat" : 71.5388001,
                  "lng" : -66.885417
               },
               "southwest" : {
                  "lat" : 18.7763,
                  "lng" : 170.5957
               }
            },
            "location" : {
               "lat" : 37.09024,
               "lng" : -95.712891
            },
            "location_type" : "APPROXIMATE",
            "viewport" : {
               "northeast" : {
                  "lat" : 71.5388001,
                  "lng" : -66.885417
               },
               "southwest" : {
                  "lat" : 18.7763,
                  "lng" : 170.5957
               }
            }
         },
         "place_id" : "ChIJCzYy5IS16lQRQrfeQ5K5Oxw",
         "types" : [ "country", "political" ]
      }
   ],
   "status" : "OK"
}
