{
   "plus_code" : {
      "compound_code" : "P25C+F4 Sivas, Sivas Merkez/Sivas, Turkey",
      "global_code" : "8GFVP25C+F4"
   },
   "results" : [
      {
         "address_components" : [
            {
               "long_name" : "Üniversite Yolu",
               "short_name" : "Üniversite Yolu",
               "types" : [ "route" ]
            },
            {
               "long_name" : "İmaret Köyü",
               "short_name" : "İmaret Köyü",
               "types" : [ "administrative_area_level_3", "political" ]
            },
            {
               "long_name" : "Sivas Merkez",
               "short_name" : "Sivas Merkez",
               "types" : [ "administrative_area_level_2", "political" ]
            },
            {
               "long_name" : "Sivas",
               "short_name" : "Sivas",
               "types" : [ "administrative_area_level_1", "political" ]
            },
            {
               "long_name" : "Turkey",
               "short_name" : "TR",
               "types" : [ "country", "political" ]
            },
            {
               "long_name" : "58070",
               "short_name" : "58070",
               "types" : [ "postal_code" ]
            }
         ],
         "formatted_address" : "Üniversite Yolu, 58070 İmaret Köyü/Sivas Merkez/Sivas, Turkey",
         "geometry" : {
            "bounds" : {
               "northeast" : {
                  "lat" : 39.7105791,
                  "lng" : 37.027058
               },
               "southwest" : {
                  "lat" : 39.7101928,
                  "lng" : 37.0160376
               }
            },
            "location" : {
               "lat" : 39.7103859,
               "lng" : 37.0215478
            },
            "location_type" : "GEOMETRIC_CENTER",
            "viewport" : {
               "northeast" : {
                  "lat" : 39.7117349302915,
                  "lng" : 37.027058
               },
               "southwest" : {
                  "lat" : 39.7090369697085,
                  "lng" : 37.0160376
               }
            }
         },
         "place_id" : "ChIJJ0qwbmFTeUARzAK72jU4zg8",
         "types" : [ "route" ]
      },
      {
         "address_components" : [
            {
               "long_name" : "İmaret Köyü",
               "short_name" : "İmaret Köyü",
               "types" : [ "administrative_area_level_3", "political" ]
            },
            {
               "long_name" : "Sivas Merkez",
               "short_name" : "Sivas Merkez",
               "types" : [ "administrative_area_level_2", "political" ]
            },
            {
               "long_name" : "Sivas",
               "short_name" : "Sivas",
               "types" : [ "administrative_area_level_1", "political" ]
            },
            {
               "long_name" : "Turkey",
               "short_name" : "TR",
               "types" : [ "country", "political" ]
            }
         ],
         "formatted_address" : "İmaret Köyü/Sivas Merkez/Sivas, Turkey",
         "geometry" : {
            "bounds" : {
               "northeast" : {
                  "lat" : 39.718592,
                  "lng" : 37.0508161
               },
               "southwest" : {
                  "lat" : 39.677489,
                  "lng" : 36.97509489999999
               }
            },
            "location" : {
               "lat" : 39.699028,
               "lng" : 37.0228794
            },
            "location_type" : "APPROXIMATE",
            "viewport" : {
               "northeast" : {
                  "lat" : 39.718592,
                  "lng" : 37.0508161
               },
               "southwest" : {
                  "lat" : 39.677489,
                  "lng" : 36.97509489999999
               }
            }
         },
         "place_id" : "ChIJAcH6qXNTeUARoP-MsMB_oyM",
         "types" : [ "administrative_area_level_3", "political" ]
      },
      {
         "address_components" : [
            {
               "long_name" : "58070",
               "short_name" : "58070",
               "types" : [ "postal_code" ]
            },
            {
               "long_name" : "Sivas Merkez",
               "short_name" : "Sivas Merkez",
               "types" : [ "administrative_area_level_2", "political" ]
            },
            {
               "long_name" : "Sivas",
               "short_name" : "Sivas",
               "types" : [ "administrative_area_level_1", "political" ]
            },
            {
               "long_name" : "Turkey",
               "short_name" : "TR",
               "types" : [ "country", "political" ]
            }
         ],
         "formatted_address" : "58070 Sivas Merkez/Sivas, Turkey",
         "geometry" : {
            "bounds" : {
               "northeast" : {
                  "lat" : 39.75046400000001,
                  "lng" : 37.0508161
               },
               "southwest" : {
                  "lat" : 39.677489,
                  "lng" : 36.97509489999999
               }
            },
            "location" : {
               "lat" : 39.7091001,
               "lng" : 37.021052
            },
            "location_type" : "APPROXIMATE",
            "viewport" : {
               "northeast" : {
                  "lat" : 39.75046400000001,
                  "lng" : 37.0508161
               },
               "southwest" : {
                  "lat" : 39.677489,
                  "lng" : 36.97509489999999
               }
            }
         },
         "place_id" : "ChIJl7l2N7VUeUARS_jAvV3oNeA",
         "types" : [ "postal_code" ]
      },
      {
         "address_components" : [
            {
               "long_name" : "Sivas Merkez",
               "short_name" : "Sivas Merkez",
               "types" : [ "administrative_area_level_2", "political" ]
            },
            {
               "long_name" : "Sivas",
               "short_name" : "Sivas",
               "types" : [ "administrative_area_level_1", "political" ]
            },
            {
               "long_name" : "Turkey",
               "short_name" : "TR",
               "types" : [ "country", "political" ]
            }
         ],
         "formatted_address" : "Sivas Merkez/Sivas, Turkey",
         "geometry" : {
            "bounds" : {
               "northeast" : {
                  "lat" : 40.23357,
                  "lng" : 37.469529
               },
               "southwest" : {
                  "lat" : 39.33468300000001,
                  "lng" : 36.511279
               }
            },
            "location" : {
               "lat" : 39.6896148,
               "lng" : 37.0862239
            },
            "location_type" : "APPROXIMATE",
            "viewport" : {
               "northeast" : {
                  "lat" : 40.23357,
                  "lng" : 37.469529
               },
               "southwest" : {
                  "lat" : 39.33468300000001,
                  "lng" : 36.511279
               }
            }
         },
         "place_id" : "ChIJEwafEiiqfkARK6rdo-_88uI",
         "types" : [ "administrative_area_level_2", "political" ]
      },
      {
         "address_components" : [
            {
               "long_name" : "Sivas",
               "short_name" : "Sivas",
               "types" : [ "administrative_area_level_1", "political" ]
            },
            {
               "long_name" : "Turkey",
               "short_name" : "TR",
               "types" : [ "country", "political" ]
            }
         ],
         "formatted_address" : "Sivas, Turkey",
         "geometry" : {
            "bounds" : {
               "northeast" : {
                  "lat" : 40.505899,
                  "lng" : 38.771828
               },
               "southwest" : {
                  "lat" : 38.541062,
                  "lng" : 35.8417191
               }
            },
            "location" : {
               "lat" : 39.4488039,
               "lng" : 37.1294497
            },
            "location_type" : "APPROXIMATE",
            "viewport" : {
               "northeast" : {
                  "lat" : 40.505899,
                  "lng" : 38.771828
               },
               "southwest" : {
                  "lat" : 38.541062,
                  "lng" : 35.8417191
               }
            }
         },
         "place_id" : "ChIJsz6fBVdneUARwi2Iuj7GQok",
         "types" : [ "administrative_area_level_1", "political" ]
      },
      {
         "address_components" : [
            {
               "long_name" : "Turkey",
               "short_name" : "TR",
               "types" : [ "country", "political" ]
            }
         ],
         "formatted_address" : "Turkey",
         "geometry" : {
            "bounds" : {
               "northeast" : {
                  "lat" : 42.3666999,
                  "lng" : 44.8178449
               },
               "southwest" : {
                  "lat" : 35.808592,
                  "lng" : 25.5377
               }
            },
            "location" : {
               "lat" : 38.963745,
               "lng" : 35.243322
            },
            "location_type" : "APPROXIMATE",
            "viewport" : {
               "northeast" : {
                  "lat" : 42.3666999,
                  "lng" : 44.8178449
               },
               "southwest" : {
                  "lat" : 35.808592,
                  "lng" : 25.5377
               }
            }
         },
         "place_id" : "ChIJcSZPllwVsBQRKl9iKtTb2UA",
         "types" : [ "country", "political" ]
      }
   ],
   "status" : "OK"
}
