{
   "plus_code" : {
      "compound_code" : "8VPV+C7 Boston, MA, USA",
      "global_code" : "87JC8VPV+C7"
   },
   "results" : [
      {
         "address_components" : [
            {
               "long_name" : "Brigham & Womens Hospital",
               "short_name" : "Brigham & Womens Hospital",
               "types" : [ "premise" ]
            },
            {
               "long_name" : "75",
               "short_name" : "75",
               "types" : [ "street_number" ]
            },
            {
               "long_name" : "Francis Street",
               "short_name" : "Francis St",
               "types" : [ "route" ]
            },
            {
               "long_name" : "Fenway/Kenmore",
               "short_name" : "Fenway/Kenmore",
               "types" : [ "neighborhood", "political" ]
            },
            {
               "long_name" : "Boston",
               "short_name" : "Boston",
               "types" : [ "locality", "political" ]
            },
            {
               "long_name" : "Suffolk County",
               "short_name" : "Suffolk County",
               "types" : [ "administrative_area_level_2", "political" ]
            },
            {
               "long_name" : "Massachusetts",
               "short_name" : "MA",
               "types" : [ "administrative_area_level_1", "political" ]
            },
            {
               "long_name" : "United States",
               "short_name" : "US",
               "types" : [ "country", "political" ]
            },
            {
               "long_name" : "02116",
               "short_name" : "02116",
               "types" : [ "postal_code" ]
            }
         ],
         "formatted_address" : "Brigham & Womens Hospital, 75 Francis St, Boston, MA 02116, USA",
         "geometry" : {
            "location" : {
               "lat" : 42.3360489,
               "lng" : -71.10683949999999
            },
            "location_type" : "ROOFTOP",
            "viewport" : {
               "northeast" : {
                  "lat" : 42.3373978802915,
                  "lng" : -71.10549051970848
               },
               "southwest" : {
                  "lat" : 42.33469991970851,
                  "lng" : -71.10818848029149
               }
            }
         },
         "place_id" : "ChIJwW97EJR544kRkQsrsJ8eAwM",
         "plus_code" : {
            "compound_code" : "8VPV+C7 Boston, Massachusetts, United States",
            "global_code" : "87JC8VPV+C7"
         },
         "types" : [
            "bakery",
            "cafe",
            "establishment",
            "food",
            "meal_takeaway",
            "point_of_interest",
            "restaurant",
            "store"
         ]
      },
      {
         "address_components" : [
            {
               "long_name" : "75",
               "short_name" : "75",
               "types" : [ "street_number" ]
            },
            {
               "long_name" : "Francis Street",
               "short_name" : "Francis St",
               "types" : [ "route" ]
            },
            {
               "long_name" : "Fenway/Kenmore",
               "short_name" : "Fenway/Kenmore",
               "types" : [ "neighborhood", "political" ]
            },
            {
               "long_name" : "Boston",
               "short_name" : "Boston",
               "types" : [ "locality", "political" ]
            },
            {
               "long_name" : "Suffolk County",
               "short_name" : "Suffolk County",
               "types" : [ "administrative_area_level_2", "political" ]
            },
            {
               "long_name" : "Massachusetts",
               "short_name" : "MA",
               "types" : [ "administrative_area_level_1", "political" ]
            },
            {
               "long_name" : "United States",
               "short_name" : "US",
               "types" : [ "country", "political" ]
            },
            {
               "long_name" : "02115",
               "short_name" : "02115",
               "types" : [ "postal_code" ]
            }
         ],
         "formatted_address" : "75 Francis St, Boston, MA 02115, USA",
         "geometry" : {
            "location" : {
               "lat" : 42.3360489,
               "lng" : -71.10683949999999
            },
            "location_type" : "ROOFTOP",
            "viewport" : {
               "northeast" : {
                  "lat" : 42.3373978802915,
                  "lng" : -71.10549051970848
               },
               "southwest" : {
                  "lat" : 42.33469991970851,
                  "lng" : -71.10818848029149
               }
            }
         },
         "place_id" : "ChIJK2GuZo5544kR-cdq-Iq9kWo",
         "plus_code" : {
            "compound_code" : "8VPV+C7 Boston, Massachusetts, United States",
            "global_code" : "87JC8VPV+C7"
         },
         "types" : [ "street_address" ]
      },
      {
         "address_components" : [
            {
               "long_name" : "Medical Center Area",
               "short_name" : "Medical Center Area",
               "types" : [ "neighborhood", "political" ]
            },
            {
               "long_name" : "Boston",
               "short_name" : "Boston",
               "types" : [ "locality", "political" ]
            },
            {
               "long_name" : "Suffolk County",
               "short_name" : "Suffolk County",
               "types" : [ "administrative_area_level_2", "political" ]
            },
            {
               "long_name" : "Massachusetts",
               "short_name" : "MA",
               "types" : [ "administrative_area_level_1", "political" ]
            },
            {
               "long_name" : "United States",
               "short_name" : "US",
               "types" : [ "country", "political" ]
            }
         ],
         "formatted_address" : "Medical Center Area, Boston, MA, USA",
         "geometry" : {
            "bounds" : {
               "northeast" : {
                  "lat" : 42.344478,
                  "lng" : -71.09389589999999
               },
               "southwest" : {
                  "lat" : 42.332897,
                  "lng" : -71.11159599999999
               }
            },
            "location" : {
               "lat" : 42.3376832,
               "lng" : -71.1047446
            },
            "location_type" : "APPROXIMATE",
            "viewport" : {
               "northeast" : {
                  "lat" : 42.344478,
                  "lng" : -71.09389589999999
               },
               "southwest" : {
                  "lat" : 42.332897,
                  "lng" : -71.11159599999999
               }
            }
         },
         "place_id" : "ChIJUbukgIt544kRy4IHkIJ0dIg",
         "types" : [ "neighborhood", "political" ]
      },
      {
         "address_components" : [
            {
               "long_name" : "02115",
               "short_name" : "02115",
               "types" : [ "postal_code" ]
            },
            {
               "long_name" : "Boston",
               "short_name" : "Boston",
               "types" : [ "locality", "political" ]
            },
            {
               "long_name" : "Suffolk County",
               "short_name" : "Suffolk County",
               "types" : [ "administrative_area_level_2", "political" ]
            },
            {
               "long_name" : "Massachusetts",
               "short_name" : "MA",
               "types" : [ "administrative_area_level_1", "political" ]
            },
            {
               "long_name" : "United States",
               "short_name" : "US",
               "types" : [ "country", "political" ]
            }
         ],
         "formatted_address" : "Boston, MA 02115, USA",
         "geometry" : {
            "bounds" : {
               "northeast" : {
                  "lat" : 42.3554169,
                  "lng" : -71.08051689999999
               },
               "southwest" : {
                  "lat" : 42.330787,
                  "lng" : -71.11305609999999
               }
            },
            "location" : {
               "lat" : 42.339904,
               "lng" : -71.0898892
            },
            "location_type" : "APPROXIMATE",
            "viewport" : {
               "northeast" : {
                  "lat" : 42.3554169,
                  "lng" : -71.08051689999999
               },
               "southwest" : {
                  "lat" : 42.330787,
                  "lng" : -71.11305609999999
               }
            }
         },
         "place_id" : "ChIJp6lIph9644kRmKYEWZO-Yno",
         "types" : [ "postal_code" ]
      },
      {
         "address_components" : [
            {
               "long_name" : "Fenway/Kenmore",
               "short_name" : "Fenway/Kenmore",
               "types" : [ "neighborhood", "political" ]
            },
            {
               "long_name" : "Boston",
               "short_name" : "Boston",
               "types" : [ "locality", "political" ]
            },
            {
               "long_name" : "Suffolk County",
               "short_name" : "Suffolk County",
               "types" : [ "administrative_area_level_2", "political" ]
            },
            {
               "long_name" : "Massachusetts",
               "short_name" : "MA",
               "types" : [ "administrative_area_level_1", "political" ]
            },
            {
               "long_name" : "United States",
               "short_name" : "US",
               "types" : [ "country", "political" ]
            }
         ],
         "formatted_address" : "Fenway/Kenmore, Boston, MA, USA",
         "geometry" : {
            "bounds" : {
               "northeast" : {
                  "lat" : 42.3522779,
                  "lng" : -71.0818948
               },
               "southwest" : {
                  "lat" : 42.332897,
                  "lng" : -71.11159599999999
               }
            },
            "location" : {
               "lat" : 42.3428653,
               "lng" : -71.1002881
            },
            "location_type" : "APPROXIMATE",
            "viewport" : {
               "northeast" : {
                  "lat" : 42.3522779,
                  "lng" : -71.0818948
               },
               "southwest" : {
                  "lat" : 42.332897,
                  "lng" : -71.11159599999999
               }
            }
         },
         "place_id" : "ChIJAfp8Lh5644kR9PDAZN8nEK8",
         "types" : [ "neighborhood", "political" ]
      },
      {
         "address_components" : [
            {
               "long_name" : "Boston",
               "short_name" : "Boston",
               "types" : [ "locality", "political" ]
            },
            {
               "long_name" : "Suffolk County",
               "short_name" : "Suffolk County",
               "types" : [ "administrative_area_level_2", "political" ]
            },
            {
               "long_name" : "Massachusetts",
               "short_name" : "MA",
               "types" : [ "administrative_area_level_1", "political" ]
            },
            {
               "long_name" : "United States",
               "short_name" : "US",
               "types" : [ "country", "political" ]
            }
         ],
         "formatted_address" : "Boston, MA, USA",
         "geometry" : {
            "bounds" : {
               "northeast" : {
                  "lat" : 42.40081989999999,
                  "lng" : -70.749455
               },
               "southwest" : {
                  "lat" : 42.22788,
                  "lng" : -71.191113
               }
            },
            "location" : {
               "lat" : 42.3600825,
               "lng" : -71.0588801
            },
            "location_type" : "APPROXIMATE",
            "viewport" : {
               "northeast" : {
                  "lat" : 42.40081989999999,
                  "lng" : -70.749455
               },
               "southwest" : {
                  "lat" : 42.22788,
                  "lng" : -71.191113
               }
            }
         },
         "place_id" : "ChIJGzE9DS1l44kRoOhiASS_fHg",
         "types" : [ "locality", "political" ]
      },
      {
         "address_components" : [
            {
               "long_name" : "Suffolk County",
               "short_name" : "Suffolk County",
               "types" : [ "administrative_area_level_2", "political" ]
            },
            {
               "long_name" : "Massachusetts",
               "short_name" : "MA",
               "types" : [ "administrative_area_level_1", "political" ]
            },
            {
               "long_name" : "United States",
               "short_name" : "US",
               "types" : [ "country", "political" ]
            }
         ],
         "formatted_address" : "Suffolk County, MA, USA",
         "geometry" : {
            "bounds" : {
               "northeast" : {
                  "lat" : 42.4500959,
                  "lng" : -70.648072
               },
               "southwest" : {
                  "lat" : 42.22788,
                  "lng" : -71.191113
               }
            },
            "location" : {
               "lat" : 42.3522866,
               "lng" : -71.0504229
            },
            "location_type" : "APPROXIMATE",
            "viewport" : {
               "northeast" : {
                  "lat" : 42.4500959,
                  "lng" : -70.648072
               },
               "southwest" : {
                  "lat" : 42.22788,
                  "lng" : -71.191113
               }
            }
         },
         "place_id" : "ChIJ6TarW9Sc44kR4nUWuotzEyI",
         "types" : [ "administrative_area_level_2", "political" ]
      },
      {
         "address_components" : [
            {
               "long_name" : "Massachusetts",
               "short_name" : "Massachusetts",
               "types" : [ "administrative_area_level_1", "political" ]
            },
            {
               "long_name" : "United States",
               "short_name" : "US",
               "types" : [ "country", "political" ]
            }
         ],
         "formatted_address" : "Massachusetts, USA",
         "geometry" : {
            "bounds" : {
               "northeast" : {
                  "lat" : 42.88679,
                  "lng" : -69.85886099999999
               },
               "southwest" : {
                  "lat" : 41.18705300000001,
                  "lng" : -73.5081419
               }
            },
            "location" : {
               "lat" : 42.4072107,
               "lng" : -71.3824374
            },
            "location_type" : "APPROXIMATE",
            "viewport" : {
               "northeast" : {
                  "lat" : 42.88679,
                  "lng" : -69.85886099999999
               },
               "southwest" : {
                  "lat" : 41.18705300000001,
                  "lng" : -73.5081419
               }
            }
         },
         "place_id" : "ChIJ_b9z6W1l44kRHA2DVTbQxkU",
         "types" : [ "administrative_area_level_1", "political" ]
      },
      {
         "address_components" : [
            {
               "long_name" : "United States",
               "short_name" : "US",
               "types" : [ "country", "political" ]
            }
         ],
         "formatted_address" : "United States",
         "geometry" : {
            "bounds" : {
               "northeast" : {
                  "lat" : 71.5388001,
                  "lng" : -66.885417
               },
               "southwest" : {
                  "lat" : 18.7763,
                  "lng" : 170.5957
               }
            },
            "location" : {
               "lat" : 37.09024,
               "lng" : -95.712891
            },
            "location_type" : "APPROXIMATE",
            "viewport" : {
               "northeast" : {
                  "lat" : 71.5388001,
                  "lng" : -66.885417
               },
               "southwest" : {
                  "lat" : 18.7763,
                  "lng" : 170.5957
               }
            }
         },
         "place_id" : "ChIJCzYy5IS16lQRQrfeQ5K5Oxw",
         "types" : [ "country", "political" ]
      }
   ],
   "status" : "OK"
}
