{
   "results" : [
      {
         "address_components" : [
            {
               "long_name" : "432",
               "short_name" : "432",
               "types" : [ "street_number" ]
            },
            {
               "long_name" : "Sarmiento",
               "short_name" : "Sarmiento",
               "types" : [ "route" ]
            },
            {
               "long_name" : "San Nicolas",
               "short_name" : "San Nicolas",
               "types" : [ "political", "sublocality", "sublocality_level_1" ]
            },
            {
               "long_name" : "Buenos Aires",
               "short_name" : "CABA",
               "types" : [ "locality", "political" ]
            },
            {
               "long_name" : "Comuna 1",
               "short_name" : "Comuna 1",
               "types" : [ "administrative_area_level_2", "political" ]
            },
            {
               "long_name" : "Buenos Aires",
               "short_name" : "CABA",
               "types" : [ "administrative_area_level_1", "political" ]
            },
            {
               "long_name" : "Argentina",
               "short_name" : "AR",
               "types" : [ "country", "political" ]
            },
            {
               "long_name" : "C1041",
               "short_name" : "C1041",
               "types" : [ "postal_code" ]
            },
            {
               "long_name" : "AAJ",
               "short_name" : "AAJ",
               "types" : [ "postal_code_suffix" ]
            }
         ],
         "formatted_address" : "Sarmiento 432, C1041AAJ CABA, Argentina",
         "geometry" : {
            "location" : {
               "lat" : -34.6044281,
               "lng" : -58.372765
            },
            "location_type" : "ROOFTOP",
            "viewport" : {
               "northeast" : {
                  "lat" : -34.6030791197085,
                  "lng" : -58.37141601970849
               },
               "southwest" : {
                  "lat" : -34.6057770802915,
                  "lng" : -58.3741139802915
               }
            }
         },
         "place_id" : "ChIJy-l_XM3KvJURPLUiesc4gLw",
         "types" : [ "street_address" ]
      },
      {
         "address_components" : [
            {
               "long_name" : "San Nicolás",
               "short_name" : "San Nicolás",
               "types" : [ "political", "sublocality", "sublocality_level_1" ]
            },
            {
               "long_name" : "Buenos Aires",
               "short_name" : "CABA",
               "types" : [ "locality", "political" ]
            },
            {
               "long_name" : "Comuna 1",
               "short_name" : "Comuna 1",
               "types" : [ "administrative_area_level_2", "political" ]
            },
            {
               "long_name" : "Buenos Aires",
               "short_name" : "CABA",
               "types" : [ "administrative_area_level_1", "political" ]
            },
            {
               "long_name" : "Argentina",
               "short_name" : "AR",
               "types" : [ "country", "political" ]
            }
         ],
         "formatted_address" : "San Nicolás, Buenos Aires, Argentina",
         "geometry" : {
            "bounds" : {
               "northeast" : {
                  "lat" : -34.5983212,
                  "lng" : -58.367652
               },
               "southwest" : {
                  "lat" : -34.609292,
                  "lng" : -58.39293079999999
               }
            },
            "location" : {
               "lat" : -34.6045547,
               "lng" : -58.3802473
            },
            "location_type" : "APPROXIMATE",
            "viewport" : {
               "northeast" : {
                  "lat" : -34.5983212,
                  "lng" : -58.367652
               },
               "southwest" : {
                  "lat" : -34.609292,
                  "lng" : -58.39293079999999
               }
            }
         },
         "place_id" : "ChIJ9dxVj8_KvJURgnMzFleTc9A",
         "types" : [ "political", "sublocality", "sublocality_level_1" ]
      },
      {
         "address_components" : [
            {
               "long_name" : "Buenos Aires",
               "short_name" : "CABA",
               "types" : [ "locality", "political" ]
            },
            {
               "long_name" : "Buenos Aires",
               "short_name" : "CABA",
               "types" : [ "administrative_area_level_1", "political" ]
            },
            {
               "long_name" : "Argentina",
               "short_name" : "AR",
               "types" : [ "country", "political" ]
            }
         ],
         "formatted_address" : "Buenos Aires, Argentina",
         "geometry" : {
            "bounds" : {
               "northeast" : {
                  "lat" : -34.5265464,
                  "lng" : -58.33514470000001
               },
               "southwest" : {
                  "lat" : -34.7051011,
                  "lng" : -58.5314522
               }
            },
            "location" : {
               "lat" : -34.6036844,
               "lng" : -58.3815591
            },
            "location_type" : "APPROXIMATE",
            "viewport" : {
               "northeast" : {
                  "lat" : -34.5265464,
                  "lng" : -58.33514470000001
               },
               "southwest" : {
                  "lat" : -34.7051011,
                  "lng" : -58.5314522
               }
            }
         },
         "place_id" : "ChIJvQz5TjvKvJURh47oiC6Bs6A",
         "types" : [ "locality", "political" ]
      },
      {
         "address_components" : [
            {
               "long_name" : "Comuna 1",
               "short_name" : "Comuna 1",
               "types" : [ "administrative_area_level_2", "political" ]
            },
            {
               "long_name" : "Buenos Aires",
               "short_name" : "CABA",
               "types" : [ "locality", "political" ]
            },
            {
               "long_name" : "Buenos Aires",
               "short_name" : "CABA",
               "types" : [ "administrative_area_level_1", "political" ]
            },
            {
               "long_name" : "Argentina",
               "short_name" : "AR",
               "types" : [ "country", "political" ]
            }
         ],
         "formatted_address" : "Comuna 1, Buenos Aires, Argentina",
         "geometry" : {
            "bounds" : {
               "northeast" : {
                  "lat" : -34.5684309,
                  "lng" : -58.33514470000001
               },
               "southwest" : {
                  "lat" : -34.6341243,
                  "lng" : -58.39293079999999
               }
            },
            "location" : {
               "lat" : -34.6079222,
               "lng" : -58.36598579999999
            },
            "location_type" : "APPROXIMATE",
            "viewport" : {
               "northeast" : {
                  "lat" : -34.5684309,
                  "lng" : -58.33514470000001
               },
               "southwest" : {
                  "lat" : -34.6341243,
                  "lng" : -58.39293079999999
               }
            }
         },
         "place_id" : "ChIJuQQBxzE1o5URe4mzo2cEmTc",
         "types" : [ "administrative_area_level_2", "political" ]
      },
      {
         "address_components" : [
            {
               "long_name" : "Buenos Aires",
               "short_name" : "CABA",
               "types" : [ "administrative_area_level_1", "political" ]
            },
            {
               "long_name" : "Buenos Aires",
               "short_name" : "CABA",
               "types" : [ "locality", "political" ]
            },
            {
               "long_name" : "Argentina",
               "short_name" : "AR",
               "types" : [ "country", "political" ]
            }
         ],
         "formatted_address" : "Buenos Aires, Argentina",
         "geometry" : {
            "bounds" : {
               "northeast" : {
                  "lat" : -34.5265464,
                  "lng" : -58.33514470000001
               },
               "southwest" : {
                  "lat" : -34.7055085,
                  "lng" : -58.5314522
               }
            },
            "location" : {
               "lat" : -34.6037618,
               "lng" : -58.38171499999999
            },
            "location_type" : "APPROXIMATE",
            "viewport" : {
               "northeast" : {
                  "lat" : -34.5265464,
                  "lng" : -58.33514470000001
               },
               "southwest" : {
                  "lat" : -34.7055085,
                  "lng" : -58.5314522
               }
            }
         },
         "place_id" : "ChIJu39FBT3KvJURF8D35_z0YOE",
         "types" : [ "administrative_area_level_1", "political" ]
      },
      {
         "address_components" : [
            {
               "long_name" : "Argentina",
               "short_name" : "AR",
               "types" : [ "country", "political" ]
            }
         ],
         "formatted_address" : "Argentina",
         "geometry" : {
            "bounds" : {
               "northeast" : {
                  "lat" : -21.7810459,
                  "lng" : -53.637481
               },
               "southwest" : {
                  "lat" : -55.1250224,
                  "lng" : -73.5603601
               }
            },
            "location" : {
               "lat" : -38.416097,
               "lng" : -63.61667199999999
            },
            "location_type" : "APPROXIMATE",
            "viewport" : {
               "northeast" : {
                  "lat" : -21.7810459,
                  "lng" : -53.637481
               },
               "southwest" : {
                  "lat" : -55.1250224,
                  "lng" : -73.5603601
               }
            }
         },
         "place_id" : "ChIJZ8b99fXKvJURqA_wKpl3Lz0",
         "types" : [ "country", "political" ]
      }
   ],
   "status" : "OK"
}
