{
   "plus_code" : {
      "compound_code" : "X9Q4+QQ Haidian, Beijing, China",
      "global_code" : "8PFRX9Q4+QQ"
   },
   "results" : [
      {
         "address_components" : [
            {
               "long_name" : "30",
               "short_name" : "30",
               "types" : [ "street_number" ]
            },
            {
               "long_name" : "Xueyuan Road",
               "short_name" : "Xueyuan Rd",
               "types" : [ "route" ]
            },
            {
               "long_name" : "Haidian Qu",
               "short_name" : "Haidian Qu",
               "types" : [ "political", "sublocality", "sublocality_level_1" ]
            },
            {
               "long_name" : "Beijing Shi",
               "short_name" : "Beijing Shi",
               "types" : [ "administrative_area_level_1", "political" ]
            },
            {
               "long_name" : "China",
               "short_name" : "CN",
               "types" : [ "country", "political" ]
            },
            {
               "long_name" : "100083",
               "short_name" : "100083",
               "types" : [ "postal_code" ]
            }
         ],
         "formatted_address" : "30 Xueyuan Rd, Haidian Qu, Beijing Shi, China, 100083",
         "geometry" : {
            "location" : {
               "lat" : 39.989458,
               "lng" : 116.356945
            },
            "location_type" : "ROOFTOP",
            "viewport" : {
               "northeast" : {
                  "lat" : 39.9908069802915,
                  "lng" : 116.3582939802915
               },
               "southwest" : {
                  "lat" : 39.9881090197085,
                  "lng" : 116.3555960197085
               }
            }
         },
         "place_id" : "ChIJMUbm-25U8DURtvxmUvL1g9w",
         "plus_code" : {
            "compound_code" : "X9Q4+QQ Haidian, Beijing, China",
            "global_code" : "8PFRX9Q4+QQ"
         },
         "types" : [ "establishment", "point_of_interest", "university" ]
      },
      {
         "address_components" : [
            {
               "long_name" : "Xuezi West Road",
               "short_name" : "Xuezi W Rd",
               "types" : [ "route" ]
            },
            {
               "long_name" : "Haidian Qu",
               "short_name" : "Haidian Qu",
               "types" : [ "political", "sublocality", "sublocality_level_1" ]
            },
            {
               "long_name" : "Beijing Shi",
               "short_name" : "Beijing Shi",
               "types" : [ "administrative_area_level_1", "political" ]
            },
            {
               "long_name" : "China",
               "short_name" : "CN",
               "types" : [ "country", "political" ]
            },
            {
               "long_name" : "100083",
               "short_name" : "100083",
               "types" : [ "postal_code" ]
            }
         ],
         "formatted_address" : "Xuezi W Rd, Haidian Qu, Beijing Shi, China, 100083",
         "geometry" : {
            "bounds" : {
               "northeast" : {
                  "lat" : 39.9891065,
                  "lng" : 116.3569869
               },
               "southwest" : {
                  "lat" : 39.9890987,
                  "lng" : 116.3566422
               }
            },
            "location" : {
               "lat" : 39.9891026,
               "lng" : 116.3568146
            },
            "location_type" : "GEOMETRIC_CENTER",
            "viewport" : {
               "northeast" : {
                  "lat" : 39.9904515802915,
                  "lng" : 116.3581635302915
               },
               "southwest" : {
                  "lat" : 39.9877536197085,
                  "lng" : 116.3554655697085
               }
            }
         },
         "place_id" : "ChIJYX63V25U8DURMGdfZl_F8a0",
         "types" : [ "route" ]
      },
      {
         "address_components" : [
            {
               "long_name" : "100083",
               "short_name" : "100083",
               "types" : [ "postal_code" ]
            },
            {
               "long_name" : "Haidian",
               "short_name" : "Haidian",
               "types" : [ "political", "sublocality", "sublocality_level_1" ]
            },
            {
               "long_name" : "Beijing",
               "short_name" : "Beijing",
               "types" : [ "administrative_area_level_1", "political" ]
            },
            {
               "long_name" : "China",
               "short_name" : "CN",
               "types" : [ "country", "political" ]
            }
         ],
         "formatted_address" : "Haidian, Beijing, China, 100083",
         "geometry" : {
            "bounds" : {
               "northeast" : {
                  "lat" : 40.0445591,
                  "lng" : 116.4385687
               },
               "southwest" : {
                  "lat" : 39.95913590000001,
                  "lng" : 116.2540857
               }
            },
            "location" : {
               "lat" : 39.9891783,
               "lng" : 116.3396433
            },
            "location_type" : "APPROXIMATE",
            "viewport" : {
               "northeast" : {
                  "lat" : 40.0445591,
                  "lng" : 116.4385687
               },
               "southwest" : {
                  "lat" : 39.95913590000001,
                  "lng" : 116.2540857
               }
            }
         },
         "place_id" : "ChIJWfxYrQ9U8DURLbKWEJQjJ0A",
         "types" : [ "postal_code" ]
      },
      {
         "address_components" : [
            {
               "long_name" : "Haidian",
               "short_name" : "Haidian",
               "types" : [ "political", "sublocality", "sublocality_level_1" ]
            },
            {
               "long_name" : "Beijing",
               "short_name" : "Beijing",
               "types" : [ "administrative_area_level_1", "political" ]
            },
            {
               "long_name" : "China",
               "short_name" : "CN",
               "types" : [ "country", "political" ]
            }
         ],
         "formatted_address" : "Haidian, Beijing, China",
         "geometry" : {
            "bounds" : {
               "northeast" : {
                  "lat" : 40.1609855,
                  "lng" : 116.3950925
               },
               "southwest" : {
                  "lat" : 39.8866432,
                  "lng" : 116.0488379
               }
            },
            "location" : {
               "lat" : 39.959953,
               "lng" : 116.298326
            },
            "location_type" : "APPROXIMATE",
            "viewport" : {
               "northeast" : {
                  "lat" : 40.1609855,
                  "lng" : 116.3950925
               },
               "southwest" : {
                  "lat" : 39.8866432,
                  "lng" : 116.0488379
               }
            }
         },
         "place_id" : "ChIJY61lyDdR8DURicN9xoOvSNM",
         "types" : [ "political", "sublocality", "sublocality_level_1" ]
      },
      {
         "address_components" : [
            {
               "long_name" : "Beijing",
               "short_name" : "Beijing",
               "types" : [ "locality", "political" ]
            },
            {
               "long_name" : "Beijing",
               "short_name" : "Beijing",
               "types" : [ "administrative_area_level_1", "political" ]
            },
            {
               "long_name" : "China",
               "short_name" : "CN",
               "types" : [ "country", "political" ]
            }
         ],
         "formatted_address" : "Beijing, China",
         "geometry" : {
            "bounds" : {
               "northeast" : {
                  "lat" : 41.0608157,
                  "lng" : 117.514625
               },
               "southwest" : {
                  "lat" : 39.442758,
                  "lng" : 115.4234112
               }
            },
            "location" : {
               "lat" : 39.90419989999999,
               "lng" : 116.4073963
            },
            "location_type" : "APPROXIMATE",
            "viewport" : {
               "northeast" : {
                  "lat" : 41.0608157,
                  "lng" : 117.514625
               },
               "southwest" : {
                  "lat" : 39.442758,
                  "lng" : 115.4234112
               }
            }
         },
         "place_id" : "ChIJuSwU55ZS8DURiqkPryBWYrk",
         "types" : [ "locality", "political" ]
      },
      {
         "address_components" : [
            {
               "long_name" : "Beijing",
               "short_name" : "Beijing",
               "types" : [ "administrative_area_level_1", "political" ]
            },
            {
               "long_name" : "China",
               "short_name" : "CN",
               "types" : [ "country", "political" ]
            }
         ],
         "formatted_address" : "Beijing, China",
         "geometry" : {
            "bounds" : {
               "northeast" : {
                  "lat" : 41.0608157,
                  "lng" : 117.514625
               },
               "southwest" : {
                  "lat" : 39.442758,
                  "lng" : 115.4234112
               }
            },
            "location" : {
               "lat" : 40.2373519,
               "lng" : 116.2304616
            },
            "location_type" : "APPROXIMATE",
            "viewport" : {
               "northeast" : {
                  "lat" : 41.0608157,
                  "lng" : 117.514625
               },
               "southwest" : {
                  "lat" : 39.442758,
                  "lng" : 115.4234112
               }
            }
         },
         "place_id" : "ChIJuSwU55ZS8DURp8_dOLuVd8A",
         "types" : [ "administrative_area_level_1", "political" ]
      },
      {
         "address_components" : [
            {
               "long_name" : "China",
               "short_name" : "CN",
               "types" : [ "country", "political" ]
            }
         ],
         "formatted_address" : "China",
         "geometry" : {
            "bounds" : {
               "northeast" : {
                  "lat" : 53.5609739,
                  "lng" : 134.7754563
               },
               "southwest" : {
                  "lat" : 17.9996,
                  "lng" : 73.4994136
               }
            },
            "location" : {
               "lat" : 35.86166,
               "lng" : 104.195397
            },
            "location_type" : "APPROXIMATE",
            "viewport" : {
               "northeast" : {
                  "lat" : 53.5609739,
                  "lng" : 134.7754563
               },
               "southwest" : {
                  "lat" : 17.9996,
                  "lng" : 73.4994136
               }
            }
         },
         "place_id" : "ChIJwULG5WSOUDERbzafNHyqHZU",
         "types" : [ "country", "political" ]
      }
   ],
   "status" : "OK"
}
