{
   "plus_code" : {
      "compound_code" : "Q3M4+XX Bielsko-Biala, Poland",
      "global_code" : "8FXXQ3M4+XX"
   },
   "results" : [
      {
         "address_components" : [
            {
               "long_name" : "2",
               "short_name" : "2",
               "types" : [ "street_number" ]
            },
            {
               "long_name" : "Willowa",
               "short_name" : "Willowa",
               "types" : [ "route" ]
            },
            {
               "long_name" : "Bielsko-Biała",
               "short_name" : "Bielsko-Biała",
               "types" : [ "locality", "political" ]
            },
            {
               "long_name" : "Bielsko-Biała",
               "short_name" : "Bielsko-Biała",
               "types" : [ "administrative_area_level_2", "political" ]
            },
            {
               "long_name" : "śląskie",
               "short_name" : "śląskie",
               "types" : [ "administrative_area_level_1", "political" ]
            },
            {
               "long_name" : "Poland",
               "short_name" : "PL",
               "types" : [ "country", "political" ]
            },
            {
               "long_name" : "43-300",
               "short_name" : "43-300",
               "types" : [ "postal_code" ]
            }
         ],
         "formatted_address" : "Willowa 2, 43-300 Bielsko-Biała, Poland",
         "geometry" : {
            "location" : {
               "lat" : 49.784877,
               "lng" : 19.0574819
            },
            "location_type" : "ROOFTOP",
            "viewport" : {
               "northeast" : {
                  "lat" : 49.7862259802915,
                  "lng" : 19.0588308802915
               },
               "southwest" : {
                  "lat" : 49.78352801970851,
                  "lng" : 19.0561329197085
               }
            }
         },
         "place_id" : "ChIJlyuGp8CfFkcRz574zuL5WKs",
         "plus_code" : {
            "compound_code" : "Q3M4+XX Bielsko-Biala, Poland",
            "global_code" : "8FXXQ3M4+XX"
         },
         "types" : [ "establishment", "point_of_interest", "university" ]
      },
      {
         "address_components" : [
            {
               "long_name" : "7",
               "short_name" : "7",
               "types" : [ "street_number" ]
            },
            {
               "long_name" : "Czołgistów",
               "short_name" : "Czołgistów",
               "types" : [ "route" ]
            },
            {
               "long_name" : "Bielsko-Biała",
               "short_name" : "Bielsko-Biała",
               "types" : [ "locality", "political" ]
            },
            {
               "long_name" : "Bielsko-Biała",
               "short_name" : "Bielsko-Biała",
               "types" : [ "administrative_area_level_2", "political" ]
            },
            {
               "long_name" : "śląskie",
               "short_name" : "śląskie",
               "types" : [ "administrative_area_level_1", "political" ]
            },
            {
               "long_name" : "Poland",
               "short_name" : "PL",
               "types" : [ "country", "political" ]
            },
            {
               "long_name" : "43-309",
               "short_name" : "43-309",
               "types" : [ "postal_code" ]
            }
         ],
         "formatted_address" : "Czołgistów 7, 43-309 Bielsko-Biała, Poland",
         "geometry" : {
            "location" : {
               "lat" : 49.7854312,
               "lng" : 19.0568979
            },
            "location_type" : "ROOFTOP",
            "viewport" : {
               "northeast" : {
                  "lat" : 49.78678018029149,
                  "lng" : 19.0582468802915
               },
               "southwest" : {
                  "lat" : 49.78408221970849,
                  "lng" : 19.0555489197085
               }
            }
         },
         "place_id" : "ChIJ6X6Iob-fFkcRNbRcVEuUOhw",
         "plus_code" : {
            "compound_code" : "Q3P4+5Q Bielsko-Biala, Poland",
            "global_code" : "8FXXQ3P4+5Q"
         },
         "types" : [ "street_address" ]
      },
      {
         "address_components" : [
            {
               "long_name" : "10",
               "short_name" : "10",
               "types" : [ "street_number" ]
            },
            {
               "long_name" : "Czołgistów",
               "short_name" : "Czołgistów",
               "types" : [ "route" ]
            },
            {
               "long_name" : "Bielsko-Biała",
               "short_name" : "Bielsko-Biała",
               "types" : [ "locality", "political" ]
            },
            {
               "long_name" : "Poland",
               "short_name" : "PL",
               "types" : [ "country", "political" ]
            },
            {
               "long_name" : "43-309",
               "short_name" : "43-309",
               "types" : [ "postal_code" ]
            }
         ],
         "formatted_address" : "Czołgistów 10, 43-309 Bielsko-Biała, Poland",
         "geometry" : {
            "location" : {
               "lat" : 49.7851242,
               "lng" : 19.0567317
            },
            "location_type" : "RANGE_INTERPOLATED",
            "viewport" : {
               "northeast" : {
                  "lat" : 49.78647318029149,
                  "lng" : 19.0580806802915
               },
               "southwest" : {
                  "lat" : 49.7837752197085,
                  "lng" : 19.0553827197085
               }
            }
         },
         "place_id" : "Ei5Dem_Fgmdpc3TDs3cgMTAsIDQzLTMwOSBCaWVsc2tvLUJpYcWCYSwgUG9sc2thIhoSGAoUChIJg__VoL-fFkcR5hqyOv7amtoQCg",
         "types" : [ "street_address" ]
      },
      {
         "address_components" : [
            {
               "long_name" : "43-309",
               "short_name" : "43-309",
               "types" : [ "postal_code" ]
            },
            {
               "long_name" : "Bielsko-Biala",
               "short_name" : "Bielsko-Biala",
               "types" : [ "locality", "political" ]
            },
            {
               "long_name" : "Silesian Voivodeship",
               "short_name" : "Silesian Voivodeship",
               "types" : [ "administrative_area_level_1", "political" ]
            },
            {
               "long_name" : "Poland",
               "short_name" : "PL",
               "types" : [ "country", "political" ]
            }
         ],
         "formatted_address" : "43-309 Bielsko-Biala, Poland",
         "geometry" : {
            "bounds" : {
               "northeast" : {
                  "lat" : 49.8206676,
                  "lng" : 19.0810859
               },
               "southwest" : {
                  "lat" : 49.7382139,
                  "lng" : 18.9806216
               }
            },
            "location" : {
               "lat" : 49.79903789999999,
               "lng" : 19.0409297
            },
            "location_type" : "APPROXIMATE",
            "viewport" : {
               "northeast" : {
                  "lat" : 49.8206676,
                  "lng" : 19.0810859
               },
               "southwest" : {
                  "lat" : 49.7382139,
                  "lng" : 18.9806216
               }
            }
         },
         "place_id" : "ChIJf2sPtPSfFkcRJoTqWc2zTlE",
         "types" : [ "postal_code" ]
      },
      {
         "address_components" : [
            {
               "long_name" : "Bielsko-Biała",
               "short_name" : "Bielsko-Biała",
               "types" : [ "administrative_area_level_2", "political" ]
            },
            {
               "long_name" : "Bielsko-Biała",
               "short_name" : "Bielsko-Biała",
               "types" : [ "locality", "political" ]
            },
            {
               "long_name" : "śląskie",
               "short_name" : "śląskie",
               "types" : [ "administrative_area_level_1", "political" ]
            },
            {
               "long_name" : "Poland",
               "short_name" : "PL",
               "types" : [ "country", "political" ]
            },
            {
               "long_name" : "43-300",
               "short_name" : "43-300",
               "types" : [ "postal_code" ]
            }
         ],
         "formatted_address" : "Bielsko-Biała, 43-300 Bielsko-Biała, Poland",
         "geometry" : {
            "bounds" : {
               "northeast" : {
                  "lat" : 49.8877222,
                  "lng" : 19.1300201
               },
               "southwest" : {
                  "lat" : 49.7366781,
                  "lng" : 18.9445044
               }
            },
            "location" : {
               "lat" : 49.8202961,
               "lng" : 19.0304985
            },
            "location_type" : "APPROXIMATE",
            "viewport" : {
               "northeast" : {
                  "lat" : 49.8877222,
                  "lng" : 19.1300201
               },
               "southwest" : {
                  "lat" : 49.7366781,
                  "lng" : 18.9445044
               }
            }
         },
         "place_id" : "ChIJ6RO0ttWhFkcRD85kV9rI0SI",
         "types" : [ "administrative_area_level_2", "political" ]
      },
      {
         "address_components" : [
            {
               "long_name" : "Bielsko-Biala",
               "short_name" : "Bielsko-Biala",
               "types" : [ "locality", "political" ]
            },
            {
               "long_name" : "Bielsko-Biała",
               "short_name" : "Bielsko-Biała",
               "types" : [ "administrative_area_level_2", "political" ]
            },
            {
               "long_name" : "Silesian Voivodeship",
               "short_name" : "Silesian Voivodeship",
               "types" : [ "administrative_area_level_1", "political" ]
            },
            {
               "long_name" : "Poland",
               "short_name" : "PL",
               "types" : [ "country", "political" ]
            },
            {
               "long_name" : "43-300",
               "short_name" : "43-300",
               "types" : [ "postal_code" ]
            }
         ],
         "formatted_address" : "43-300 Bielsko-Biala, Poland",
         "geometry" : {
            "bounds" : {
               "northeast" : {
                  "lat" : 49.8877222,
                  "lng" : 19.1300201
               },
               "southwest" : {
                  "lat" : 49.7366781,
                  "lng" : 18.9445044
               }
            },
            "location" : {
               "lat" : 49.8223768,
               "lng" : 19.0583845
            },
            "location_type" : "APPROXIMATE",
            "viewport" : {
               "northeast" : {
                  "lat" : 49.8877222,
                  "lng" : 19.1300201
               },
               "southwest" : {
                  "lat" : 49.7366781,
                  "lng" : 18.9445044
               }
            }
         },
         "place_id" : "ChIJe1CA3WOfFkcRp-NP-of1EWg",
         "types" : [ "locality", "political" ]
      },
      {
         "address_components" : [
            {
               "long_name" : "Bielsko-Biała",
               "short_name" : "Bielsko-Biała",
               "types" : [ "administrative_area_level_3", "political" ]
            },
            {
               "long_name" : "Bielsko-Biała",
               "short_name" : "Bielsko-Biała",
               "types" : [ "locality", "political" ]
            },
            {
               "long_name" : "Bielsko-Biała",
               "short_name" : "Bielsko-Biała",
               "types" : [ "administrative_area_level_2", "political" ]
            },
            {
               "long_name" : "śląskie",
               "short_name" : "śląskie",
               "types" : [ "administrative_area_level_1", "political" ]
            },
            {
               "long_name" : "Poland",
               "short_name" : "PL",
               "types" : [ "country", "political" ]
            },
            {
               "long_name" : "43-300",
               "short_name" : "43-300",
               "types" : [ "postal_code" ]
            }
         ],
         "formatted_address" : "Bielsko-Biała, 43-300 Bielsko-Biała, Poland",
         "geometry" : {
            "bounds" : {
               "northeast" : {
                  "lat" : 49.8877222,
                  "lng" : 19.1300201
               },
               "southwest" : {
                  "lat" : 49.7366781,
                  "lng" : 18.9445044
               }
            },
            "location" : {
               "lat" : 49.8202961,
               "lng" : 19.0304985
            },
            "location_type" : "APPROXIMATE",
            "viewport" : {
               "northeast" : {
                  "lat" : 49.8877222,
                  "lng" : 19.1300201
               },
               "southwest" : {
                  "lat" : 49.7366781,
                  "lng" : 18.9445044
               }
            }
         },
         "place_id" : "ChIJ6RO0ttWhFkcRlcmZDq-entI",
         "types" : [ "administrative_area_level_3", "political" ]
      },
      {
         "address_components" : [
            {
               "long_name" : "43",
               "short_name" : "43",
               "types" : [ "postal_code", "postal_code_prefix" ]
            },
            {
               "long_name" : "Poland",
               "short_name" : "PL",
               "types" : [ "country", "political" ]
            }
         ],
         "formatted_address" : "Poland",
         "geometry" : {
            "bounds" : {
               "northeast" : {
                  "lat" : 50.2609912,
                  "lng" : 19.4416729
               },
               "southwest" : {
                  "lat" : 49.5370711,
                  "lng" : 18.5742518
               }
            },
            "location" : {
               "lat" : 49.8655188,
               "lng" : 18.9515842
            },
            "location_type" : "APPROXIMATE",
            "viewport" : {
               "northeast" : {
                  "lat" : 50.2609912,
                  "lng" : 19.4416729
               },
               "southwest" : {
                  "lat" : 49.5370711,
                  "lng" : 18.5742518
               }
            }
         },
         "place_id" : "ChIJoSy8pAqjFkcRJ5Vf10Mmhww",
         "types" : [ "postal_code", "postal_code_prefix" ]
      },
      {
         "address_components" : [
            {
               "long_name" : "Silesian Voivodeship",
               "short_name" : "Silesian Voivodeship",
               "types" : [ "administrative_area_level_1", "political" ]
            },
            {
               "long_name" : "Poland",
               "short_name" : "PL",
               "types" : [ "country", "political" ]
            }
         ],
         "formatted_address" : "Silesian Voivodeship, Poland",
         "geometry" : {
            "bounds" : {
               "northeast" : {
                  "lat" : 51.0993559,
                  "lng" : 19.9739915
               },
               "southwest" : {
                  "lat" : 49.393975,
                  "lng" : 18.03475
               }
            },
            "location" : {
               "lat" : 50.5716595,
               "lng" : 19.3219768
            },
            "location_type" : "APPROXIMATE",
            "viewport" : {
               "northeast" : {
                  "lat" : 51.0993559,
                  "lng" : 19.9739915
               },
               "southwest" : {
                  "lat" : 49.393975,
                  "lng" : 18.03475
               }
            }
         },
         "place_id" : "ChIJI_4pjVvOFkcRVyRWoIov_rA",
         "types" : [ "administrative_area_level_1", "political" ]
      },
      {
         "address_components" : [
            {
               "long_name" : "Poland",
               "short_name" : "PL",
               "types" : [ "country", "political" ]
            }
         ],
         "formatted_address" : "Poland",
         "geometry" : {
            "bounds" : {
               "northeast" : {
                  "lat" : 54.9054761,
                  "lng" : 24.1458931
               },
               "southwest" : {
                  "lat" : 49.002025,
                  "lng" : 14.1228641
               }
            },
            "location" : {
               "lat" : 51.919438,
               "lng" : 19.145136
            },
            "location_type" : "APPROXIMATE",
            "viewport" : {
               "northeast" : {
                  "lat" : 54.9054761,
                  "lng" : 24.1458931
               },
               "southwest" : {
                  "lat" : 49.002025,
                  "lng" : 14.1228641
               }
            }
         },
         "place_id" : "ChIJuwtkpGSZAEcR6lXMScpzdQk",
         "types" : [ "country", "political" ]
      }
   ],
   "status" : "OK"
}
