{
   "plus_code" : {
      "compound_code" : "GJ6R+2C Armidale NSW, Australia",
      "global_code" : "4RXHGJ6R+2C"
   },
   "results" : [
      {
         "address_components" : [
            {
               "long_name" : "Sports Union Road",
               "short_name" : "Sports Union Rd",
               "types" : [ "route" ]
            },
            {
               "long_name" : "Armidale",
               "short_name" : "Armidale",
               "types" : [ "locality", "political" ]
            },
            {
               "long_name" : "Armidale Dumaresq Council",
               "short_name" : "Armidale Dumaresq",
               "types" : [ "administrative_area_level_2", "political" ]
            },
            {
               "long_name" : "New South Wales",
               "short_name" : "NSW",
               "types" : [ "administrative_area_level_1", "political" ]
            },
            {
               "long_name" : "Australia",
               "short_name" : "AU",
               "types" : [ "country", "political" ]
            },
            {
               "long_name" : "2350",
               "short_name" : "2350",
               "types" : [ "postal_code" ]
            }
         ],
         "formatted_address" : "Sports Union Rd, Armidale NSW 2350, Australia",
         "geometry" : {
            "bounds" : {
               "northeast" : {
                  "lat" : -30.4902502,
                  "lng" : 151.6419368
               },
               "southwest" : {
                  "lat" : -30.4903957,
                  "lng" : 151.6405834
               }
            },
            "location" : {
               "lat" : -30.490323,
               "lng" : 151.6412601
            },
            "location_type" : "GEOMETRIC_CENTER",
            "viewport" : {
               "northeast" : {
                  "lat" : -30.4889739697085,
                  "lng" : 151.6426090802915
               },
               "southwest" : {
                  "lat" : -30.4916719302915,
                  "lng" : 151.6399111197085
               }
            }
         },
         "place_id" : "ChIJv56xkY91n2sRJCDNY7wnLR0",
         "types" : [ "route" ]
      },
      {
         "address_components" : [
            {
               "long_name" : "Armidale",
               "short_name" : "Armidale",
               "types" : [ "locality", "political" ]
            },
            {
               "long_name" : "Armidale Dumaresq Council",
               "short_name" : "Armidale Dumaresq",
               "types" : [ "administrative_area_level_2", "political" ]
            },
            {
               "long_name" : "New South Wales",
               "short_name" : "NSW",
               "types" : [ "administrative_area_level_1", "political" ]
            },
            {
               "long_name" : "Australia",
               "short_name" : "AU",
               "types" : [ "country", "political" ]
            },
            {
               "long_name" : "2350",
               "short_name" : "2350",
               "types" : [ "postal_code" ]
            }
         ],
         "formatted_address" : "Armidale NSW 2350, Australia",
         "geometry" : {
            "bounds" : {
               "northeast" : {
                  "lat" : -30.4172103,
                  "lng" : 151.775605
               },
               "southwest" : {
                  "lat" : -30.5839663,
                  "lng" : 151.5591816
               }
            },
            "location" : {
               "lat" : -30.5015616,
               "lng" : 151.6661993
            },
            "location_type" : "APPROXIMATE",
            "viewport" : {
               "northeast" : {
                  "lat" : -30.4172103,
                  "lng" : 151.775605
               },
               "southwest" : {
                  "lat" : -30.5839663,
                  "lng" : 151.5591816
               }
            }
         },
         "place_id" : "ChIJfVxG3dufn2sRwClEkLQJBgU",
         "types" : [ "locality", "political" ]
      },
      {
         "address_components" : [
            {
               "long_name" : "Armidale Dumaresq Council",
               "short_name" : "Armidale Dumaresq",
               "types" : [ "administrative_area_level_2", "political" ]
            },
            {
               "long_name" : "New South Wales",
               "short_name" : "NSW",
               "types" : [ "administrative_area_level_1", "political" ]
            },
            {
               "long_name" : "Australia",
               "short_name" : "AU",
               "types" : [ "country", "political" ]
            }
         ],
         "formatted_address" : "Armidale Dumaresq, NSW, Australia",
         "geometry" : {
            "bounds" : {
               "northeast" : {
                  "lat" : -30.2315601,
                  "lng" : 152.4280783
               },
               "southwest" : {
                  "lat" : -30.9310882,
                  "lng" : 151.3216259
               }
            },
            "location" : {
               "lat" : -30.4941859,
               "lng" : 151.9813913
            },
            "location_type" : "APPROXIMATE",
            "viewport" : {
               "northeast" : {
                  "lat" : -30.2315601,
                  "lng" : 152.4280783
               },
               "southwest" : {
                  "lat" : -30.9310882,
                  "lng" : 151.3216259
               }
            }
         },
         "place_id" : "ChIJPXdpvMSnn2sRamkBGce1LIM",
         "types" : [ "administrative_area_level_2", "political" ]
      },
      {
         "address_components" : [
            {
               "long_name" : "2350",
               "short_name" : "2350",
               "types" : [ "postal_code" ]
            },
            {
               "long_name" : "New South Wales",
               "short_name" : "NSW",
               "types" : [ "administrative_area_level_1", "political" ]
            },
            {
               "long_name" : "Australia",
               "short_name" : "AU",
               "types" : [ "country", "political" ]
            }
         ],
         "formatted_address" : "New South Wales 2350, Australia",
         "geometry" : {
            "bounds" : {
               "northeast" : {
                  "lat" : -30.0711288,
                  "lng" : 152.3881565
               },
               "southwest" : {
                  "lat" : -30.8716705,
                  "lng" : 151.1344845
               }
            },
            "location" : {
               "lat" : -30.4941859,
               "lng" : 151.9813913
            },
            "location_type" : "APPROXIMATE",
            "viewport" : {
               "northeast" : {
                  "lat" : -30.0711288,
                  "lng" : 152.3881565
               },
               "southwest" : {
                  "lat" : -30.8716705,
                  "lng" : 151.1344845
               }
            }
         },
         "place_id" : "ChIJla74rqQLn2sRgAXTzLcJBhw",
         "types" : [ "postal_code" ]
      },
      {
         "address_components" : [
            {
               "long_name" : "New South Wales",
               "short_name" : "New South Wales",
               "types" : [ "administrative_area_level_1", "political" ]
            },
            {
               "long_name" : "Australia",
               "short_name" : "AU",
               "types" : [ "country", "political" ]
            }
         ],
         "formatted_address" : "New South Wales, Australia",
         "geometry" : {
            "bounds" : {
               "northeast" : {
                  "lat" : -28.15702,
                  "lng" : 159.1054441
               },
               "southwest" : {
                  "lat" : -37.5052801,
                  "lng" : 140.9992793
               }
            },
            "location" : {
               "lat" : -31.2532183,
               "lng" : 146.921099
            },
            "location_type" : "APPROXIMATE",
            "viewport" : {
               "northeast" : {
                  "lat" : -28.15702,
                  "lng" : 159.1054441
               },
               "southwest" : {
                  "lat" : -37.5052801,
                  "lng" : 140.9992793
               }
            }
         },
         "place_id" : "ChIJDUte93TLDWsRLZ_EIhGvgBc",
         "types" : [ "administrative_area_level_1", "political" ]
      },
      {
         "address_components" : [
            {
               "long_name" : "Australia",
               "short_name" : "AU",
               "types" : [ "country", "political" ]
            }
         ],
         "formatted_address" : "Australia",
         "geometry" : {
            "bounds" : {
               "northeast" : {
                  "lat" : -9.187026399999999,
                  "lng" : 159.2872223
               },
               "southwest" : {
                  "lat" : -54.83376579999999,
                  "lng" : 110.9510339
               }
            },
            "location" : {
               "lat" : -25.274398,
               "lng" : 133.775136
            },
            "location_type" : "APPROXIMATE",
            "viewport" : {
               "northeast" : {
                  "lat" : -9.187026399999999,
                  "lng" : 159.2872223
               },
               "southwest" : {
                  "lat" : -54.83376579999999,
                  "lng" : 110.9510339
               }
            }
         },
         "place_id" : "ChIJ38WHZwf9KysRUhNblaFnglM",
         "types" : [ "country", "political" ]
      }
   ],
   "status" : "OK"
}
