{
   "plus_code" : {
      "compound_code" : "QVMH+87 Villeurbanne, France",
      "global_code" : "8FQ6QVMH+87"
   },
   "results" : [
      {
         "address_components" : [
            {
               "long_name" : "20",
               "short_name" : "20",
               "types" : [ "street_number" ]
            },
            {
               "long_name" : "Avenue Albert Einstein",
               "short_name" : "Avenue Albert Einstein",
               "types" : [ "route" ]
            },
            {
               "long_name" : "Villeurbanne",
               "short_name" : "Villeurbanne",
               "types" : [ "locality", "political" ]
            },
            {
               "long_name" : "Rhône",
               "short_name" : "Rhône",
               "types" : [ "administrative_area_level_2", "political" ]
            },
            {
               "long_name" : "Auvergne-Rhône-Alpes",
               "short_name" : "Auvergne-Rhône-Alpes",
               "types" : [ "administrative_area_level_1", "political" ]
            },
            {
               "long_name" : "France",
               "short_name" : "FR",
               "types" : [ "country", "political" ]
            },
            {
               "long_name" : "69100",
               "short_name" : "69100",
               "types" : [ "postal_code" ]
            }
         ],
         "formatted_address" : "20 Avenue Albert Einstein, 69100 Villeurbanne, France",
         "geometry" : {
            "location" : {
               "lat" : 45.7833244,
               "lng" : 4.8781984
            },
            "location_type" : "ROOFTOP",
            "viewport" : {
               "northeast" : {
                  "lat" : 45.7846733802915,
                  "lng" : 4.879547380291502
               },
               "southwest" : {
                  "lat" : 45.7819754197085,
                  "lng" : 4.876849419708497
               }
            }
         },
         "place_id" : "ChIJq4MHrh_A9EcR69ImN2ZmTuI",
         "plus_code" : {
            "compound_code" : "QVMH+87 Villeurbanne, France",
            "global_code" : "8FQ6QVMH+87"
         },
         "types" : [ "establishment", "point_of_interest", "university" ]
      },
      {
         "address_components" : [
            {
               "long_name" : "37",
               "short_name" : "37",
               "types" : [ "street_number" ]
            },
            {
               "long_name" : "Avenue Jean Capelle Est",
               "short_name" : "Avenue Jean Capelle E",
               "types" : [ "route" ]
            },
            {
               "long_name" : "Villeurbanne",
               "short_name" : "Villeurbanne",
               "types" : [ "locality", "political" ]
            },
            {
               "long_name" : "Rhône",
               "short_name" : "Rhône",
               "types" : [ "administrative_area_level_2", "political" ]
            },
            {
               "long_name" : "Auvergne-Rhône-Alpes",
               "short_name" : "Auvergne-Rhône-Alpes",
               "types" : [ "administrative_area_level_1", "political" ]
            },
            {
               "long_name" : "France",
               "short_name" : "FR",
               "types" : [ "country", "political" ]
            },
            {
               "long_name" : "69100",
               "short_name" : "69100",
               "types" : [ "postal_code" ]
            }
         ],
         "formatted_address" : "37 Avenue Jean Capelle E, 69100 Villeurbanne, France",
         "geometry" : {
            "location" : {
               "lat" : 45.7832638,
               "lng" : 4.878061499999999
            },
            "location_type" : "ROOFTOP",
            "viewport" : {
               "northeast" : {
                  "lat" : 45.7846127802915,
                  "lng" : 4.879410480291502
               },
               "southwest" : {
                  "lat" : 45.7819148197085,
                  "lng" : 4.876712519708497
               }
            }
         },
         "place_id" : "ChIJy7gtrB_A9EcRsi1yPnKBY7s",
         "plus_code" : {
            "compound_code" : "QVMH+86 Villeurbanne, France",
            "global_code" : "8FQ6QVMH+86"
         },
         "types" : [ "street_address" ]
      },
      {
         "address_components" : [
            {
               "long_name" : "37",
               "short_name" : "37",
               "types" : [ "street_number" ]
            },
            {
               "long_name" : "Avenue Jean Capelle Est",
               "short_name" : "Avenue Jean Capelle E",
               "types" : [ "route" ]
            },
            {
               "long_name" : "Villeurbanne",
               "short_name" : "Villeurbanne",
               "types" : [ "locality", "political" ]
            },
            {
               "long_name" : "France",
               "short_name" : "FR",
               "types" : [ "country", "political" ]
            },
            {
               "long_name" : "69100",
               "short_name" : "69100",
               "types" : [ "postal_code" ]
            }
         ],
         "formatted_address" : "37 Avenue Jean Capelle E, 69100 Villeurbanne, France",
         "geometry" : {
            "location" : {
               "lat" : 45.782852,
               "lng" : 4.8779504
            },
            "location_type" : "RANGE_INTERPOLATED",
            "viewport" : {
               "northeast" : {
                  "lat" : 45.7842009802915,
                  "lng" : 4.879299380291502
               },
               "southwest" : {
                  "lat" : 45.7815030197085,
                  "lng" : 4.876601419708497
               }
            }
         },
         "place_id" : "EjQzNyBBdmVudWUgSmVhbiBDYXBlbGxlIEUsIDY5MTAwIFZpbGxldXJiYW5uZSwgRnJhbmNlIhoSGAoUChIJ5fVTpR_A9EcRFCtu9tWEEA4QJQ",
         "types" : [ "street_address" ]
      },
      {
         "address_components" : [
            {
               "long_name" : "Doua",
               "short_name" : "Doua",
               "types" : [ "neighborhood", "political" ]
            },
            {
               "long_name" : "Lyon",
               "short_name" : "Lyon",
               "types" : [ "locality", "political" ]
            },
            {
               "long_name" : "Rhône",
               "short_name" : "Rhône",
               "types" : [ "administrative_area_level_2", "political" ]
            },
            {
               "long_name" : "Auvergne-Rhône-Alpes",
               "short_name" : "Auvergne-Rhône-Alpes",
               "types" : [ "administrative_area_level_1", "political" ]
            },
            {
               "long_name" : "France",
               "short_name" : "FR",
               "types" : [ "country", "political" ]
            }
         ],
         "formatted_address" : "Doua, Lyon, France",
         "geometry" : {
            "bounds" : {
               "northeast" : {
                  "lat" : 45.796102,
                  "lng" : 4.893818899999999
               },
               "southwest" : {
                  "lat" : 45.776047,
                  "lng" : 4.8592029
               }
            },
            "location" : {
               "lat" : 45.7836359,
               "lng" : 4.8731316
            },
            "location_type" : "APPROXIMATE",
            "viewport" : {
               "northeast" : {
                  "lat" : 45.796102,
                  "lng" : 4.893818899999999
               },
               "southwest" : {
                  "lat" : 45.776047,
                  "lng" : 4.8592029
               }
            }
         },
         "place_id" : "ChIJt_T3Lmvq9EcRMOulVD-ucPI",
         "types" : [ "neighborhood", "political" ]
      },
      {
         "address_components" : [
            {
               "long_name" : "69100",
               "short_name" : "69100",
               "types" : [ "postal_code" ]
            },
            {
               "long_name" : "Villeurbanne",
               "short_name" : "Villeurbanne",
               "types" : [ "locality", "political" ]
            },
            {
               "long_name" : "Rhône",
               "short_name" : "Rhône",
               "types" : [ "administrative_area_level_2", "political" ]
            },
            {
               "long_name" : "Auvergne-Rhône-Alpes",
               "short_name" : "Auvergne-Rhône-Alpes",
               "types" : [ "administrative_area_level_1", "political" ]
            },
            {
               "long_name" : "France",
               "short_name" : "FR",
               "types" : [ "country", "political" ]
            }
         ],
         "formatted_address" : "69100 Villeurbanne, France",
         "geometry" : {
            "bounds" : {
               "northeast" : {
                  "lat" : 45.7955345,
                  "lng" : 4.921217899999999
               },
               "southwest" : {
                  "lat" : 45.7484522,
                  "lng" : 4.858354299999999
               }
            },
            "location" : {
               "lat" : 45.77127360000001,
               "lng" : 4.8844514
            },
            "location_type" : "APPROXIMATE",
            "viewport" : {
               "northeast" : {
                  "lat" : 45.7955345,
                  "lng" : 4.921217899999999
               },
               "southwest" : {
                  "lat" : 45.7484522,
                  "lng" : 4.858354299999999
               }
            }
         },
         "place_id" : "ChIJ2Q1mHjrA9EcREHrkQS6rCBw",
         "types" : [ "postal_code" ]
      },
      {
         "address_components" : [
            {
               "long_name" : "Villeurbanne",
               "short_name" : "Villeurbanne",
               "types" : [ "locality", "political" ]
            },
            {
               "long_name" : "Rhône",
               "short_name" : "Rhône",
               "types" : [ "administrative_area_level_2", "political" ]
            },
            {
               "long_name" : "Auvergne-Rhône-Alpes",
               "short_name" : "Auvergne-Rhône-Alpes",
               "types" : [ "administrative_area_level_1", "political" ]
            },
            {
               "long_name" : "France",
               "short_name" : "FR",
               "types" : [ "country", "political" ]
            },
            {
               "long_name" : "69100",
               "short_name" : "69100",
               "types" : [ "postal_code" ]
            }
         ],
         "formatted_address" : "69100 Villeurbanne, France",
         "geometry" : {
            "bounds" : {
               "northeast" : {
                  "lat" : 45.795069,
                  "lng" : 4.9212289
               },
               "southwest" : {
                  "lat" : 45.7484471,
                  "lng" : 4.858423999999999
               }
            },
            "location" : {
               "lat" : 45.771944,
               "lng" : 4.8901709
            },
            "location_type" : "APPROXIMATE",
            "viewport" : {
               "northeast" : {
                  "lat" : 45.795069,
                  "lng" : 4.9212289
               },
               "southwest" : {
                  "lat" : 45.7484471,
                  "lng" : 4.858423999999999
               }
            }
         },
         "place_id" : "ChIJryN2zS_A9EcRUiZbJSsMusM",
         "types" : [ "locality", "political" ]
      },
      {
         "address_components" : [
            {
               "long_name" : "Rhône",
               "short_name" : "Rhône",
               "types" : [ "administrative_area_level_2", "political" ]
            },
            {
               "long_name" : "Auvergne-Rhône-Alpes",
               "short_name" : "Auvergne-Rhône-Alpes",
               "types" : [ "administrative_area_level_1", "political" ]
            },
            {
               "long_name" : "France",
               "short_name" : "FR",
               "types" : [ "country", "political" ]
            }
         ],
         "formatted_address" : "Rhône, France",
         "geometry" : {
            "bounds" : {
               "northeast" : {
                  "lat" : 46.30650199999999,
                  "lng" : 5.1601089
               },
               "southwest" : {
                  "lat" : 45.45413,
                  "lng" : 4.243647
               }
            },
            "location" : {
               "lat" : 45.7351456,
               "lng" : 4.6108043
            },
            "location_type" : "APPROXIMATE",
            "viewport" : {
               "northeast" : {
                  "lat" : 46.30650199999999,
                  "lng" : 5.1601089
               },
               "southwest" : {
                  "lat" : 45.45413,
                  "lng" : 4.243647
               }
            }
         },
         "place_id" : "ChIJcf_obOGN9EcR0Cm55CqrCAM",
         "types" : [ "administrative_area_level_2", "political" ]
      },
      {
         "address_components" : [
            {
               "long_name" : "Auvergne-Rhône-Alpes",
               "short_name" : "Auvergne-Rhône-Alpes",
               "types" : [ "administrative_area_level_1", "political" ]
            },
            {
               "long_name" : "France",
               "short_name" : "FR",
               "types" : [ "country", "political" ]
            }
         ],
         "formatted_address" : "Auvergne-Rhône-Alpes, France",
         "geometry" : {
            "bounds" : {
               "northeast" : {
                  "lat" : 46.804293,
                  "lng" : 7.1855661
               },
               "southwest" : {
                  "lat" : 44.115493,
                  "lng" : 2.062882
               }
            },
            "location" : {
               "lat" : 45.4471431,
               "lng" : 4.385250699999999
            },
            "location_type" : "APPROXIMATE",
            "viewport" : {
               "northeast" : {
                  "lat" : 46.804293,
                  "lng" : 7.1855661
               },
               "southwest" : {
                  "lat" : 44.115493,
                  "lng" : 2.062882
               }
            }
         },
         "place_id" : "ChIJ_fju9ukE9UcROuOAIn5wRjk",
         "types" : [ "administrative_area_level_1", "political" ]
      },
      {
         "address_components" : [
            {
               "long_name" : "France",
               "short_name" : "FR",
               "types" : [ "country", "political" ]
            }
         ],
         "formatted_address" : "France",
         "geometry" : {
            "bounds" : {
               "northeast" : {
                  "lat" : 51.1241999,
                  "lng" : 9.6624999
               },
               "southwest" : {
                  "lat" : 41.31433,
                  "lng" : -5.5591
               }
            },
            "location" : {
               "lat" : 46.227638,
               "lng" : 2.213749
            },
            "location_type" : "APPROXIMATE",
            "viewport" : {
               "northeast" : {
                  "lat" : 51.1241999,
                  "lng" : 9.6624999
               },
               "southwest" : {
                  "lat" : 41.31433,
                  "lng" : -5.5591
               }
            }
         },
         "place_id" : "ChIJMVd4MymgVA0R99lHx5Y__Ws",
         "types" : [ "country", "political" ]
      }
   ],
   "status" : "OK"
}
