{
   "plus_code" : {
      "compound_code" : "FHFQ+V7 Yokohama, Kanagawa Prefecture, Japan",
      "global_code" : "8Q7XFHFQ+V7"
   },
   "results" : [
      {
         "address_components" : [
            {
               "long_name" : "Hodogaya-ku",
               "short_name" : "Hodogaya-ku",
               "types" : [ "political", "sublocality", "sublocality_level_1" ]
            },
            {
               "long_name" : "Yokohama",
               "short_name" : "Yokohama",
               "types" : [ "locality", "political" ]
            },
            {
               "long_name" : "Kanagawa Prefecture",
               "short_name" : "Kanagawa Prefecture",
               "types" : [ "administrative_area_level_1", "political" ]
            },
            {
               "long_name" : "Japan",
               "short_name" : "JP",
               "types" : [ "country", "political" ]
            },
            {
               "long_name" : "240-8501",
               "short_name" : "240-8501",
               "types" : [ "postal_code" ]
            }
         ],
         "formatted_address" : "Japan, 〒240-8501 Kanagawa Prefecture, Yokohama, Hodogaya-ku, 常盤台７９−１",
         "geometry" : {
            "location" : {
               "lat" : 35.4746541,
               "lng" : 139.5881466
            },
            "location_type" : "GEOMETRIC_CENTER",
            "viewport" : {
               "northeast" : {
                  "lat" : 35.4760030802915,
                  "lng" : 139.5894955802915
               },
               "southwest" : {
                  "lat" : 35.4733051197085,
                  "lng" : 139.5867976197085
               }
            }
         },
         "place_id" : "ChIJdxyinmdZGGARbJ6uXaEr1yg",
         "plus_code" : {
            "compound_code" : "FHFQ+V7 Yokohama, Kanagawa Prefecture, Japan",
            "global_code" : "8Q7XFHFQ+V7"
         },
         "types" : [ "establishment", "point_of_interest", "university" ]
      },
      {
         "address_components" : [
            {
               "long_name" : "5",
               "short_name" : "5",
               "types" : [ "premise" ]
            },
            {
               "long_name" : "79",
               "short_name" : "79",
               "types" : [ "political", "sublocality", "sublocality_level_4" ]
            },
            {
               "long_name" : "Tokiwadai",
               "short_name" : "Tokiwadai",
               "types" : [ "political", "sublocality", "sublocality_level_2" ]
            },
            {
               "long_name" : "Hodogaya-ku",
               "short_name" : "Hodogaya-ku",
               "types" : [ "political", "sublocality", "sublocality_level_1" ]
            },
            {
               "long_name" : "Yokohama-shi",
               "short_name" : "Yokohama-shi",
               "types" : [ "locality", "political" ]
            },
            {
               "long_name" : "Kanagawa-ken",
               "short_name" : "Kanagawa-ken",
               "types" : [ "administrative_area_level_1", "political" ]
            },
            {
               "long_name" : "Japan",
               "short_name" : "JP",
               "types" : [ "country", "political" ]
            },
            {
               "long_name" : "240-0067",
               "short_name" : "240-0067",
               "types" : [ "postal_code" ]
            }
         ],
         "formatted_address" : "79-5 Tokiwadai, Hodogaya-ku, Yokohama-shi, Kanagawa-ken 240-0067, Japan",
         "geometry" : {
            "bounds" : {
               "northeast" : {
                  "lat" : 35.4747347,
                  "lng" : 139.5885493
               },
               "southwest" : {
                  "lat" : 35.4744265,
                  "lng" : 139.5881177
               }
            },
            "location" : {
               "lat" : 35.4746,
               "lng" : 139.5882872
            },
            "location_type" : "ROOFTOP",
            "viewport" : {
               "northeast" : {
                  "lat" : 35.4759295802915,
                  "lng" : 139.5896824802915
               },
               "southwest" : {
                  "lat" : 35.4732316197085,
                  "lng" : 139.5869845197085
               }
            }
         },
         "place_id" : "ChIJmTB1nWdZGGAROKEFBr17iX8",
         "types" : [ "premise" ]
      },
      {
         "address_components" : [
            {
               "long_name" : "5",
               "short_name" : "5",
               "types" : [ "premise" ]
            },
            {
               "long_name" : "79",
               "short_name" : "79",
               "types" : [ "political", "sublocality", "sublocality_level_4" ]
            },
            {
               "long_name" : "Tokiwadai",
               "short_name" : "Tokiwadai",
               "types" : [ "political", "sublocality", "sublocality_level_2" ]
            },
            {
               "long_name" : "Hodogaya-ku",
               "short_name" : "Hodogaya-ku",
               "types" : [ "political", "sublocality", "sublocality_level_1" ]
            },
            {
               "long_name" : "Yokohama-shi",
               "short_name" : "Yokohama-shi",
               "types" : [ "locality", "political" ]
            },
            {
               "long_name" : "Kanagawa-ken",
               "short_name" : "Kanagawa-ken",
               "types" : [ "administrative_area_level_1", "political" ]
            },
            {
               "long_name" : "Japan",
               "short_name" : "JP",
               "types" : [ "country", "political" ]
            },
            {
               "long_name" : "240-0067",
               "short_name" : "240-0067",
               "types" : [ "postal_code" ]
            }
         ],
         "formatted_address" : "79-5 Tokiwadai, Hodogaya-ku, Yokohama-shi, Kanagawa-ken 240-0067, Japan",
         "geometry" : {
            "location" : {
               "lat" : 35.4746541,
               "lng" : 139.5881466
            },
            "location_type" : "ROOFTOP",
            "viewport" : {
               "northeast" : {
                  "lat" : 35.4760030802915,
                  "lng" : 139.5894955802915
               },
               "southwest" : {
                  "lat" : 35.4733051197085,
                  "lng" : 139.5867976197085
               }
            }
         },
         "place_id" : "ChIJdxyinmdZGGARnfR7T16E5fI",
         "plus_code" : {
            "compound_code" : "FHFQ+V7 Yokohama, Kanagawa Prefecture, Japan",
            "global_code" : "8Q7XFHFQ+V7"
         },
         "types" : [ "street_address" ]
      },
      {
         "address_components" : [
            {
               "long_name" : "Unnamed Road",
               "short_name" : "Unnamed Road",
               "types" : [ "route" ]
            },
            {
               "long_name" : "79",
               "short_name" : "79",
               "types" : [ "political", "sublocality", "sublocality_level_4" ]
            },
            {
               "long_name" : "Tokiwadai",
               "short_name" : "Tokiwadai",
               "types" : [ "political", "sublocality", "sublocality_level_2" ]
            },
            {
               "long_name" : "Hodogaya-ku",
               "short_name" : "Hodogaya-ku",
               "types" : [ "political", "sublocality", "sublocality_level_1" ]
            },
            {
               "long_name" : "Yokohama-shi",
               "short_name" : "Yokohama-shi",
               "types" : [ "locality", "political" ]
            },
            {
               "long_name" : "Kanagawa-ken",
               "short_name" : "Kanagawa-ken",
               "types" : [ "administrative_area_level_1", "political" ]
            },
            {
               "long_name" : "Japan",
               "short_name" : "JP",
               "types" : [ "country", "political" ]
            },
            {
               "long_name" : "240-0067",
               "short_name" : "240-0067",
               "types" : [ "postal_code" ]
            }
         ],
         "formatted_address" : "Unnamed Road, 79 Tokiwadai, Hodogaya-ku, Yokohama-shi, Kanagawa-ken 240-0067, Japan",
         "geometry" : {
            "bounds" : {
               "northeast" : {
                  "lat" : 35.4754751,
                  "lng" : 139.5886771
               },
               "southwest" : {
                  "lat" : 35.4732531,
                  "lng" : 139.5862228
               }
            },
            "location" : {
               "lat" : 35.4743641,
               "lng" : 139.5874499
            },
            "location_type" : "GEOMETRIC_CENTER",
            "viewport" : {
               "northeast" : {
                  "lat" : 35.4757130802915,
                  "lng" : 139.5887989302915
               },
               "southwest" : {
                  "lat" : 35.4730151197085,
                  "lng" : 139.5861009697085
               }
            }
         },
         "place_id" : "ChIJrZzqpmdZGGARWGcuu17UCFg",
         "types" : [ "route" ]
      },
      {
         "address_components" : [
            {
               "long_name" : "79",
               "short_name" : "79",
               "types" : [ "political", "sublocality", "sublocality_level_4" ]
            },
            {
               "long_name" : "Tokiwadai",
               "short_name" : "Tokiwadai",
               "types" : [ "political", "sublocality", "sublocality_level_2" ]
            },
            {
               "long_name" : "Hodogaya-ku",
               "short_name" : "Hodogaya-ku",
               "types" : [ "political", "sublocality", "sublocality_level_1" ]
            },
            {
               "long_name" : "Yokohama",
               "short_name" : "Yokohama",
               "types" : [ "locality", "political" ]
            },
            {
               "long_name" : "Kanagawa Prefecture",
               "short_name" : "Kanagawa Prefecture",
               "types" : [ "administrative_area_level_1", "political" ]
            },
            {
               "long_name" : "Japan",
               "short_name" : "JP",
               "types" : [ "country", "political" ]
            },
            {
               "long_name" : "240-0067",
               "short_name" : "240-0067",
               "types" : [ "postal_code" ]
            }
         ],
         "formatted_address" : "79 Tokiwadai, Hodogaya-ku, Yokohama, Kanagawa Prefecture 240-0067, Japan",
         "geometry" : {
            "bounds" : {
               "northeast" : {
                  "lat" : 35.4773824,
                  "lng" : 139.5965738
               },
               "southwest" : {
                  "lat" : 35.4703276,
                  "lng" : 139.5858934
               }
            },
            "location" : {
               "lat" : 35.4741208,
               "lng" : 139.5938181
            },
            "location_type" : "GEOMETRIC_CENTER",
            "viewport" : {
               "northeast" : {
                  "lat" : 35.4773824,
                  "lng" : 139.5965738
               },
               "southwest" : {
                  "lat" : 35.4703276,
                  "lng" : 139.5858934
               }
            }
         },
         "place_id" : "ChIJuzI70V1ZGGARckHpxANMr4M",
         "types" : [ "political", "sublocality", "sublocality_level_4" ]
      },
      {
         "address_components" : [
            {
               "long_name" : "240-0067",
               "short_name" : "240-0067",
               "types" : [ "postal_code" ]
            },
            {
               "long_name" : "Tokiwadai",
               "short_name" : "Tokiwadai",
               "types" : [ "political", "sublocality", "sublocality_level_2" ]
            },
            {
               "long_name" : "Hodogaya-ku",
               "short_name" : "Hodogaya-ku",
               "types" : [ "political", "sublocality", "sublocality_level_1" ]
            },
            {
               "long_name" : "Yokohama",
               "short_name" : "Yokohama",
               "types" : [ "locality", "political" ]
            },
            {
               "long_name" : "Kanagawa Prefecture",
               "short_name" : "Kanagawa Prefecture",
               "types" : [ "administrative_area_level_1", "political" ]
            },
            {
               "long_name" : "Japan",
               "short_name" : "JP",
               "types" : [ "country", "political" ]
            }
         ],
         "formatted_address" : "240-0067, Japan",
         "geometry" : {
            "bounds" : {
               "northeast" : {
                  "lat" : 35.4803542,
                  "lng" : 139.5977356
               },
               "southwest" : {
                  "lat" : 35.4664716,
                  "lng" : 139.5848481
               }
            },
            "location" : {
               "lat" : 35.4718954,
               "lng" : 139.5903973
            },
            "location_type" : "APPROXIMATE",
            "viewport" : {
               "northeast" : {
                  "lat" : 35.4803542,
                  "lng" : 139.5977356
               },
               "southwest" : {
                  "lat" : 35.4664716,
                  "lng" : 139.5848481
               }
            }
         },
         "place_id" : "ChIJjZcexWZZGGARiXjsZN3hLnM",
         "types" : [ "postal_code" ]
      },
      {
         "address_components" : [
            {
               "long_name" : "Tokiwadai",
               "short_name" : "Tokiwadai",
               "types" : [ "political", "sublocality", "sublocality_level_2" ]
            },
            {
               "long_name" : "Hodogaya-ku",
               "short_name" : "Hodogaya-ku",
               "types" : [ "political", "sublocality", "sublocality_level_1" ]
            },
            {
               "long_name" : "Yokohama",
               "short_name" : "Yokohama",
               "types" : [ "locality", "political" ]
            },
            {
               "long_name" : "Kanagawa Prefecture",
               "short_name" : "Kanagawa Prefecture",
               "types" : [ "administrative_area_level_1", "political" ]
            },
            {
               "long_name" : "Japan",
               "short_name" : "JP",
               "types" : [ "country", "political" ]
            },
            {
               "long_name" : "240-0067",
               "short_name" : "240-0067",
               "types" : [ "postal_code" ]
            }
         ],
         "formatted_address" : "Tokiwadai, Hodogaya-ku, Yokohama, Kanagawa Prefecture 240-0067, Japan",
         "geometry" : {
            "bounds" : {
               "northeast" : {
                  "lat" : 35.4803542,
                  "lng" : 139.5977328
               },
               "southwest" : {
                  "lat" : 35.4664761,
                  "lng" : 139.5848481
               }
            },
            "location" : {
               "lat" : 35.4719238,
               "lng" : 139.5858468
            },
            "location_type" : "APPROXIMATE",
            "viewport" : {
               "northeast" : {
                  "lat" : 35.4803542,
                  "lng" : 139.5977328
               },
               "southwest" : {
                  "lat" : 35.4664761,
                  "lng" : 139.5848481
               }
            }
         },
         "place_id" : "ChIJi5Ae1l1ZGGARyL2drrmmOc4",
         "types" : [ "political", "sublocality", "sublocality_level_2" ]
      },
      {
         "address_components" : [
            {
               "long_name" : "Hodogaya-ku",
               "short_name" : "Hodogaya-ku",
               "types" : [ "political", "sublocality", "sublocality_level_1" ]
            },
            {
               "long_name" : "Yokohama",
               "short_name" : "Yokohama",
               "types" : [ "locality", "political" ]
            },
            {
               "long_name" : "Kanagawa Prefecture",
               "short_name" : "Kanagawa Prefecture",
               "types" : [ "administrative_area_level_1", "political" ]
            },
            {
               "long_name" : "Japan",
               "short_name" : "JP",
               "types" : [ "country", "political" ]
            }
         ],
         "formatted_address" : "Hodogaya-ku, Yokohama, Kanagawa Prefecture, Japan",
         "geometry" : {
            "bounds" : {
               "northeast" : {
                  "lat" : 35.4981012,
                  "lng" : 139.6084718
               },
               "southwest" : {
                  "lat" : 35.4312765,
                  "lng" : 139.5449668
               }
            },
            "location" : {
               "lat" : 35.4599531,
               "lng" : 139.5959793
            },
            "location_type" : "APPROXIMATE",
            "viewport" : {
               "northeast" : {
                  "lat" : 35.4981012,
                  "lng" : 139.6084718
               },
               "southwest" : {
                  "lat" : 35.4312765,
                  "lng" : 139.5449668
               }
            }
         },
         "place_id" : "ChIJmzj8BX1ZGGAR9PcL6dkJcCQ",
         "types" : [ "political", "sublocality", "sublocality_level_1" ]
      },
      {
         "address_components" : [
            {
               "long_name" : "Yokohama",
               "short_name" : "Yokohama",
               "types" : [ "locality", "political" ]
            },
            {
               "long_name" : "Kanagawa Prefecture",
               "short_name" : "Kanagawa Prefecture",
               "types" : [ "administrative_area_level_1", "political" ]
            },
            {
               "long_name" : "Japan",
               "short_name" : "JP",
               "types" : [ "country", "political" ]
            }
         ],
         "formatted_address" : "Yokohama, Kanagawa Prefecture, Japan",
         "geometry" : {
            "bounds" : {
               "northeast" : {
                  "lat" : 35.5928585,
                  "lng" : 139.725382
               },
               "southwest" : {
                  "lat" : 35.3126165,
                  "lng" : 139.4647976
               }
            },
            "location" : {
               "lat" : 35.4437078,
               "lng" : 139.6380256
            },
            "location_type" : "APPROXIMATE",
            "viewport" : {
               "northeast" : {
                  "lat" : 35.5928585,
                  "lng" : 139.725382
               },
               "southwest" : {
                  "lat" : 35.3126165,
                  "lng" : 139.4647976
               }
            }
         },
         "place_id" : "ChIJCWW2u-xbGGARAFQoYPaDlgY",
         "types" : [ "locality", "political" ]
      },
      {
         "address_components" : [
            {
               "long_name" : "Kanagawa Prefecture",
               "short_name" : "Kanagawa Prefecture",
               "types" : [ "administrative_area_level_1", "political" ]
            },
            {
               "long_name" : "Japan",
               "short_name" : "JP",
               "types" : [ "country", "political" ]
            }
         ],
         "formatted_address" : "Kanagawa Prefecture, Japan",
         "geometry" : {
            "bounds" : {
               "northeast" : {
                  "lat" : 35.6727538,
                  "lng" : 139.8359058
               },
               "southwest" : {
                  "lat" : 35.1286233,
                  "lng" : 138.9157521
               }
            },
            "location" : {
               "lat" : 35.4475073,
               "lng" : 139.6423446
            },
            "location_type" : "APPROXIMATE",
            "viewport" : {
               "northeast" : {
                  "lat" : 35.6727538,
                  "lng" : 139.8359058
               },
               "southwest" : {
                  "lat" : 35.1286233,
                  "lng" : 138.9157521
               }
            }
         },
         "place_id" : "ChIJq9Rn-8dUGGARViMnQtCc9xE",
         "types" : [ "administrative_area_level_1", "political" ]
      },
      {
         "address_components" : [
            {
               "long_name" : "Japan",
               "short_name" : "JP",
               "types" : [ "country", "political" ]
            }
         ],
         "formatted_address" : "Japan",
         "geometry" : {
            "bounds" : {
               "northeast" : {
                  "lat" : 45.6412626,
                  "lng" : 154.0031455
               },
               "southwest" : {
                  "lat" : 20.3585295,
                  "lng" : 122.8554688
               }
            },
            "location" : {
               "lat" : 36.204824,
               "lng" : 138.252924
            },
            "location_type" : "APPROXIMATE",
            "viewport" : {
               "northeast" : {
                  "lat" : 45.6412626,
                  "lng" : 154.0031455
               },
               "southwest" : {
                  "lat" : 20.3585295,
                  "lng" : 122.8554688
               }
            }
         },
         "place_id" : "ChIJLxl_1w9OZzQRRFJmfNR1QvU",
         "types" : [ "country", "political" ]
      }
   ],
   "status" : "OK"
}
