{
   "plus_code" : {
      "compound_code" : "73QF+8X Sulzbach, Germany",
      "global_code" : "8FX973QF+8X"
   },
   "results" : [
      {
         "address_components" : [
            {
               "long_name" : "Sulzbach/Saar",
               "short_name" : "Sulzbach/Saar",
               "types" : [ "locality", "political" ]
            },
            {
               "long_name" : "Germany",
               "short_name" : "DE",
               "types" : [ "country", "political" ]
            },
            {
               "long_name" : "66280",
               "short_name" : "66280",
               "types" : [ "postal_code" ]
            }
         ],
         "formatted_address" : "Joseph-von-Fraunhofer-Weg 1, 66280 Sulzbach/Saar, Germany",
         "geometry" : {
            "location" : {
               "lat" : 49.288272,
               "lng" : 7.074878999999999
            },
            "location_type" : "GEOMETRIC_CENTER",
            "viewport" : {
               "northeast" : {
                  "lat" : 49.2896209802915,
                  "lng" : 7.076227980291502
               },
               "southwest" : {
                  "lat" : 49.2869230197085,
                  "lng" : 7.073530019708497
               }
            }
         },
         "place_id" : "ChIJz47jVcC3lUcR5z88PsEt56g",
         "plus_code" : {
            "compound_code" : "73QF+8X Sulzbach, Germany",
            "global_code" : "8FX973QF+8X"
         },
         "types" : [ "establishment", "point_of_interest" ]
      },
      {
         "address_components" : [
            {
               "long_name" : "5",
               "short_name" : "5",
               "types" : [ "street_number" ]
            },
            {
               "long_name" : "Industriestraße",
               "short_name" : "Industriestraße",
               "types" : [ "route" ]
            },
            {
               "long_name" : "Neuweiler",
               "short_name" : "Neuweiler",
               "types" : [ "political", "sublocality", "sublocality_level_1" ]
            },
            {
               "long_name" : "Sulzbach/Saar",
               "short_name" : "Sulzbach/Saar",
               "types" : [ "locality", "political" ]
            },
            {
               "long_name" : "Regionalverband Saarbrücken",
               "short_name" : "Regionalverband Saarbrücken",
               "types" : [ "administrative_area_level_3", "political" ]
            },
            {
               "long_name" : "Saarland",
               "short_name" : "SL",
               "types" : [ "administrative_area_level_1", "political" ]
            },
            {
               "long_name" : "Germany",
               "short_name" : "DE",
               "types" : [ "country", "political" ]
            },
            {
               "long_name" : "66280",
               "short_name" : "66280",
               "types" : [ "postal_code" ]
            }
         ],
         "formatted_address" : "Industriestraße 5, 66280 Sulzbach/Saar, Germany",
         "geometry" : {
            "location" : {
               "lat" : 49.28881,
               "lng" : 7.07412
            },
            "location_type" : "ROOFTOP",
            "viewport" : {
               "northeast" : {
                  "lat" : 49.29015898029149,
                  "lng" : 7.075468980291502
               },
               "southwest" : {
                  "lat" : 49.28746101970849,
                  "lng" : 7.072771019708497
               }
            }
         },
         "place_id" : "ChIJz47jVcC3lUcRS04m5-_Oj_4",
         "plus_code" : {
            "compound_code" : "73QF+GJ Sulzbach, Germany",
            "global_code" : "8FX973QF+GJ"
         },
         "types" : [ "street_address" ]
      },
      {
         "address_components" : [
            {
               "long_name" : "5",
               "short_name" : "5",
               "types" : [ "street_number" ]
            },
            {
               "long_name" : "Industriestraße",
               "short_name" : "Industriestraße",
               "types" : [ "route" ]
            },
            {
               "long_name" : "Dudweiler",
               "short_name" : "Dudweiler",
               "types" : [ "political", "sublocality", "sublocality_level_1" ]
            },
            {
               "long_name" : "Sulzbach/Saar",
               "short_name" : "Sulzbach/Saar",
               "types" : [ "locality", "political" ]
            },
            {
               "long_name" : "Regionalverband Saarbrücken",
               "short_name" : "Regionalverband Saarbrücken",
               "types" : [ "administrative_area_level_3", "political" ]
            },
            {
               "long_name" : "Saarland",
               "short_name" : "SL",
               "types" : [ "administrative_area_level_1", "political" ]
            },
            {
               "long_name" : "Germany",
               "short_name" : "DE",
               "types" : [ "country", "political" ]
            },
            {
               "long_name" : "66280",
               "short_name" : "66280",
               "types" : [ "postal_code" ]
            }
         ],
         "formatted_address" : "Industriestraße 5, 66280 Sulzbach/Saar, Germany",
         "geometry" : {
            "bounds" : {
               "northeast" : {
                  "lat" : 49.2894219,
                  "lng" : 7.075941100000001
               },
               "southwest" : {
                  "lat" : 49.2883471,
                  "lng" : 7.070219
               }
            },
            "location" : {
               "lat" : 49.28888449999999,
               "lng" : 7.07308
            },
            "location_type" : "GEOMETRIC_CENTER",
            "viewport" : {
               "northeast" : {
                  "lat" : 49.2902334802915,
                  "lng" : 7.075941100000001
               },
               "southwest" : {
                  "lat" : 49.2875355197085,
                  "lng" : 7.070219
               }
            }
         },
         "place_id" : "ChIJlz6XX8C3lUcRUFIwXCYyJq0",
         "types" : [ "route" ]
      },
      {
         "address_components" : [
            {
               "long_name" : "Neuweiler",
               "short_name" : "Neuweiler",
               "types" : [ "political", "sublocality", "sublocality_level_1" ]
            },
            {
               "long_name" : "Sulzbach/Saar",
               "short_name" : "Sulzbach/Saar",
               "types" : [ "locality", "political" ]
            },
            {
               "long_name" : "Regionalverband Saarbrücken",
               "short_name" : "Regionalverband Saarbrücken",
               "types" : [ "administrative_area_level_3", "political" ]
            },
            {
               "long_name" : "Saarland",
               "short_name" : "SL",
               "types" : [ "administrative_area_level_1", "political" ]
            },
            {
               "long_name" : "Germany",
               "short_name" : "DE",
               "types" : [ "country", "political" ]
            },
            {
               "long_name" : "66280",
               "short_name" : "66280",
               "types" : [ "postal_code" ]
            }
         ],
         "formatted_address" : "Neuweiler, 66280 Sulzbach/Saar, Germany",
         "geometry" : {
            "bounds" : {
               "northeast" : {
                  "lat" : 49.2933706,
                  "lng" : 7.0854174
               },
               "southwest" : {
                  "lat" : 49.2781793,
                  "lng" : 7.057074999999999
               }
            },
            "location" : {
               "lat" : 49.281494,
               "lng" : 7.0737403
            },
            "location_type" : "APPROXIMATE",
            "viewport" : {
               "northeast" : {
                  "lat" : 49.2933706,
                  "lng" : 7.0854174
               },
               "southwest" : {
                  "lat" : 49.2781793,
                  "lng" : 7.057074999999999
               }
            }
         },
         "place_id" : "ChIJDdG4pbi3lUcRsJsGoNfUIgo",
         "types" : [ "political", "sublocality", "sublocality_level_1" ]
      },
      {
         "address_components" : [
            {
               "long_name" : "66280",
               "short_name" : "66280",
               "types" : [ "postal_code" ]
            },
            {
               "long_name" : "Sulzbach",
               "short_name" : "Sulzbach",
               "types" : [ "locality", "political" ]
            },
            {
               "long_name" : "Saarbrücken",
               "short_name" : "Saarbrücken",
               "types" : [ "administrative_area_level_3", "political" ]
            },
            {
               "long_name" : "Saarland",
               "short_name" : "SL",
               "types" : [ "administrative_area_level_1", "political" ]
            },
            {
               "long_name" : "Germany",
               "short_name" : "DE",
               "types" : [ "country", "political" ]
            }
         ],
         "formatted_address" : "66280 Sulzbach, Germany",
         "geometry" : {
            "bounds" : {
               "northeast" : {
                  "lat" : 49.320704,
                  "lng" : 7.117134
               },
               "southwest" : {
                  "lat" : 49.2716579,
                  "lng" : 7.032159999999999
               }
            },
            "location" : {
               "lat" : 49.3022275,
               "lng" : 7.0621814
            },
            "location_type" : "APPROXIMATE",
            "viewport" : {
               "northeast" : {
                  "lat" : 49.320704,
                  "lng" : 7.117134
               },
               "southwest" : {
                  "lat" : 49.2716579,
                  "lng" : 7.032159999999999
               }
            }
         },
         "place_id" : "ChIJ_VpVXuu3lUcRgNrCXtjUIhw",
         "types" : [ "postal_code" ]
      },
      {
         "address_components" : [
            {
               "long_name" : "Sulzbach",
               "short_name" : "Sulzbach",
               "types" : [ "locality", "political" ]
            },
            {
               "long_name" : "Saarbrücken",
               "short_name" : "Saarbrücken",
               "types" : [ "administrative_area_level_3", "political" ]
            },
            {
               "long_name" : "Saarland",
               "short_name" : "SL",
               "types" : [ "administrative_area_level_1", "political" ]
            },
            {
               "long_name" : "Germany",
               "short_name" : "DE",
               "types" : [ "country", "political" ]
            }
         ],
         "formatted_address" : "Sulzbach, Germany",
         "geometry" : {
            "bounds" : {
               "northeast" : {
                  "lat" : 49.3209629,
                  "lng" : 7.117509699999999
               },
               "southwest" : {
                  "lat" : 49.2718091,
                  "lng" : 7.0323175
               }
            },
            "location" : {
               "lat" : 49.3022275,
               "lng" : 7.0621814
            },
            "location_type" : "APPROXIMATE",
            "viewport" : {
               "northeast" : {
                  "lat" : 49.3209629,
                  "lng" : 7.117509699999999
               },
               "southwest" : {
                  "lat" : 49.2718091,
                  "lng" : 7.0323175
               }
            }
         },
         "place_id" : "ChIJ_VpVXuu3lUcRAGzbENXUIgQ",
         "types" : [ "locality", "political" ]
      },
      {
         "address_components" : [
            {
               "long_name" : "Saarbrücken",
               "short_name" : "Saarbrücken",
               "types" : [ "administrative_area_level_3", "political" ]
            },
            {
               "long_name" : "Saarland",
               "short_name" : "SL",
               "types" : [ "administrative_area_level_1", "political" ]
            },
            {
               "long_name" : "Germany",
               "short_name" : "DE",
               "types" : [ "country", "political" ]
            }
         ],
         "formatted_address" : "Saarbrücken, Germany",
         "geometry" : {
            "bounds" : {
               "northeast" : {
                  "lat" : 49.3776527,
                  "lng" : 7.138042599999999
               },
               "southwest" : {
                  "lat" : 49.1119452,
                  "lng" : 6.7113124
               }
            },
            "location" : {
               "lat" : 49.278856,
               "lng" : 6.943689
            },
            "location_type" : "APPROXIMATE",
            "viewport" : {
               "northeast" : {
                  "lat" : 49.3776527,
                  "lng" : 7.138042599999999
               },
               "southwest" : {
                  "lat" : 49.1119452,
                  "lng" : 6.7113124
               }
            }
         },
         "place_id" : "ChIJs-9n3IWxlUcRcgeoxeuAJ88",
         "types" : [ "administrative_area_level_3", "political" ]
      },
      {
         "address_components" : [
            {
               "long_name" : "Saarland",
               "short_name" : "Saarland",
               "types" : [ "administrative_area_level_1", "political" ]
            },
            {
               "long_name" : "Germany",
               "short_name" : "DE",
               "types" : [ "country", "political" ]
            }
         ],
         "formatted_address" : "Saarland, Germany",
         "geometry" : {
            "bounds" : {
               "northeast" : {
                  "lat" : 49.6394088,
                  "lng" : 7.404583799999999
               },
               "southwest" : {
                  "lat" : 49.1119452,
                  "lng" : 6.357608399999999
               }
            },
            "location" : {
               "lat" : 49.3964234,
               "lng" : 7.0229607
            },
            "location_type" : "APPROXIMATE",
            "viewport" : {
               "northeast" : {
                  "lat" : 49.6394088,
                  "lng" : 7.404583799999999
               },
               "southwest" : {
                  "lat" : 49.1119452,
                  "lng" : 6.357608399999999
               }
            }
         },
         "place_id" : "ChIJMR-owu-klUcRcHncENXUIgE",
         "types" : [ "administrative_area_level_1", "political" ]
      },
      {
         "address_components" : [
            {
               "long_name" : "Germany",
               "short_name" : "DE",
               "types" : [ "country", "political" ]
            }
         ],
         "formatted_address" : "Germany",
         "geometry" : {
            "bounds" : {
               "northeast" : {
                  "lat" : 55.0815,
                  "lng" : 15.0418962
               },
               "southwest" : {
                  "lat" : 47.2701115,
                  "lng" : 5.8663425
               }
            },
            "location" : {
               "lat" : 51.165691,
               "lng" : 10.451526
            },
            "location_type" : "APPROXIMATE",
            "viewport" : {
               "northeast" : {
                  "lat" : 55.0815,
                  "lng" : 15.0418962
               },
               "southwest" : {
                  "lat" : 47.2701115,
                  "lng" : 5.8663425
               }
            }
         },
         "place_id" : "ChIJa76xwh5ymkcRW-WRjmtd6HU",
         "types" : [ "country", "political" ]
      }
   ],
   "status" : "OK"
}
