{
   "plus_code" : {
      "compound_code" : "38Q5+WW Changping, Beijing, China",
      "global_code" : "8PGR38Q5+WW"
   },
   "results" : [
      {
         "address_components" : [
            {
               "long_name" : "Changping",
               "short_name" : "Changping",
               "types" : [ "political", "sublocality", "sublocality_level_1" ]
            },
            {
               "long_name" : "Beijing",
               "short_name" : "Beijing",
               "types" : [ "administrative_area_level_1", "political" ]
            },
            {
               "long_name" : "China",
               "short_name" : "CN",
               "types" : [ "country", "political" ]
            }
         ],
         "formatted_address" : "China, Beijing, Changping, 回龙观北农路2号",
         "geometry" : {
            "location" : {
               "lat" : 40.0897592,
               "lng" : 116.3097968
            },
            "location_type" : "GEOMETRIC_CENTER",
            "viewport" : {
               "northeast" : {
                  "lat" : 40.0911081802915,
                  "lng" : 116.3111457802915
               },
               "southwest" : {
                  "lat" : 40.0884102197085,
                  "lng" : 116.3084478197085
               }
            }
         },
         "place_id" : "ChIJIzHJy6TK8TUR8vobniSJhfU",
         "plus_code" : {
            "compound_code" : "38Q5+WW Changping, Beijing, China",
            "global_code" : "8PGR38Q5+WW"
         },
         "types" : [ "establishment", "point_of_interest", "university" ]
      },
      {
         "address_components" : [
            {
               "long_name" : "2",
               "short_name" : "2",
               "types" : [ "street_number" ]
            },
            {
               "long_name" : "Beinong Road",
               "short_name" : "Beinong Rd",
               "types" : [ "route" ]
            },
            {
               "long_name" : "Changping Qu",
               "short_name" : "Changping Qu",
               "types" : [ "political", "sublocality", "sublocality_level_1" ]
            },
            {
               "long_name" : "Beijing Shi",
               "short_name" : "Beijing Shi",
               "types" : [ "administrative_area_level_1", "political" ]
            },
            {
               "long_name" : "China",
               "short_name" : "CN",
               "types" : [ "country", "political" ]
            },
            {
               "long_name" : "102202",
               "short_name" : "102202",
               "types" : [ "postal_code" ]
            }
         ],
         "formatted_address" : "China, Beijing Shi, Changping Qu, Beinong Rd, 2号回龙观华北电力大学 邮政编码: 102202",
         "geometry" : {
            "location" : {
               "lat" : 40.089127,
               "lng" : 116.309241
            },
            "location_type" : "ROOFTOP",
            "viewport" : {
               "northeast" : {
                  "lat" : 40.09047598029149,
                  "lng" : 116.3105899802915
               },
               "southwest" : {
                  "lat" : 40.08777801970849,
                  "lng" : 116.3078920197085
               }
            }
         },
         "place_id" : "ChIJlXerncb48DUROHRhle6uiXQ",
         "plus_code" : {
            "compound_code" : "38Q5+MM Changping, Beijing, China",
            "global_code" : "8PGR38Q5+MM"
         },
         "types" : [ "street_address" ]
      },
      {
         "address_components" : [
            {
               "long_name" : "Unnamed Road",
               "short_name" : "Unnamed Road",
               "types" : [ "route" ]
            },
            {
               "long_name" : "Changping Qu",
               "short_name" : "Changping Qu",
               "types" : [ "political", "sublocality", "sublocality_level_1" ]
            },
            {
               "long_name" : "Beijing Shi",
               "short_name" : "Beijing Shi",
               "types" : [ "administrative_area_level_1", "political" ]
            },
            {
               "long_name" : "China",
               "short_name" : "CN",
               "types" : [ "country", "political" ]
            },
            {
               "long_name" : "102202",
               "short_name" : "102202",
               "types" : [ "postal_code" ]
            }
         ],
         "formatted_address" : "Unnamed Road, Changping Qu, Beijing Shi, China, 102202",
         "geometry" : {
            "bounds" : {
               "northeast" : {
                  "lat" : 40.0902657,
                  "lng" : 116.3103121
               },
               "southwest" : {
                  "lat" : 40.0895374,
                  "lng" : 116.3098887
               }
            },
            "location" : {
               "lat" : 40.0899016,
               "lng" : 116.3101004
            },
            "location_type" : "GEOMETRIC_CENTER",
            "viewport" : {
               "northeast" : {
                  "lat" : 40.0912505302915,
                  "lng" : 116.3114493802915
               },
               "southwest" : {
                  "lat" : 40.0885525697085,
                  "lng" : 116.3087514197085
               }
            }
         },
         "place_id" : "ChIJdfdpM8T48DURIhNf_jiChXo",
         "types" : [ "route" ]
      },
      {
         "address_components" : [
            {
               "long_name" : "102202",
               "short_name" : "102202",
               "types" : [ "postal_code" ]
            },
            {
               "long_name" : "Changping",
               "short_name" : "Changping",
               "types" : [ "political", "sublocality", "sublocality_level_1" ]
            },
            {
               "long_name" : "Beijing",
               "short_name" : "Beijing",
               "types" : [ "administrative_area_level_1", "political" ]
            },
            {
               "long_name" : "China",
               "short_name" : "CN",
               "types" : [ "country", "political" ]
            }
         ],
         "formatted_address" : "Changping, Beijing, China, 102202",
         "geometry" : {
            "bounds" : {
               "northeast" : {
                  "lat" : 40.2930312,
                  "lng" : 116.4636473
               },
               "southwest" : {
                  "lat" : 40.0384749,
                  "lng" : 116.041389
               }
            },
            "location" : {
               "lat" : 40.2472795,
               "lng" : 116.1332482
            },
            "location_type" : "APPROXIMATE",
            "viewport" : {
               "northeast" : {
                  "lat" : 40.2930312,
                  "lng" : 116.4636473
               },
               "southwest" : {
                  "lat" : 40.0384749,
                  "lng" : 116.041389
               }
            }
         },
         "place_id" : "ChIJix--zR3y8DURYhUMdvNCf7c",
         "types" : [ "postal_code" ]
      },
      {
         "address_components" : [
            {
               "long_name" : "Changping",
               "short_name" : "Changping",
               "types" : [ "political", "sublocality", "sublocality_level_1" ]
            },
            {
               "long_name" : "Beijing",
               "short_name" : "Beijing",
               "types" : [ "administrative_area_level_1", "political" ]
            },
            {
               "long_name" : "China",
               "short_name" : "CN",
               "types" : [ "country", "political" ]
            }
         ],
         "formatted_address" : "Changping, Beijing, China",
         "geometry" : {
            "bounds" : {
               "northeast" : {
                  "lat" : 40.3928595,
                  "lng" : 116.5060096
               },
               "southwest" : {
                  "lat" : 40.0367659,
                  "lng" : 115.8442969
               }
            },
            "location" : {
               "lat" : 40.220659,
               "lng" : 116.231203
            },
            "location_type" : "APPROXIMATE",
            "viewport" : {
               "northeast" : {
                  "lat" : 40.3928595,
                  "lng" : 116.5060096
               },
               "southwest" : {
                  "lat" : 40.0367659,
                  "lng" : 115.8442969
               }
            }
         },
         "place_id" : "ChIJdaxwqGvw8DUReJ6rUyvGDEc",
         "types" : [ "political", "sublocality", "sublocality_level_1" ]
      },
      {
         "address_components" : [
            {
               "long_name" : "Beijing",
               "short_name" : "Beijing",
               "types" : [ "locality", "political" ]
            },
            {
               "long_name" : "Beijing",
               "short_name" : "Beijing",
               "types" : [ "administrative_area_level_1", "political" ]
            },
            {
               "long_name" : "China",
               "short_name" : "CN",
               "types" : [ "country", "political" ]
            }
         ],
         "formatted_address" : "Beijing, China",
         "geometry" : {
            "bounds" : {
               "northeast" : {
                  "lat" : 41.0608157,
                  "lng" : 117.514625
               },
               "southwest" : {
                  "lat" : 39.442758,
                  "lng" : 115.4234112
               }
            },
            "location" : {
               "lat" : 39.90419989999999,
               "lng" : 116.4073963
            },
            "location_type" : "APPROXIMATE",
            "viewport" : {
               "northeast" : {
                  "lat" : 41.0608157,
                  "lng" : 117.514625
               },
               "southwest" : {
                  "lat" : 39.442758,
                  "lng" : 115.4234112
               }
            }
         },
         "place_id" : "ChIJuSwU55ZS8DURiqkPryBWYrk",
         "types" : [ "locality", "political" ]
      },
      {
         "address_components" : [
            {
               "long_name" : "Beijing",
               "short_name" : "Beijing",
               "types" : [ "administrative_area_level_1", "political" ]
            },
            {
               "long_name" : "China",
               "short_name" : "CN",
               "types" : [ "country", "political" ]
            }
         ],
         "formatted_address" : "Beijing, China",
         "geometry" : {
            "bounds" : {
               "northeast" : {
                  "lat" : 41.0608157,
                  "lng" : 117.514625
               },
               "southwest" : {
                  "lat" : 39.442758,
                  "lng" : 115.4234112
               }
            },
            "location" : {
               "lat" : 40.2373519,
               "lng" : 116.2304616
            },
            "location_type" : "APPROXIMATE",
            "viewport" : {
               "northeast" : {
                  "lat" : 41.0608157,
                  "lng" : 117.514625
               },
               "southwest" : {
                  "lat" : 39.442758,
                  "lng" : 115.4234112
               }
            }
         },
         "place_id" : "ChIJuSwU55ZS8DURp8_dOLuVd8A",
         "types" : [ "administrative_area_level_1", "political" ]
      },
      {
         "address_components" : [
            {
               "long_name" : "China",
               "short_name" : "CN",
               "types" : [ "country", "political" ]
            }
         ],
         "formatted_address" : "China",
         "geometry" : {
            "bounds" : {
               "northeast" : {
                  "lat" : 53.5609739,
                  "lng" : 134.7754563
               },
               "southwest" : {
                  "lat" : 17.9996,
                  "lng" : 73.4994136
               }
            },
            "location" : {
               "lat" : 35.86166,
               "lng" : 104.195397
            },
            "location_type" : "APPROXIMATE",
            "viewport" : {
               "northeast" : {
                  "lat" : 53.5609739,
                  "lng" : 134.7754563
               },
               "southwest" : {
                  "lat" : 17.9996,
                  "lng" : 73.4994136
               }
            }
         },
         "place_id" : "ChIJwULG5WSOUDERbzafNHyqHZU",
         "types" : [ "country", "political" ]
      }
   ],
   "status" : "OK"
}
