{
   "plus_code" : {
      "compound_code" : "R3V4+25 New York, NY, USA",
      "global_code" : "87G8R3V4+25"
   },
   "results" : [
      {
         "address_components" : [
            {
               "long_name" : "1051",
               "short_name" : "1051",
               "types" : [ "street_number" ]
            },
            {
               "long_name" : "Riverside Drive",
               "short_name" : "Riverside Dr",
               "types" : [ "route" ]
            },
            {
               "long_name" : "Manhattan",
               "short_name" : "Manhattan",
               "types" : [ "political", "sublocality", "sublocality_level_1" ]
            },
            {
               "long_name" : "New York",
               "short_name" : "New York",
               "types" : [ "locality", "political" ]
            },
            {
               "long_name" : "New York County",
               "short_name" : "New York County",
               "types" : [ "administrative_area_level_2", "political" ]
            },
            {
               "long_name" : "New York",
               "short_name" : "NY",
               "types" : [ "administrative_area_level_1", "political" ]
            },
            {
               "long_name" : "United States",
               "short_name" : "US",
               "types" : [ "country", "political" ]
            },
            {
               "long_name" : "10032",
               "short_name" : "10032",
               "types" : [ "postal_code" ]
            },
            {
               "long_name" : "1098",
               "short_name" : "1098",
               "types" : [ "postal_code_suffix" ]
            }
         ],
         "formatted_address" : "1051 Riverside Dr, New York, NY 10032, USA",
         "geometry" : {
            "location" : {
               "lat" : 40.8425452,
               "lng" : -73.9445965
            },
            "location_type" : "ROOFTOP",
            "viewport" : {
               "northeast" : {
                  "lat" : 40.8438941802915,
                  "lng" : -73.94324751970849
               },
               "southwest" : {
                  "lat" : 40.8411962197085,
                  "lng" : -73.94594548029151
               }
            }
         },
         "place_id" : "ChIJT2WxyJv2wokREy-XPiOmgQM",
         "plus_code" : {
            "compound_code" : "R3V4+25 New York, United States",
            "global_code" : "87G8R3V4+25"
         },
         "types" : [ "establishment", "health", "hospital", "point_of_interest" ]
      },
      {
         "address_components" : [
            {
               "long_name" : "Herbert Pardes Building",
               "short_name" : "Herbert Pardes Building",
               "types" : [ "premise" ]
            },
            {
               "long_name" : "1051",
               "short_name" : "1051",
               "types" : [ "street_number" ]
            },
            {
               "long_name" : "Riverside Drive",
               "short_name" : "Riverside Dr",
               "types" : [ "route" ]
            },
            {
               "long_name" : "Manhattan",
               "short_name" : "Manhattan",
               "types" : [ "political", "sublocality", "sublocality_level_1" ]
            },
            {
               "long_name" : "New York",
               "short_name" : "New York",
               "types" : [ "locality", "political" ]
            },
            {
               "long_name" : "New York County",
               "short_name" : "New York County",
               "types" : [ "administrative_area_level_2", "political" ]
            },
            {
               "long_name" : "New York",
               "short_name" : "NY",
               "types" : [ "administrative_area_level_1", "political" ]
            },
            {
               "long_name" : "United States",
               "short_name" : "US",
               "types" : [ "country", "political" ]
            },
            {
               "long_name" : "10032",
               "short_name" : "10032",
               "types" : [ "postal_code" ]
            },
            {
               "long_name" : "1098",
               "short_name" : "1098",
               "types" : [ "postal_code_suffix" ]
            }
         ],
         "formatted_address" : "Herbert Pardes Building, 1051 Riverside Dr, New York, NY 10032, USA",
         "geometry" : {
            "bounds" : {
               "northeast" : {
                  "lat" : 40.8432847,
                  "lng" : -73.94420479999999
               },
               "southwest" : {
                  "lat" : 40.8417865,
                  "lng" : -73.94494299999999
               }
            },
            "location" : {
               "lat" : 40.8426267,
               "lng" : -73.94455549999999
            },
            "location_type" : "ROOFTOP",
            "viewport" : {
               "northeast" : {
                  "lat" : 40.8438845802915,
                  "lng" : -73.9432249197085
               },
               "southwest" : {
                  "lat" : 40.8411866197085,
                  "lng" : -73.9459228802915
               }
            }
         },
         "place_id" : "ChIJrdkSzJv2wokRuGTZwTqKyZY",
         "types" : [ "premise" ]
      },
      {
         "address_components" : [
            {
               "long_name" : "1051",
               "short_name" : "1051",
               "types" : [ "street_number" ]
            },
            {
               "long_name" : "Riverside Drive",
               "short_name" : "Riverside Dr",
               "types" : [ "route" ]
            },
            {
               "long_name" : "Manhattan",
               "short_name" : "Manhattan",
               "types" : [ "political", "sublocality", "sublocality_level_1" ]
            },
            {
               "long_name" : "New York",
               "short_name" : "New York",
               "types" : [ "locality", "political" ]
            },
            {
               "long_name" : "New York County",
               "short_name" : "New York County",
               "types" : [ "administrative_area_level_2", "political" ]
            },
            {
               "long_name" : "New York",
               "short_name" : "NY",
               "types" : [ "administrative_area_level_1", "political" ]
            },
            {
               "long_name" : "United States",
               "short_name" : "US",
               "types" : [ "country", "political" ]
            },
            {
               "long_name" : "10032",
               "short_name" : "10032",
               "types" : [ "postal_code" ]
            },
            {
               "long_name" : "1013",
               "short_name" : "1013",
               "types" : [ "postal_code_suffix" ]
            }
         ],
         "formatted_address" : "1051 Riverside Dr, New York, NY 10032, USA",
         "geometry" : {
            "location" : {
               "lat" : 40.8425356,
               "lng" : -73.94457389999999
            },
            "location_type" : "ROOFTOP",
            "viewport" : {
               "northeast" : {
                  "lat" : 40.84388458029149,
                  "lng" : -73.94322491970848
               },
               "southwest" : {
                  "lat" : 40.84118661970849,
                  "lng" : -73.94592288029149
               }
            }
         },
         "place_id" : "ChIJOWnctJv2wokRdZQfztQ9-sw",
         "plus_code" : {
            "compound_code" : "R3V4+25 New York, United States",
            "global_code" : "87G8R3V4+25"
         },
         "types" : [ "street_address" ]
      },
      {
         "address_components" : [
            {
               "long_name" : "10032",
               "short_name" : "10032",
               "types" : [ "postal_code" ]
            },
            {
               "long_name" : "Manhattan",
               "short_name" : "Manhattan",
               "types" : [ "political", "sublocality", "sublocality_level_1" ]
            },
            {
               "long_name" : "New York",
               "short_name" : "New York",
               "types" : [ "locality", "political" ]
            },
            {
               "long_name" : "New York County",
               "short_name" : "New York County",
               "types" : [ "administrative_area_level_2", "political" ]
            },
            {
               "long_name" : "New York",
               "short_name" : "NY",
               "types" : [ "administrative_area_level_1", "political" ]
            },
            {
               "long_name" : "United States",
               "short_name" : "US",
               "types" : [ "country", "political" ]
            }
         ],
         "formatted_address" : "New York, NY 10032, USA",
         "geometry" : {
            "bounds" : {
               "northeast" : {
                  "lat" : 40.851599,
                  "lng" : -73.93467099999999
               },
               "southwest" : {
                  "lat" : 40.817116,
                  "lng" : -73.958608
               }
            },
            "location" : {
               "lat" : 40.8409822,
               "lng" : -73.94479939999999
            },
            "location_type" : "APPROXIMATE",
            "viewport" : {
               "northeast" : {
                  "lat" : 40.851599,
                  "lng" : -73.93467099999999
               },
               "southwest" : {
                  "lat" : 40.817116,
                  "lng" : -73.958608
               }
            }
         },
         "place_id" : "ChIJxU8HliD0wokRLIaFrEQ0Itc",
         "types" : [ "postal_code" ]
      },
      {
         "address_components" : [
            {
               "long_name" : "Washington Heights",
               "short_name" : "Washington Heights",
               "types" : [ "neighborhood", "political" ]
            },
            {
               "long_name" : "Manhattan",
               "short_name" : "Manhattan",
               "types" : [ "political", "sublocality", "sublocality_level_1" ]
            },
            {
               "long_name" : "New York",
               "short_name" : "New York",
               "types" : [ "locality", "political" ]
            },
            {
               "long_name" : "New York County",
               "short_name" : "New York County",
               "types" : [ "administrative_area_level_2", "political" ]
            },
            {
               "long_name" : "New York",
               "short_name" : "NY",
               "types" : [ "administrative_area_level_1", "political" ]
            },
            {
               "long_name" : "United States",
               "short_name" : "US",
               "types" : [ "country", "political" ]
            }
         ],
         "formatted_address" : "Washington Heights, New York, NY, USA",
         "geometry" : {
            "bounds" : {
               "northeast" : {
                  "lat" : 40.8595902,
                  "lng" : -73.9224529
               },
               "southwest" : {
                  "lat" : 40.8281291,
                  "lng" : -73.9505678
               }
            },
            "location" : {
               "lat" : 40.8417082,
               "lng" : -73.9393554
            },
            "location_type" : "APPROXIMATE",
            "viewport" : {
               "northeast" : {
                  "lat" : 40.8595902,
                  "lng" : -73.9224529
               },
               "southwest" : {
                  "lat" : 40.8281291,
                  "lng" : -73.9505678
               }
            }
         },
         "place_id" : "ChIJyzs3Vpz2wokRBAVKClFzdR4",
         "types" : [ "neighborhood", "political" ]
      },
      {
         "address_components" : [
            {
               "long_name" : "New York County",
               "short_name" : "New York County",
               "types" : [ "administrative_area_level_2", "political" ]
            },
            {
               "long_name" : "Manhattan",
               "short_name" : "Manhattan",
               "types" : [ "political", "sublocality", "sublocality_level_1" ]
            },
            {
               "long_name" : "New York",
               "short_name" : "New York",
               "types" : [ "locality", "political" ]
            },
            {
               "long_name" : "New York",
               "short_name" : "NY",
               "types" : [ "administrative_area_level_1", "political" ]
            },
            {
               "long_name" : "United States",
               "short_name" : "US",
               "types" : [ "country", "political" ]
            }
         ],
         "formatted_address" : "New York County, New York, NY, USA",
         "geometry" : {
            "bounds" : {
               "northeast" : {
                  "lat" : 40.882214,
                  "lng" : -73.907
               },
               "southwest" : {
                  "lat" : 40.6803955,
                  "lng" : -74.047285
               }
            },
            "location" : {
               "lat" : 40.7830603,
               "lng" : -73.9712488
            },
            "location_type" : "APPROXIMATE",
            "viewport" : {
               "northeast" : {
                  "lat" : 40.882214,
                  "lng" : -73.907
               },
               "southwest" : {
                  "lat" : 40.6803955,
                  "lng" : -74.047285
               }
            }
         },
         "place_id" : "ChIJOwE7_GTtwokRFq0uOwLSE9g",
         "types" : [ "administrative_area_level_2", "political" ]
      },
      {
         "address_components" : [
            {
               "long_name" : "Manhattan",
               "short_name" : "Manhattan",
               "types" : [ "political", "sublocality", "sublocality_level_1" ]
            },
            {
               "long_name" : "New York",
               "short_name" : "New York",
               "types" : [ "locality", "political" ]
            },
            {
               "long_name" : "New York County",
               "short_name" : "New York County",
               "types" : [ "administrative_area_level_2", "political" ]
            },
            {
               "long_name" : "New York",
               "short_name" : "NY",
               "types" : [ "administrative_area_level_1", "political" ]
            },
            {
               "long_name" : "United States",
               "short_name" : "US",
               "types" : [ "country", "political" ]
            }
         ],
         "formatted_address" : "Manhattan, New York, NY, USA",
         "geometry" : {
            "bounds" : {
               "northeast" : {
                  "lat" : 40.882214,
                  "lng" : -73.907
               },
               "southwest" : {
                  "lat" : 40.6803955,
                  "lng" : -74.047285
               }
            },
            "location" : {
               "lat" : 40.7830603,
               "lng" : -73.9712488
            },
            "location_type" : "APPROXIMATE",
            "viewport" : {
               "northeast" : {
                  "lat" : 40.882214,
                  "lng" : -73.907
               },
               "southwest" : {
                  "lat" : 40.6803955,
                  "lng" : -74.047285
               }
            }
         },
         "place_id" : "ChIJYeZuBI9YwokRjMDs_IEyCwo",
         "types" : [ "political", "sublocality", "sublocality_level_1" ]
      },
      {
         "address_components" : [
            {
               "long_name" : "New York",
               "short_name" : "New York",
               "types" : [ "locality", "political" ]
            },
            {
               "long_name" : "New York",
               "short_name" : "NY",
               "types" : [ "administrative_area_level_1", "political" ]
            },
            {
               "long_name" : "United States",
               "short_name" : "US",
               "types" : [ "country", "political" ]
            }
         ],
         "formatted_address" : "New York, NY, USA",
         "geometry" : {
            "bounds" : {
               "northeast" : {
                  "lat" : 40.9175771,
                  "lng" : -73.70027209999999
               },
               "southwest" : {
                  "lat" : 40.4773991,
                  "lng" : -74.25908989999999
               }
            },
            "location" : {
               "lat" : 40.7127753,
               "lng" : -74.0059728
            },
            "location_type" : "APPROXIMATE",
            "viewport" : {
               "northeast" : {
                  "lat" : 40.9175771,
                  "lng" : -73.70027209999999
               },
               "southwest" : {
                  "lat" : 40.4773991,
                  "lng" : -74.25908989999999
               }
            }
         },
         "place_id" : "ChIJOwg_06VPwokRYv534QaPC8g",
         "types" : [ "locality", "political" ]
      },
      {
         "address_components" : [
            {
               "long_name" : "New York",
               "short_name" : "New York",
               "types" : [ "administrative_area_level_1", "political" ]
            },
            {
               "long_name" : "United States",
               "short_name" : "US",
               "types" : [ "country", "political" ]
            }
         ],
         "formatted_address" : "New York, USA",
         "geometry" : {
            "bounds" : {
               "northeast" : {
                  "lat" : 45.015865,
                  "lng" : -71.777491
               },
               "southwest" : {
                  "lat" : 40.4773991,
                  "lng" : -79.7625901
               }
            },
            "location" : {
               "lat" : 43.2994285,
               "lng" : -74.21793260000001
            },
            "location_type" : "APPROXIMATE",
            "viewport" : {
               "northeast" : {
                  "lat" : 45.015865,
                  "lng" : -71.777491
               },
               "southwest" : {
                  "lat" : 40.4773991,
                  "lng" : -79.7625901
               }
            }
         },
         "place_id" : "ChIJqaUj8fBLzEwRZ5UY3sHGz90",
         "types" : [ "administrative_area_level_1", "political" ]
      },
      {
         "address_components" : [
            {
               "long_name" : "United States",
               "short_name" : "US",
               "types" : [ "country", "political" ]
            }
         ],
         "formatted_address" : "United States",
         "geometry" : {
            "bounds" : {
               "northeast" : {
                  "lat" : 71.5388001,
                  "lng" : -66.885417
               },
               "southwest" : {
                  "lat" : 18.7763,
                  "lng" : 170.5957
               }
            },
            "location" : {
               "lat" : 37.09024,
               "lng" : -95.712891
            },
            "location_type" : "APPROXIMATE",
            "viewport" : {
               "northeast" : {
                  "lat" : 71.5388001,
                  "lng" : -66.885417
               },
               "southwest" : {
                  "lat" : 18.7763,
                  "lng" : 170.5957
               }
            }
         },
         "place_id" : "ChIJCzYy5IS16lQRQrfeQ5K5Oxw",
         "types" : [ "country", "political" ]
      }
   ],
   "status" : "OK"
}
