{
   "plus_code" : {
      "compound_code" : "GC9X+M3 Aix-en-Provence, France",
      "global_code" : "8FM7GC9X+M3"
   },
   "results" : [
      {
         "address_components" : [
            {
               "long_name" : "3",
               "short_name" : "3",
               "types" : [ "street_number" ]
            },
            {
               "long_name" : "Avenue Robert Schuman",
               "short_name" : "Avenue Robert Schuman",
               "types" : [ "route" ]
            },
            {
               "long_name" : "Aix-en-Provence",
               "short_name" : "Aix-en-Provence",
               "types" : [ "locality", "political" ]
            },
            {
               "long_name" : "Bouches-du-Rhône",
               "short_name" : "Bouches-du-Rhône",
               "types" : [ "administrative_area_level_2", "political" ]
            },
            {
               "long_name" : "Provence-Alpes-Côte d'Azur",
               "short_name" : "Provence-Alpes-Côte d'Azur",
               "types" : [ "administrative_area_level_1", "political" ]
            },
            {
               "long_name" : "France",
               "short_name" : "FR",
               "types" : [ "country", "political" ]
            },
            {
               "long_name" : "13100",
               "short_name" : "13100",
               "types" : [ "postal_code" ]
            }
         ],
         "formatted_address" : "3 Avenue Robert Schuman, 13100 Aix-en-Provence, France",
         "geometry" : {
            "location" : {
               "lat" : 43.51915140000001,
               "lng" : 5.4476824
            },
            "location_type" : "ROOFTOP",
            "viewport" : {
               "northeast" : {
                  "lat" : 43.52050038029151,
                  "lng" : 5.449031380291502
               },
               "southwest" : {
                  "lat" : 43.51780241970851,
                  "lng" : 5.446333419708497
               }
            }
         },
         "place_id" : "ChIJSRwOQpCNyRIR1chHvvRVgQ0",
         "plus_code" : {
            "compound_code" : "GC9X+M3 Aix-en-Provence, France",
            "global_code" : "8FM7GC9X+M3"
         },
         "types" : [ "establishment", "point_of_interest" ]
      },
      {
         "address_components" : [
            {
               "long_name" : "Avenue Robert Schuman",
               "short_name" : "Avenue Robert Schuman",
               "types" : [ "route" ]
            },
            {
               "long_name" : "Aix-en-Provence",
               "short_name" : "Aix-en-Provence",
               "types" : [ "locality", "political" ]
            },
            {
               "long_name" : "Bouches-du-Rhône",
               "short_name" : "Bouches-du-Rhône",
               "types" : [ "administrative_area_level_2", "political" ]
            },
            {
               "long_name" : "Provence-Alpes-Côte d'Azur",
               "short_name" : "Provence-Alpes-Côte d'Azur",
               "types" : [ "administrative_area_level_1", "political" ]
            },
            {
               "long_name" : "France",
               "short_name" : "FR",
               "types" : [ "country", "political" ]
            },
            {
               "long_name" : "13100",
               "short_name" : "13100",
               "types" : [ "postal_code" ]
            }
         ],
         "formatted_address" : "Avenue Robert Schuman, 13100 Aix-en-Provence, France",
         "geometry" : {
            "bounds" : {
               "northeast" : {
                  "lat" : 43.5196586,
                  "lng" : 5.4485107
               },
               "southwest" : {
                  "lat" : 43.5185227,
                  "lng" : 5.4477007
               }
            },
            "location" : {
               "lat" : 43.5190059,
               "lng" : 5.448051599999999
            },
            "location_type" : "ROOFTOP",
            "viewport" : {
               "northeast" : {
                  "lat" : 43.5204396302915,
                  "lng" : 5.449454680291502
               },
               "southwest" : {
                  "lat" : 43.5177416697085,
                  "lng" : 5.446756719708497
               }
            }
         },
         "place_id" : "ChIJVdKCRpCNyRIRWWI-Q77C46g",
         "types" : [ "premise" ]
      },
      {
         "address_components" : [
            {
               "long_name" : "5",
               "short_name" : "5",
               "types" : [ "street_number" ]
            },
            {
               "long_name" : "Avenue Robert Schuman",
               "short_name" : "Avenue Robert Schuman",
               "types" : [ "route" ]
            },
            {
               "long_name" : "Aix-en-Provence",
               "short_name" : "Aix-en-Provence",
               "types" : [ "locality", "political" ]
            },
            {
               "long_name" : "Bouches-du-Rhône",
               "short_name" : "Bouches-du-Rhône",
               "types" : [ "administrative_area_level_2", "political" ]
            },
            {
               "long_name" : "Provence-Alpes-Côte d'Azur",
               "short_name" : "Provence-Alpes-Côte d'Azur",
               "types" : [ "administrative_area_level_1", "political" ]
            },
            {
               "long_name" : "France",
               "short_name" : "FR",
               "types" : [ "country", "political" ]
            },
            {
               "long_name" : "13100",
               "short_name" : "13100",
               "types" : [ "postal_code" ]
            }
         ],
         "formatted_address" : "5 Avenue Robert Schuman, 13100 Aix-en-Provence, France",
         "geometry" : {
            "location" : {
               "lat" : 43.51861030000001,
               "lng" : 5.4471776
            },
            "location_type" : "ROOFTOP",
            "viewport" : {
               "northeast" : {
                  "lat" : 43.51995928029151,
                  "lng" : 5.448526580291502
               },
               "southwest" : {
                  "lat" : 43.51726131970851,
                  "lng" : 5.445828619708498
               }
            }
         },
         "place_id" : "ChIJz6Y4EpCNyRIRK5PKmV7RoaA",
         "plus_code" : {
            "compound_code" : "GC9W+CV Aix-en-Provence, France",
            "global_code" : "8FM7GC9W+CV"
         },
         "types" : [ "street_address" ]
      },
      {
         "address_components" : [
            {
               "long_name" : "3",
               "short_name" : "3",
               "types" : [ "street_number" ]
            },
            {
               "long_name" : "Avenue Robert Schuman",
               "short_name" : "Avenue Robert Schuman",
               "types" : [ "route" ]
            },
            {
               "long_name" : "Aix-en-Provence",
               "short_name" : "Aix-en-Provence",
               "types" : [ "locality", "political" ]
            },
            {
               "long_name" : "France",
               "short_name" : "FR",
               "types" : [ "country", "political" ]
            },
            {
               "long_name" : "13100",
               "short_name" : "13100",
               "types" : [ "postal_code" ]
            }
         ],
         "formatted_address" : "3 Avenue Robert Schuman, 13100 Aix-en-Provence, France",
         "geometry" : {
            "location" : {
               "lat" : 43.5191636,
               "lng" : 5.446731
            },
            "location_type" : "RANGE_INTERPOLATED",
            "viewport" : {
               "northeast" : {
                  "lat" : 43.5205125802915,
                  "lng" : 5.448079980291502
               },
               "southwest" : {
                  "lat" : 43.5178146197085,
                  "lng" : 5.445382019708497
               }
            }
         },
         "place_id" : "EjYzIEF2ZW51ZSBSb2JlcnQgU2NodW1hbiwgMTMxMDAgQWl4LWVuLVByb3ZlbmNlLCBGcmFuY2UiGhIYChQKEgkFtu1zkI3JEhEwaV59Nxh1GhAD",
         "types" : [ "street_address" ]
      },
      {
         "address_components" : [
            {
               "long_name" : "Sud",
               "short_name" : "Sud",
               "types" : [ "neighborhood", "political" ]
            },
            {
               "long_name" : "Aix-en-Provence",
               "short_name" : "Aix-en-Provence",
               "types" : [ "locality", "political" ]
            },
            {
               "long_name" : "Bouches-du-Rhône",
               "short_name" : "Bouches-du-Rhône",
               "types" : [ "administrative_area_level_2", "political" ]
            },
            {
               "long_name" : "Provence-Alpes-Côte d'Azur",
               "short_name" : "Provence-Alpes-Côte d'Azur",
               "types" : [ "administrative_area_level_1", "political" ]
            },
            {
               "long_name" : "France",
               "short_name" : "FR",
               "types" : [ "country", "political" ]
            }
         ],
         "formatted_address" : "Sud, Aix-en-Provence, France",
         "geometry" : {
            "bounds" : {
               "northeast" : {
                  "lat" : 43.524072,
                  "lng" : 5.474839999999999
               },
               "southwest" : {
                  "lat" : 43.511688,
                  "lng" : 5.431716
               }
            },
            "location" : {
               "lat" : 43.5153902,
               "lng" : 5.4437122
            },
            "location_type" : "APPROXIMATE",
            "viewport" : {
               "northeast" : {
                  "lat" : 43.524072,
                  "lng" : 5.474839999999999
               },
               "southwest" : {
                  "lat" : 43.511688,
                  "lng" : 5.431716
               }
            }
         },
         "place_id" : "ChIJBe8gkI2NyRIRH4i_5csuAIk",
         "types" : [ "neighborhood", "political" ]
      },
      {
         "address_components" : [
            {
               "long_name" : "13090",
               "short_name" : "13090",
               "types" : [ "postal_code" ]
            },
            {
               "long_name" : "Aix-en-Provence",
               "short_name" : "Aix-en-Provence",
               "types" : [ "locality", "political" ]
            },
            {
               "long_name" : "Bouches-du-Rhone",
               "short_name" : "Bouches-du-Rhone",
               "types" : [ "administrative_area_level_2", "political" ]
            },
            {
               "long_name" : "Provence-Alpes-Côte d'Azur",
               "short_name" : "Provence-Alpes-Côte d'Azur",
               "types" : [ "administrative_area_level_1", "political" ]
            },
            {
               "long_name" : "France",
               "short_name" : "FR",
               "types" : [ "country", "political" ]
            }
         ],
         "formatted_address" : "13090 Aix-en-Provence, France",
         "geometry" : {
            "bounds" : {
               "northeast" : {
                  "lat" : 43.5742526,
                  "lng" : 5.452705
               },
               "southwest" : {
                  "lat" : 43.5059315,
                  "lng" : 5.356468599999999
               }
            },
            "location" : {
               "lat" : 43.5388336,
               "lng" : 5.4044268
            },
            "location_type" : "APPROXIMATE",
            "viewport" : {
               "northeast" : {
                  "lat" : 43.5742526,
                  "lng" : 5.452705
               },
               "southwest" : {
                  "lat" : 43.5059315,
                  "lng" : 5.356468599999999
               }
            }
         },
         "place_id" : "ChIJdWibgDaNyRIRcEsgUqkZCBw",
         "types" : [ "postal_code" ]
      },
      {
         "address_components" : [
            {
               "long_name" : "Aix-en-Provence",
               "short_name" : "Aix-en-Provence",
               "types" : [ "locality", "political" ]
            },
            {
               "long_name" : "Bouches-du-Rhone",
               "short_name" : "Bouches-du-Rhone",
               "types" : [ "administrative_area_level_2", "political" ]
            },
            {
               "long_name" : "Provence-Alpes-Côte d'Azur",
               "short_name" : "Provence-Alpes-Côte d'Azur",
               "types" : [ "administrative_area_level_1", "political" ]
            },
            {
               "long_name" : "France",
               "short_name" : "FR",
               "types" : [ "country", "political" ]
            }
         ],
         "formatted_address" : "Aix-en-Provence, France",
         "geometry" : {
            "bounds" : {
               "northeast" : {
                  "lat" : 43.62598,
                  "lng" : 5.506365
               },
               "southwest" : {
                  "lat" : 43.445968,
                  "lng" : 5.269528999999999
               }
            },
            "location" : {
               "lat" : 43.529742,
               "lng" : 5.447426999999999
            },
            "location_type" : "APPROXIMATE",
            "viewport" : {
               "northeast" : {
                  "lat" : 43.62598,
                  "lng" : 5.506365
               },
               "southwest" : {
                  "lat" : 43.445968,
                  "lng" : 5.269528999999999
               }
            }
         },
         "place_id" : "ChIJWRK5BKONyRIRo4i2yL5TuVw",
         "types" : [ "locality", "political" ]
      },
      {
         "address_components" : [
            {
               "long_name" : "Bouches-du-Rhone",
               "short_name" : "Bouches-du-Rhone",
               "types" : [ "administrative_area_level_2", "political" ]
            },
            {
               "long_name" : "Provence-Alpes-Côte d'Azur",
               "short_name" : "Provence-Alpes-Côte d'Azur",
               "types" : [ "administrative_area_level_1", "political" ]
            },
            {
               "long_name" : "France",
               "short_name" : "FR",
               "types" : [ "country", "political" ]
            }
         ],
         "formatted_address" : "Bouches-du-Rhone, France",
         "geometry" : {
            "bounds" : {
               "northeast" : {
                  "lat" : 43.924136,
                  "lng" : 5.8134309
               },
               "southwest" : {
                  "lat" : 43.1573841,
                  "lng" : 4.230207
               }
            },
            "location" : {
               "lat" : 43.59116789999999,
               "lng" : 5.3102505
            },
            "location_type" : "APPROXIMATE",
            "viewport" : {
               "northeast" : {
                  "lat" : 43.924136,
                  "lng" : 5.8134309
               },
               "southwest" : {
                  "lat" : 43.1573841,
                  "lng" : 4.230207
               }
            }
         },
         "place_id" : "ChIJWxNFLN8CthIRQCaP_aUZCAM",
         "types" : [ "administrative_area_level_2", "political" ]
      },
      {
         "address_components" : [
            {
               "long_name" : "Provence-Alpes-Côte d'Azur",
               "short_name" : "Provence-Alpes-Côte d'Azur",
               "types" : [ "administrative_area_level_1", "political" ]
            },
            {
               "long_name" : "France",
               "short_name" : "FR",
               "types" : [ "country", "political" ]
            }
         ],
         "formatted_address" : "Provence-Alpes-Côte d'Azur, France",
         "geometry" : {
            "bounds" : {
               "northeast" : {
                  "lat" : 45.12685099999999,
                  "lng" : 7.718992999999998
               },
               "southwest" : {
                  "lat" : 42.98199810000001,
                  "lng" : 4.230207
               }
            },
            "location" : {
               "lat" : 43.9351691,
               "lng" : 6.0679194
            },
            "location_type" : "APPROXIMATE",
            "viewport" : {
               "northeast" : {
                  "lat" : 45.12685099999999,
                  "lng" : 7.718992999999998
               },
               "southwest" : {
                  "lat" : 42.98199810000001,
                  "lng" : 4.230207
               }
            }
         },
         "place_id" : "ChIJrVP5ihlothIRp9EWPSaQFrc",
         "types" : [ "administrative_area_level_1", "political" ]
      },
      {
         "address_components" : [
            {
               "long_name" : "France",
               "short_name" : "FR",
               "types" : [ "country", "political" ]
            }
         ],
         "formatted_address" : "France",
         "geometry" : {
            "bounds" : {
               "northeast" : {
                  "lat" : 51.1241999,
                  "lng" : 9.6624999
               },
               "southwest" : {
                  "lat" : 41.31433,
                  "lng" : -5.5591
               }
            },
            "location" : {
               "lat" : 46.227638,
               "lng" : 2.213749
            },
            "location_type" : "APPROXIMATE",
            "viewport" : {
               "northeast" : {
                  "lat" : 51.1241999,
                  "lng" : 9.6624999
               },
               "southwest" : {
                  "lat" : 41.31433,
                  "lng" : -5.5591
               }
            }
         },
         "place_id" : "ChIJMVd4MymgVA0R99lHx5Y__Ws",
         "types" : [ "country", "political" ]
      }
   ],
   "status" : "OK"
}
