{
   "plus_code" : {
      "compound_code" : "R83M+RM Clausthal-Zellerfeld, Germany",
      "global_code" : "9F3GR83M+RM"
   },
   "results" : [
      {
         "address_components" : [
            {
               "long_name" : "2A",
               "short_name" : "2A",
               "types" : [ "street_number" ]
            },
            {
               "long_name" : "Adolph-Roemer-Straße",
               "short_name" : "Adolph-Roemer-Straße",
               "types" : [ "route" ]
            },
            {
               "long_name" : "Clausthal-Zellerfeld",
               "short_name" : "Clausthal-Zellerfeld",
               "types" : [ "locality", "political" ]
            },
            {
               "long_name" : "Goslar",
               "short_name" : "GS",
               "types" : [ "administrative_area_level_3", "political" ]
            },
            {
               "long_name" : "Niedersachsen",
               "short_name" : "NDS",
               "types" : [ "administrative_area_level_1", "political" ]
            },
            {
               "long_name" : "Germany",
               "short_name" : "DE",
               "types" : [ "country", "political" ]
            },
            {
               "long_name" : "38678",
               "short_name" : "38678",
               "types" : [ "postal_code" ]
            }
         ],
         "formatted_address" : "Adolph-Roemer-Straße 2A, 38678 Clausthal-Zellerfeld, Germany",
         "geometry" : {
            "location" : {
               "lat" : 51.80454,
               "lng" : 10.33415
            },
            "location_type" : "ROOFTOP",
            "viewport" : {
               "northeast" : {
                  "lat" : 51.8058889802915,
                  "lng" : 10.3354989802915
               },
               "southwest" : {
                  "lat" : 51.8031910197085,
                  "lng" : 10.3328010197085
               }
            }
         },
         "place_id" : "ChIJZ4hxx-07pUcR2lnv7Vd6KRQ",
         "plus_code" : {
            "compound_code" : "R83M+RM Clausthal-Zellerfeld, Germany",
            "global_code" : "9F3GR83M+RM"
         },
         "types" : [ "street_address" ]
      },
      {
         "address_components" : [
            {
               "long_name" : "2A",
               "short_name" : "2A",
               "types" : [ "street_number" ]
            },
            {
               "long_name" : "Adolph-Roemer-Straße",
               "short_name" : "Adolph-Roemer-Straße",
               "types" : [ "route" ]
            },
            {
               "long_name" : "Clausthal-Zellerfeld",
               "short_name" : "Clausthal-Zellerfeld",
               "types" : [ "locality", "political" ]
            },
            {
               "long_name" : "Goslar",
               "short_name" : "GS",
               "types" : [ "administrative_area_level_3", "political" ]
            },
            {
               "long_name" : "Niedersachsen",
               "short_name" : "NDS",
               "types" : [ "administrative_area_level_1", "political" ]
            },
            {
               "long_name" : "Germany",
               "short_name" : "DE",
               "types" : [ "country", "political" ]
            },
            {
               "long_name" : "38678",
               "short_name" : "38678",
               "types" : [ "postal_code" ]
            }
         ],
         "formatted_address" : "Adolph-Roemer-Straße 2A, 38678 Clausthal-Zellerfeld, Germany",
         "geometry" : {
            "location" : {
               "lat" : 51.80454,
               "lng" : 10.33415
            },
            "location_type" : "ROOFTOP",
            "viewport" : {
               "northeast" : {
                  "lat" : 51.8058889802915,
                  "lng" : 10.3354989802915
               },
               "southwest" : {
                  "lat" : 51.8031910197085,
                  "lng" : 10.3328010197085
               }
            }
         },
         "place_id" : "ChIJHTyCkPM7pUcRCEm8u7N9UNE",
         "plus_code" : {
            "compound_code" : "R83M+RM Clausthal-Zellerfeld, Germany",
            "global_code" : "9F3GR83M+RM"
         },
         "types" : [ "establishment", "point_of_interest", "university" ]
      },
      {
         "address_components" : [
            {
               "long_name" : "2",
               "short_name" : "2",
               "types" : [ "street_number" ]
            },
            {
               "long_name" : "Adolph-Roemer-Straße",
               "short_name" : "Adolph-Roemer-Straße",
               "types" : [ "route" ]
            },
            {
               "long_name" : "Clausthal-Zellerfeld",
               "short_name" : "Clausthal-Zellerfeld",
               "types" : [ "locality", "political" ]
            },
            {
               "long_name" : "Germany",
               "short_name" : "DE",
               "types" : [ "country", "political" ]
            },
            {
               "long_name" : "38678",
               "short_name" : "38678",
               "types" : [ "postal_code" ]
            }
         ],
         "formatted_address" : "Adolph-Roemer-Straße 2, 38678 Clausthal-Zellerfeld, Germany",
         "geometry" : {
            "location" : {
               "lat" : 51.8046729,
               "lng" : 10.3337666
            },
            "location_type" : "RANGE_INTERPOLATED",
            "viewport" : {
               "northeast" : {
                  "lat" : 51.8060218802915,
                  "lng" : 10.3351155802915
               },
               "southwest" : {
                  "lat" : 51.8033239197085,
                  "lng" : 10.3324176197085
               }
            }
         },
         "place_id" : "EkBBZG9scGgtUm9lbWVyLVN0cmHDn2UgMiwgMzg2NzggQ2xhdXN0aGFsLVplbGxlcmZlbGQsIERldXRzY2hsYW5kIhoSGAoUChIJLR20yO07pUcR3Bon7sjJPYYQAg",
         "types" : [ "street_address" ]
      },
      {
         "address_components" : [
            {
               "long_name" : "Clausthal-Zellerfeld",
               "short_name" : "Clausthal-Zellerfeld",
               "types" : [ "locality", "political" ]
            },
            {
               "long_name" : "Goslar",
               "short_name" : "GS",
               "types" : [ "administrative_area_level_3", "political" ]
            },
            {
               "long_name" : "Lower Saxony",
               "short_name" : "NDS",
               "types" : [ "administrative_area_level_1", "political" ]
            },
            {
               "long_name" : "Germany",
               "short_name" : "DE",
               "types" : [ "country", "political" ]
            },
            {
               "long_name" : "38678",
               "short_name" : "38678",
               "types" : [ "postal_code" ]
            }
         ],
         "formatted_address" : "38678 Clausthal-Zellerfeld, Germany",
         "geometry" : {
            "bounds" : {
               "northeast" : {
                  "lat" : 51.8472322,
                  "lng" : 10.4226561
               },
               "southwest" : {
                  "lat" : 51.765713,
                  "lng" : 10.2809058
               }
            },
            "location" : {
               "lat" : 51.8080063,
               "lng" : 10.3407069
            },
            "location_type" : "APPROXIMATE",
            "viewport" : {
               "northeast" : {
                  "lat" : 51.8472322,
                  "lng" : 10.4226561
               },
               "southwest" : {
                  "lat" : 51.765713,
                  "lng" : 10.2809058
               }
            }
         },
         "place_id" : "ChIJwSZ1Ee47pUcRgD-slG2sJQQ",
         "types" : [ "locality", "political" ]
      },
      {
         "address_components" : [
            {
               "long_name" : "Upper Harz",
               "short_name" : "Upper Harz",
               "types" : [ "administrative_area_level_4", "political" ]
            },
            {
               "long_name" : "Goslar",
               "short_name" : "GS",
               "types" : [ "administrative_area_level_3", "political" ]
            },
            {
               "long_name" : "Lower Saxony",
               "short_name" : "NDS",
               "types" : [ "administrative_area_level_1", "political" ]
            },
            {
               "long_name" : "Germany",
               "short_name" : "DE",
               "types" : [ "country", "political" ]
            }
         ],
         "formatted_address" : "Upper Harz, Germany",
         "geometry" : {
            "bounds" : {
               "northeast" : {
                  "lat" : 51.8582078,
                  "lng" : 10.5788435
               },
               "southwest" : {
                  "lat" : 51.765713,
                  "lng" : 10.2683012
               }
            },
            "location" : {
               "lat" : 51.8107272,
               "lng" : 10.3388971
            },
            "location_type" : "APPROXIMATE",
            "viewport" : {
               "northeast" : {
                  "lat" : 51.8582078,
                  "lng" : 10.5788435
               },
               "southwest" : {
                  "lat" : 51.765713,
                  "lng" : 10.2683012
               }
            }
         },
         "place_id" : "ChIJOwvrvNc9pUcREGXiej1bXeE",
         "types" : [ "administrative_area_level_4", "political" ]
      },
      {
         "address_components" : [
            {
               "long_name" : "38678",
               "short_name" : "38678",
               "types" : [ "postal_code" ]
            },
            {
               "long_name" : "Clausthal-Zellerfeld",
               "short_name" : "Clausthal-Zellerfeld",
               "types" : [ "locality", "political" ]
            },
            {
               "long_name" : "Goslar",
               "short_name" : "GS",
               "types" : [ "administrative_area_level_3", "political" ]
            },
            {
               "long_name" : "Lower Saxony",
               "short_name" : "NDS",
               "types" : [ "administrative_area_level_1", "political" ]
            },
            {
               "long_name" : "Germany",
               "short_name" : "DE",
               "types" : [ "country", "political" ]
            }
         ],
         "formatted_address" : "38678 Clausthal-Zellerfeld, Germany",
         "geometry" : {
            "bounds" : {
               "northeast" : {
                  "lat" : 51.854436,
                  "lng" : 10.4038779
               },
               "southwest" : {
                  "lat" : 51.765773,
                  "lng" : 10.2771919
               }
            },
            "location" : {
               "lat" : 51.8107272,
               "lng" : 10.3388971
            },
            "location_type" : "APPROXIMATE",
            "viewport" : {
               "northeast" : {
                  "lat" : 51.854436,
                  "lng" : 10.4038779
               },
               "southwest" : {
                  "lat" : 51.765773,
                  "lng" : 10.2771919
               }
            }
         },
         "place_id" : "ChIJwSZ1Ee47pUcRECPE3nCsJRw",
         "types" : [ "postal_code" ]
      },
      {
         "address_components" : [
            {
               "long_name" : "Goslar",
               "short_name" : "Goslar",
               "types" : [ "administrative_area_level_3", "political" ]
            },
            {
               "long_name" : "Lower Saxony",
               "short_name" : "NDS",
               "types" : [ "administrative_area_level_1", "political" ]
            },
            {
               "long_name" : "Germany",
               "short_name" : "DE",
               "types" : [ "country", "political" ]
            }
         ],
         "formatted_address" : "Goslar, Germany",
         "geometry" : {
            "bounds" : {
               "northeast" : {
                  "lat" : 52.0562589,
                  "lng" : 10.7016678
               },
               "southwest" : {
                  "lat" : 51.6380784,
                  "lng" : 10.0656775
               }
            },
            "location" : {
               "lat" : 51.9059076,
               "lng" : 10.429023
            },
            "location_type" : "APPROXIMATE",
            "viewport" : {
               "northeast" : {
                  "lat" : 52.0562589,
                  "lng" : 10.7016678
               },
               "southwest" : {
                  "lat" : 51.6380784,
                  "lng" : 10.0656775
               }
            }
         },
         "place_id" : "ChIJX9GlDsU-pUcRENpXQeDVHfI",
         "types" : [ "administrative_area_level_3", "political" ]
      },
      {
         "address_components" : [
            {
               "long_name" : "Lower Saxony",
               "short_name" : "Lower Saxony",
               "types" : [ "administrative_area_level_1", "political" ]
            },
            {
               "long_name" : "Germany",
               "short_name" : "DE",
               "types" : [ "country", "political" ]
            }
         ],
         "formatted_address" : "Lower Saxony, Germany",
         "geometry" : {
            "bounds" : {
               "northeast" : {
                  "lat" : 53.8922841,
                  "lng" : 11.5982056
               },
               "southwest" : {
                  "lat" : 51.29506740000001,
                  "lng" : 6.6538789
               }
            },
            "location" : {
               "lat" : 52.6367036,
               "lng" : 9.845076600000001
            },
            "location_type" : "APPROXIMATE",
            "viewport" : {
               "northeast" : {
                  "lat" : 53.8922841,
                  "lng" : 11.5982056
               },
               "southwest" : {
                  "lat" : 51.29506740000001,
                  "lng" : 6.6538789
               }
            }
         },
         "place_id" : "ChIJZTST8-ORsEcRAHkCY3fPJgE",
         "types" : [ "administrative_area_level_1", "political" ]
      },
      {
         "address_components" : [
            {
               "long_name" : "Germany",
               "short_name" : "DE",
               "types" : [ "country", "political" ]
            }
         ],
         "formatted_address" : "Germany",
         "geometry" : {
            "bounds" : {
               "northeast" : {
                  "lat" : 55.0815,
                  "lng" : 15.0418962
               },
               "southwest" : {
                  "lat" : 47.2701115,
                  "lng" : 5.8663425
               }
            },
            "location" : {
               "lat" : 51.165691,
               "lng" : 10.451526
            },
            "location_type" : "APPROXIMATE",
            "viewport" : {
               "northeast" : {
                  "lat" : 55.0815,
                  "lng" : 15.0418962
               },
               "southwest" : {
                  "lat" : 47.2701115,
                  "lng" : 5.8663425
               }
            }
         },
         "place_id" : "ChIJa76xwh5ymkcRW-WRjmtd6HU",
         "types" : [ "country", "political" ]
      }
   ],
   "status" : "OK"
}
