{
   "plus_code" : {
      "compound_code" : "QP57+PR Tokyo, Japan",
      "global_code" : "8Q7XQP57+PR"
   },
   "results" : [
      {
         "address_components" : [
            {
               "long_name" : "Tokyo",
               "short_name" : "Tokyo",
               "types" : [ "administrative_area_level_1", "political" ]
            },
            {
               "long_name" : "Japan",
               "short_name" : "JP",
               "types" : [ "country", "political" ]
            },
            {
               "long_name" : "173-8605",
               "short_name" : "173-8605",
               "types" : [ "postal_code" ]
            }
         ],
         "formatted_address" : "Japan, 〒173-8605 Tokyo, 板橋区加賀２丁目１１−１",
         "geometry" : {
            "location" : {
               "lat" : 35.7592746,
               "lng" : 139.7145029
            },
            "location_type" : "GEOMETRIC_CENTER",
            "viewport" : {
               "northeast" : {
                  "lat" : 35.7606235802915,
                  "lng" : 139.7158518802915
               },
               "southwest" : {
                  "lat" : 35.7579256197085,
                  "lng" : 139.7131539197085
               }
            }
         },
         "place_id" : "ChIJP23mP-uSGGAR5Xo1_cRiJ8c",
         "plus_code" : {
            "compound_code" : "QP57+PR Tokyo, Japan",
            "global_code" : "8Q7XQP57+PR"
         },
         "types" : [ "establishment", "point_of_interest", "university" ]
      },
      {
         "address_components" : [
            {
               "long_name" : "1",
               "short_name" : "1",
               "types" : [ "premise" ]
            },
            {
               "long_name" : "11",
               "short_name" : "11",
               "types" : [ "political", "sublocality", "sublocality_level_4" ]
            },
            {
               "long_name" : "2 Chome",
               "short_name" : "2 Chome",
               "types" : [ "political", "sublocality", "sublocality_level_3" ]
            },
            {
               "long_name" : "Kaga",
               "short_name" : "Kaga",
               "types" : [ "political", "sublocality", "sublocality_level_2" ]
            },
            {
               "long_name" : "Itabashi-ku",
               "short_name" : "Itabashi-ku",
               "types" : [ "locality", "political" ]
            },
            {
               "long_name" : "Tōkyō-to",
               "short_name" : "Tōkyō-to",
               "types" : [ "administrative_area_level_1", "political" ]
            },
            {
               "long_name" : "Japan",
               "short_name" : "JP",
               "types" : [ "country", "political" ]
            },
            {
               "long_name" : "173-0003",
               "short_name" : "173-0003",
               "types" : [ "postal_code" ]
            }
         ],
         "formatted_address" : "2 Chome-11-1 Kaga, Itabashi-ku, Tōkyō-to 173-0003, Japan",
         "geometry" : {
            "location" : {
               "lat" : 35.759053,
               "lng" : 139.7151596
            },
            "location_type" : "ROOFTOP",
            "viewport" : {
               "northeast" : {
                  "lat" : 35.7604019802915,
                  "lng" : 139.7165085802915
               },
               "southwest" : {
                  "lat" : 35.75770401970851,
                  "lng" : 139.7138106197085
               }
            }
         },
         "place_id" : "ChIJEag_ceuSGGARe5Tc_P3a_RU",
         "plus_code" : {
            "compound_code" : "QP58+J3 Tokyo, Japan",
            "global_code" : "8Q7XQP58+J3"
         },
         "types" : [ "street_address" ]
      },
      {
         "address_components" : [
            {
               "long_name" : "Unnamed Road",
               "short_name" : "Unnamed Road",
               "types" : [ "route" ]
            },
            {
               "long_name" : "11",
               "short_name" : "11",
               "types" : [ "political", "sublocality", "sublocality_level_4" ]
            },
            {
               "long_name" : "2 Chome",
               "short_name" : "2 Chome",
               "types" : [ "political", "sublocality", "sublocality_level_3" ]
            },
            {
               "long_name" : "Kaga",
               "short_name" : "Kaga",
               "types" : [ "political", "sublocality", "sublocality_level_2" ]
            },
            {
               "long_name" : "Itabashi-ku",
               "short_name" : "Itabashi-ku",
               "types" : [ "locality", "political" ]
            },
            {
               "long_name" : "Tōkyō-to",
               "short_name" : "Tōkyō-to",
               "types" : [ "administrative_area_level_1", "political" ]
            },
            {
               "long_name" : "Japan",
               "short_name" : "JP",
               "types" : [ "country", "political" ]
            },
            {
               "long_name" : "173-0003",
               "short_name" : "173-0003",
               "types" : [ "postal_code" ]
            }
         ],
         "formatted_address" : "Unnamed Road, 2 Chome-11 Kaga, Itabashi-ku, Tōkyō-to 173-0003, Japan",
         "geometry" : {
            "bounds" : {
               "northeast" : {
                  "lat" : 35.7587372,
                  "lng" : 139.7145066
               },
               "southwest" : {
                  "lat" : 35.7582281,
                  "lng" : 139.7132681
               }
            },
            "location" : {
               "lat" : 35.7584826,
               "lng" : 139.7138874
            },
            "location_type" : "GEOMETRIC_CENTER",
            "viewport" : {
               "northeast" : {
                  "lat" : 35.75983163029149,
                  "lng" : 139.7152363302915
               },
               "southwest" : {
                  "lat" : 35.7571336697085,
                  "lng" : 139.7125383697085
               }
            }
         },
         "place_id" : "ChIJ1Qw34-qSGGARACnMrrpgN2I",
         "types" : [ "route" ]
      },
      {
         "address_components" : [
            {
               "long_name" : "Kaga",
               "short_name" : "Kaga",
               "types" : [ "political", "sublocality", "sublocality_level_2" ]
            },
            {
               "long_name" : "Itabashi",
               "short_name" : "Itabashi",
               "types" : [ "locality", "political" ]
            },
            {
               "long_name" : "Tokyo",
               "short_name" : "Tokyo",
               "types" : [ "administrative_area_level_1", "political" ]
            },
            {
               "long_name" : "Japan",
               "short_name" : "JP",
               "types" : [ "country", "political" ]
            },
            {
               "long_name" : "173-0003",
               "short_name" : "173-0003",
               "types" : [ "postal_code" ]
            }
         ],
         "formatted_address" : "Kaga, Itabashi, Tokyo 173-0003, Japan",
         "geometry" : {
            "bounds" : {
               "northeast" : {
                  "lat" : 35.761496,
                  "lng" : 139.7226082
               },
               "southwest" : {
                  "lat" : 35.7519975,
                  "lng" : 139.7118249
               }
            },
            "location" : {
               "lat" : 35.7546565,
               "lng" : 139.7189205
            },
            "location_type" : "APPROXIMATE",
            "viewport" : {
               "northeast" : {
                  "lat" : 35.761496,
                  "lng" : 139.7226082
               },
               "southwest" : {
                  "lat" : 35.7519975,
                  "lng" : 139.7118249
               }
            }
         },
         "place_id" : "ChIJTSwNZpOSGGARlzbwzuW0vgQ",
         "types" : [ "political", "sublocality", "sublocality_level_2" ]
      },
      {
         "address_components" : [
            {
               "long_name" : "11",
               "short_name" : "11",
               "types" : [ "political", "sublocality", "sublocality_level_4" ]
            },
            {
               "long_name" : "2 Chome",
               "short_name" : "2 Chome",
               "types" : [ "political", "sublocality", "sublocality_level_3" ]
            },
            {
               "long_name" : "Kaga",
               "short_name" : "Kaga",
               "types" : [ "political", "sublocality", "sublocality_level_2" ]
            },
            {
               "long_name" : "Itabashi",
               "short_name" : "Itabashi",
               "types" : [ "locality", "political" ]
            },
            {
               "long_name" : "Tokyo",
               "short_name" : "Tokyo",
               "types" : [ "administrative_area_level_1", "political" ]
            },
            {
               "long_name" : "Japan",
               "short_name" : "JP",
               "types" : [ "country", "political" ]
            },
            {
               "long_name" : "173-0003",
               "short_name" : "173-0003",
               "types" : [ "postal_code" ]
            }
         ],
         "formatted_address" : "2 Chome-11 Kaga, Itabashi, Tokyo 173-0003, Japan",
         "geometry" : {
            "bounds" : {
               "northeast" : {
                  "lat" : 35.7606835,
                  "lng" : 139.7164808
               },
               "southwest" : {
                  "lat" : 35.7580198,
                  "lng" : 139.7123133
               }
            },
            "location" : {
               "lat" : 35.7598279,
               "lng" : 139.7139791
            },
            "location_type" : "GEOMETRIC_CENTER",
            "viewport" : {
               "northeast" : {
                  "lat" : 35.7607006302915,
                  "lng" : 139.7164808
               },
               "southwest" : {
                  "lat" : 35.7580026697085,
                  "lng" : 139.7123133
               }
            }
         },
         "place_id" : "ChIJ6cQZquuSGGAR1IBa2aeYGk4",
         "types" : [ "political", "sublocality", "sublocality_level_4" ]
      },
      {
         "address_components" : [
            {
               "long_name" : "2 Chome",
               "short_name" : "2 Chome",
               "types" : [ "political", "sublocality", "sublocality_level_3" ]
            },
            {
               "long_name" : "Kaga",
               "short_name" : "Kaga",
               "types" : [ "political", "sublocality", "sublocality_level_2" ]
            },
            {
               "long_name" : "Itabashi",
               "short_name" : "Itabashi",
               "types" : [ "locality", "political" ]
            },
            {
               "long_name" : "Tokyo",
               "short_name" : "Tokyo",
               "types" : [ "administrative_area_level_1", "political" ]
            },
            {
               "long_name" : "Japan",
               "short_name" : "JP",
               "types" : [ "country", "political" ]
            },
            {
               "long_name" : "173-0003",
               "short_name" : "173-0003",
               "types" : [ "postal_code" ]
            }
         ],
         "formatted_address" : "2 Chome Kaga, Itabashi, Tokyo 173-0003, Japan",
         "geometry" : {
            "bounds" : {
               "northeast" : {
                  "lat" : 35.7614916,
                  "lng" : 139.7178016
               },
               "southwest" : {
                  "lat" : 35.7537331,
                  "lng" : 139.7118221
               }
            },
            "location" : {
               "lat" : 35.7564838,
               "lng" : 139.7133626
            },
            "location_type" : "APPROXIMATE",
            "viewport" : {
               "northeast" : {
                  "lat" : 35.7614916,
                  "lng" : 139.7178016
               },
               "southwest" : {
                  "lat" : 35.7537331,
                  "lng" : 139.7118221
               }
            }
         },
         "place_id" : "ChIJ6RAzMOuSGGARG5uI99NkKJU",
         "types" : [ "political", "sublocality", "sublocality_level_3" ]
      },
      {
         "address_components" : [
            {
               "long_name" : "173-0003",
               "short_name" : "173-0003",
               "types" : [ "postal_code" ]
            },
            {
               "long_name" : "Kaga",
               "short_name" : "Kaga",
               "types" : [ "political", "sublocality", "sublocality_level_2" ]
            },
            {
               "long_name" : "Itabashi",
               "short_name" : "Itabashi",
               "types" : [ "locality", "political" ]
            },
            {
               "long_name" : "Tokyo",
               "short_name" : "Tokyo",
               "types" : [ "administrative_area_level_1", "political" ]
            },
            {
               "long_name" : "Japan",
               "short_name" : "JP",
               "types" : [ "country", "political" ]
            }
         ],
         "formatted_address" : "173-0003, Japan",
         "geometry" : {
            "bounds" : {
               "northeast" : {
                  "lat" : 35.761496,
                  "lng" : 139.7226082
               },
               "southwest" : {
                  "lat" : 35.7519975,
                  "lng" : 139.7118221
               }
            },
            "location" : {
               "lat" : 35.75625290000001,
               "lng" : 139.7153917
            },
            "location_type" : "APPROXIMATE",
            "viewport" : {
               "northeast" : {
                  "lat" : 35.761496,
                  "lng" : 139.7226082
               },
               "southwest" : {
                  "lat" : 35.7519975,
                  "lng" : 139.7118221
               }
            }
         },
         "place_id" : "ChIJbfhmAZSSGGARsp7ERM8NR88",
         "types" : [ "postal_code" ]
      },
      {
         "address_components" : [
            {
               "long_name" : "Itabashi",
               "short_name" : "Itabashi",
               "types" : [ "locality", "political" ]
            },
            {
               "long_name" : "Tokyo",
               "short_name" : "Tokyo",
               "types" : [ "administrative_area_level_1", "political" ]
            },
            {
               "long_name" : "Japan",
               "short_name" : "JP",
               "types" : [ "country", "political" ]
            }
         ],
         "formatted_address" : "Itabashi, Tokyo, Japan",
         "geometry" : {
            "bounds" : {
               "northeast" : {
                  "lat" : 35.8010273,
                  "lng" : 139.7227577
               },
               "southwest" : {
                  "lat" : 35.7357764,
                  "lng" : 139.6244451
               }
            },
            "location" : {
               "lat" : 35.75116480000001,
               "lng" : 139.7092437
            },
            "location_type" : "APPROXIMATE",
            "viewport" : {
               "northeast" : {
                  "lat" : 35.8010273,
                  "lng" : 139.7227577
               },
               "southwest" : {
                  "lat" : 35.7357764,
                  "lng" : 139.6244451
               }
            }
         },
         "place_id" : "ChIJ446sLsPsGGAR6G_1nVc7UAo",
         "types" : [ "locality", "political" ]
      },
      {
         "address_components" : [
            {
               "long_name" : "Tokyo",
               "short_name" : "Tokyo",
               "types" : [ "colloquial_area", "locality", "political" ]
            },
            {
               "long_name" : "Tokyo",
               "short_name" : "Tokyo",
               "types" : [ "administrative_area_level_1", "political" ]
            },
            {
               "long_name" : "Japan",
               "short_name" : "JP",
               "types" : [ "country", "political" ]
            }
         ],
         "formatted_address" : "Tokyo, Japan",
         "geometry" : {
            "bounds" : {
               "northeast" : {
                  "lat" : 35.8175167,
                  "lng" : 139.9198565
               },
               "southwest" : {
                  "lat" : 35.5208603,
                  "lng" : 139.5629048
               }
            },
            "location" : {
               "lat" : 35.7090259,
               "lng" : 139.7319925
            },
            "location_type" : "APPROXIMATE",
            "viewport" : {
               "northeast" : {
                  "lat" : 35.8175167,
                  "lng" : 139.9198565
               },
               "southwest" : {
                  "lat" : 35.5208603,
                  "lng" : 139.5629048
               }
            }
         },
         "place_id" : "ChIJXSModoWLGGARILWiCfeu2M0",
         "types" : [ "colloquial_area", "locality", "political" ]
      },
      {
         "address_components" : [
            {
               "long_name" : "Tokyo",
               "short_name" : "Tokyo",
               "types" : [ "administrative_area_level_1", "locality", "political" ]
            },
            {
               "long_name" : "Japan",
               "short_name" : "JP",
               "types" : [ "country", "political" ]
            }
         ],
         "formatted_address" : "Tokyo, Japan",
         "geometry" : {
            "bounds" : {
               "northeast" : {
                  "lat" : 35.8986468,
                  "lng" : 153.9876115
               },
               "southwest" : {
                  "lat" : 24.2242626,
                  "lng" : 138.942758
               }
            },
            "location" : {
               "lat" : 35.6894875,
               "lng" : 139.6917064
            },
            "location_type" : "APPROXIMATE",
            "viewport" : {
               "northeast" : {
                  "lat" : 35.8986468,
                  "lng" : 153.9876115
               },
               "southwest" : {
                  "lat" : 24.2242626,
                  "lng" : 138.942758
               }
            }
         },
         "place_id" : "ChIJ51cu8IcbXWARiRtXIothAS4",
         "types" : [ "administrative_area_level_1", "locality", "political" ]
      },
      {
         "address_components" : [
            {
               "long_name" : "Japan",
               "short_name" : "JP",
               "types" : [ "country", "political" ]
            }
         ],
         "formatted_address" : "Japan",
         "geometry" : {
            "bounds" : {
               "northeast" : {
                  "lat" : 45.6412626,
                  "lng" : 154.0031455
               },
               "southwest" : {
                  "lat" : 20.3585295,
                  "lng" : 122.8554688
               }
            },
            "location" : {
               "lat" : 36.204824,
               "lng" : 138.252924
            },
            "location_type" : "APPROXIMATE",
            "viewport" : {
               "northeast" : {
                  "lat" : 45.6412626,
                  "lng" : 154.0031455
               },
               "southwest" : {
                  "lat" : 20.3585295,
                  "lng" : 122.8554688
               }
            }
         },
         "place_id" : "ChIJLxl_1w9OZzQRRFJmfNR1QvU",
         "types" : [ "country", "political" ]
      }
   ],
   "status" : "OK"
}
