{
   "plus_code" : {
      "compound_code" : "9CHQ+PC Coventry, UK",
      "global_code" : "9C4W9CHQ+PC"
   },
   "results" : [
      {
         "address_components" : [
            {
               "long_name" : "University Road",
               "short_name" : "University Rd",
               "types" : [ "route" ]
            },
            {
               "long_name" : "Coventry",
               "short_name" : "Coventry",
               "types" : [ "postal_town" ]
            },
            {
               "long_name" : "West Midlands",
               "short_name" : "West Midlands",
               "types" : [ "administrative_area_level_2", "political" ]
            },
            {
               "long_name" : "England",
               "short_name" : "England",
               "types" : [ "administrative_area_level_1", "political" ]
            },
            {
               "long_name" : "United Kingdom",
               "short_name" : "GB",
               "types" : [ "country", "political" ]
            },
            {
               "long_name" : "CV4 7AL",
               "short_name" : "CV4 7AL",
               "types" : [ "postal_code" ]
            }
         ],
         "formatted_address" : "University Rd, Coventry CV4 7AL, UK",
         "geometry" : {
            "bounds" : {
               "northeast" : {
                  "lat" : 52.3791885,
                  "lng" : -1.5614655
               },
               "southwest" : {
                  "lat" : 52.3791801,
                  "lng" : -1.5616965
               }
            },
            "location" : {
               "lat" : 52.3791843,
               "lng" : -1.561581
            },
            "location_type" : "GEOMETRIC_CENTER",
            "viewport" : {
               "northeast" : {
                  "lat" : 52.38053328029149,
                  "lng" : -1.560232019708498
               },
               "southwest" : {
                  "lat" : 52.3778353197085,
                  "lng" : -1.562929980291502
               }
            }
         },
         "place_id" : "ChIJfVNlaM9Kd0gRlqggyWHGK_0",
         "types" : [ "route" ]
      },
      {
         "address_components" : [
            {
               "long_name" : "CV4 7EQ",
               "short_name" : "CV4 7EQ",
               "types" : [ "postal_code" ]
            },
            {
               "long_name" : "Coventry",
               "short_name" : "Coventry",
               "types" : [ "postal_town" ]
            },
            {
               "long_name" : "England",
               "short_name" : "England",
               "types" : [ "administrative_area_level_1", "political" ]
            },
            {
               "long_name" : "United Kingdom",
               "short_name" : "GB",
               "types" : [ "country", "political" ]
            }
         ],
         "formatted_address" : "Coventry CV4 7EQ, UK",
         "geometry" : {
            "bounds" : {
               "northeast" : {
                  "lat" : 52.38213229999999,
                  "lng" : -1.5545885
               },
               "southwest" : {
                  "lat" : 52.3737383,
                  "lng" : -1.5663469
               }
            },
            "location" : {
               "lat" : 52.3793648,
               "lng" : -1.5602208
            },
            "location_type" : "APPROXIMATE",
            "viewport" : {
               "northeast" : {
                  "lat" : 52.38213229999999,
                  "lng" : -1.5545885
               },
               "southwest" : {
                  "lat" : 52.3737383,
                  "lng" : -1.5663469
               }
            }
         },
         "place_id" : "ChIJ3ZsojMVKd0gRbg919WIMwo4",
         "types" : [ "postal_code" ]
      },
      {
         "address_components" : [
            {
               "long_name" : "CV4",
               "short_name" : "CV4",
               "types" : [ "postal_code", "postal_code_prefix" ]
            },
            {
               "long_name" : "Coventry",
               "short_name" : "Coventry",
               "types" : [ "postal_town" ]
            },
            {
               "long_name" : "England",
               "short_name" : "England",
               "types" : [ "administrative_area_level_1", "political" ]
            },
            {
               "long_name" : "United Kingdom",
               "short_name" : "GB",
               "types" : [ "country", "political" ]
            }
         ],
         "formatted_address" : "Coventry CV4, UK",
         "geometry" : {
            "bounds" : {
               "northeast" : {
                  "lat" : 52.413373,
                  "lng" : -1.509918
               },
               "southwest" : {
                  "lat" : 52.3637355,
                  "lng" : -1.6129329
               }
            },
            "location" : {
               "lat" : 52.3988812,
               "lng" : -1.5681095
            },
            "location_type" : "APPROXIMATE",
            "viewport" : {
               "northeast" : {
                  "lat" : 52.413373,
                  "lng" : -1.509918
               },
               "southwest" : {
                  "lat" : 52.3637355,
                  "lng" : -1.6129329
               }
            }
         },
         "place_id" : "ChIJFTAwf8K0cEgROxLQTR4Oi0M",
         "types" : [ "postal_code", "postal_code_prefix" ]
      },
      {
         "address_components" : [
            {
               "long_name" : "Coventry",
               "short_name" : "Coventry",
               "types" : [ "locality", "political" ]
            },
            {
               "long_name" : "Coventry",
               "short_name" : "Coventry",
               "types" : [ "postal_town" ]
            },
            {
               "long_name" : "West Midlands",
               "short_name" : "West Midlands",
               "types" : [ "administrative_area_level_2", "political" ]
            },
            {
               "long_name" : "England",
               "short_name" : "England",
               "types" : [ "administrative_area_level_1", "political" ]
            },
            {
               "long_name" : "United Kingdom",
               "short_name" : "GB",
               "types" : [ "country", "political" ]
            }
         ],
         "formatted_address" : "Coventry, UK",
         "geometry" : {
            "bounds" : {
               "northeast" : {
                  "lat" : 52.4634723,
                  "lng" : -1.4239508
               },
               "southwest" : {
                  "lat" : 52.3639108,
                  "lng" : -1.6058853
               }
            },
            "location" : {
               "lat" : 52.406822,
               "lng" : -1.519693
            },
            "location_type" : "APPROXIMATE",
            "viewport" : {
               "northeast" : {
                  "lat" : 52.4634723,
                  "lng" : -1.4239508
               },
               "southwest" : {
                  "lat" : 52.3639108,
                  "lng" : -1.6058853
               }
            }
         },
         "place_id" : "ChIJtyJuZVGxcEgRiQZPVvVg9gQ",
         "types" : [ "locality", "political" ]
      },
      {
         "address_components" : [
            {
               "long_name" : "Coventry",
               "short_name" : "Coventry",
               "types" : [ "administrative_area_level_3", "political" ]
            },
            {
               "long_name" : "Coventry",
               "short_name" : "Coventry",
               "types" : [ "postal_town" ]
            },
            {
               "long_name" : "West Midlands",
               "short_name" : "West Midlands",
               "types" : [ "administrative_area_level_2", "political" ]
            },
            {
               "long_name" : "England",
               "short_name" : "England",
               "types" : [ "administrative_area_level_1", "political" ]
            },
            {
               "long_name" : "United Kingdom",
               "short_name" : "GB",
               "types" : [ "country", "political" ]
            }
         ],
         "formatted_address" : "Coventry, UK",
         "geometry" : {
            "bounds" : {
               "northeast" : {
                  "lat" : 52.4647821,
                  "lng" : -1.4239381
               },
               "southwest" : {
                  "lat" : 52.3638759,
                  "lng" : -1.6144588
               }
            },
            "location" : {
               "lat" : 52.4157395,
               "lng" : -1.5003707
            },
            "location_type" : "APPROXIMATE",
            "viewport" : {
               "northeast" : {
                  "lat" : 52.4647821,
                  "lng" : -1.4239381
               },
               "southwest" : {
                  "lat" : 52.3638759,
                  "lng" : -1.6144588
               }
            }
         },
         "place_id" : "ChIJc1uq9aFLd0gRIImX1COLDQQ",
         "types" : [ "administrative_area_level_3", "political" ]
      },
      {
         "address_components" : [
            {
               "long_name" : "Coventry",
               "short_name" : "Coventry",
               "types" : [ "postal_town" ]
            },
            {
               "long_name" : "England",
               "short_name" : "England",
               "types" : [ "administrative_area_level_1", "political" ]
            },
            {
               "long_name" : "United Kingdom",
               "short_name" : "GB",
               "types" : [ "country", "political" ]
            }
         ],
         "formatted_address" : "Coventry, UK",
         "geometry" : {
            "bounds" : {
               "northeast" : {
                  "lat" : 52.52869339999999,
                  "lng" : -1.3294113
               },
               "southwest" : {
                  "lat" : 52.333032,
                  "lng" : -1.7036163
               }
            },
            "location" : {
               "lat" : 52.4157395,
               "lng" : -1.5003707
            },
            "location_type" : "APPROXIMATE",
            "viewport" : {
               "northeast" : {
                  "lat" : 52.52869339999999,
                  "lng" : -1.3294113
               },
               "southwest" : {
                  "lat" : 52.333032,
                  "lng" : -1.7036163
               }
            }
         },
         "place_id" : "ChIJzyd10oVLd0gR7LyimJZGazw",
         "types" : [ "postal_town" ]
      },
      {
         "address_components" : [
            {
               "long_name" : "West Midlands",
               "short_name" : "West Midlands",
               "types" : [ "administrative_area_level_2", "political" ]
            },
            {
               "long_name" : "England",
               "short_name" : "England",
               "types" : [ "administrative_area_level_1", "political" ]
            },
            {
               "long_name" : "United Kingdom",
               "short_name" : "GB",
               "types" : [ "country", "political" ]
            }
         ],
         "formatted_address" : "West Midlands, UK",
         "geometry" : {
            "bounds" : {
               "northeast" : {
                  "lat" : 52.6627172,
                  "lng" : -1.4239381
               },
               "southwest" : {
                  "lat" : 52.3477246,
                  "lng" : -2.2068816
               }
            },
            "location" : {
               "lat" : 52.4750743,
               "lng" : -1.829833
            },
            "location_type" : "APPROXIMATE",
            "viewport" : {
               "northeast" : {
                  "lat" : 52.6627172,
                  "lng" : -1.4239381
               },
               "southwest" : {
                  "lat" : 52.3477246,
                  "lng" : -2.2068816
               }
            }
         },
         "place_id" : "ChIJ_dclMtSAcEgR5_O7OttvyI0",
         "types" : [ "administrative_area_level_2", "political" ]
      },
      {
         "address_components" : [
            {
               "long_name" : "England",
               "short_name" : "England",
               "types" : [ "administrative_area_level_1", "political" ]
            },
            {
               "long_name" : "United Kingdom",
               "short_name" : "GB",
               "types" : [ "country", "political" ]
            }
         ],
         "formatted_address" : "England, UK",
         "geometry" : {
            "bounds" : {
               "northeast" : {
                  "lat" : 55.81165979999999,
                  "lng" : 1.7629159
               },
               "southwest" : {
                  "lat" : 49.8647411,
                  "lng" : -6.4185458
               }
            },
            "location" : {
               "lat" : 52.3555177,
               "lng" : -1.1743197
            },
            "location_type" : "APPROXIMATE",
            "viewport" : {
               "northeast" : {
                  "lat" : 55.81165979999999,
                  "lng" : 1.7629159
               },
               "southwest" : {
                  "lat" : 49.8647411,
                  "lng" : -6.4185458
               }
            }
         },
         "place_id" : "ChIJ39UebIqp0EcRqI4tMyWV4fQ",
         "types" : [ "administrative_area_level_1", "political" ]
      },
      {
         "address_components" : [
            {
               "long_name" : "United Kingdom",
               "short_name" : "GB",
               "types" : [ "country", "political" ]
            }
         ],
         "formatted_address" : "United Kingdom",
         "geometry" : {
            "bounds" : {
               "northeast" : {
                  "lat" : 60.91569999999999,
                  "lng" : 33.9165549
               },
               "southwest" : {
                  "lat" : 34.5614,
                  "lng" : -8.8988999
               }
            },
            "location" : {
               "lat" : 55.378051,
               "lng" : -3.435973
            },
            "location_type" : "APPROXIMATE",
            "viewport" : {
               "northeast" : {
                  "lat" : 60.91569999999999,
                  "lng" : 33.9165549
               },
               "southwest" : {
                  "lat" : 34.5614,
                  "lng" : -8.8988999
               }
            }
         },
         "place_id" : "ChIJqZHHQhE7WgIReiWIMkOg-MQ",
         "types" : [ "country", "political" ]
      }
   ],
   "status" : "OK"
}
