{
   "results" : [
      {
         "address_components" : [
            {
               "long_name" : "326",
               "short_name" : "326",
               "types" : [ "street_number" ]
            },
            {
               "long_name" : "Southeast 17th Avenue",
               "short_name" : "SE 17th Ave",
               "types" : [ "route" ]
            },
            {
               "long_name" : "University of Minnesota - Twin Cities",
               "short_name" : "University of Minnesota - Twin Cities",
               "types" : [ "neighborhood", "political" ]
            },
            {
               "long_name" : "Minneapolis",
               "short_name" : "Minneapolis",
               "types" : [ "locality", "political" ]
            },
            {
               "long_name" : "Hennepin County",
               "short_name" : "Hennepin County",
               "types" : [ "administrative_area_level_2", "political" ]
            },
            {
               "long_name" : "Minnesota",
               "short_name" : "MN",
               "types" : [ "administrative_area_level_1", "political" ]
            },
            {
               "long_name" : "United States",
               "short_name" : "US",
               "types" : [ "country", "political" ]
            },
            {
               "long_name" : "55414",
               "short_name" : "55414",
               "types" : [ "postal_code" ]
            },
            {
               "long_name" : "2012",
               "short_name" : "2012",
               "types" : [ "postal_code_suffix" ]
            }
         ],
         "formatted_address" : "326 SE 17th Ave, Minneapolis, MN 55414, USA",
         "geometry" : {
            "bounds" : {
               "northeast" : {
                  "lat" : 44.978624,
                  "lng" : -93.2305707
               },
               "southwest" : {
                  "lat" : 44.9778517,
                  "lng" : -93.2320888
               }
            },
            "location" : {
               "lat" : 44.9784261,
               "lng" : -93.23141040000002
            },
            "location_type" : "ROOFTOP",
            "viewport" : {
               "northeast" : {
                  "lat" : 44.9795868302915,
                  "lng" : -93.22998076970849
               },
               "southwest" : {
                  "lat" : 44.9768888697085,
                  "lng" : -93.23267873029151
               }
            }
         },
         "place_id" : "ChIJVWaUrxAts1IRFF4Z5bQQHBc",
         "types" : [ "premise" ]
      },
      {
         "address_components" : [
            {
               "long_name" : "University Suites",
               "short_name" : "University Suites",
               "types" : [ "establishment", "point_of_interest", "premise" ]
            },
            {
               "long_name" : "University Avenue Southeast",
               "short_name" : "University Ave SE",
               "types" : [ "route" ]
            },
            {
               "long_name" : "University of Minnesota - Twin Cities",
               "short_name" : "University of Minnesota - Twin Cities",
               "types" : [ "neighborhood", "political" ]
            },
            {
               "long_name" : "Minneapolis",
               "short_name" : "Minneapolis",
               "types" : [ "locality", "political" ]
            },
            {
               "long_name" : "Hennepin County",
               "short_name" : "Hennepin County",
               "types" : [ "administrative_area_level_2", "political" ]
            },
            {
               "long_name" : "Minnesota",
               "short_name" : "MN",
               "types" : [ "administrative_area_level_1", "political" ]
            },
            {
               "long_name" : "United States",
               "short_name" : "US",
               "types" : [ "country", "political" ]
            },
            {
               "long_name" : "55414",
               "short_name" : "55414",
               "types" : [ "postal_code" ]
            }
         ],
         "formatted_address" : "University Suites, University Ave SE, Minneapolis, MN 55414, USA",
         "geometry" : {
            "location" : {
               "lat" : 44.9777886,
               "lng" : -93.23204579999999
            },
            "location_type" : "ROOFTOP",
            "viewport" : {
               "northeast" : {
                  "lat" : 44.97913758029149,
                  "lng" : -93.23069681970848
               },
               "southwest" : {
                  "lat" : 44.97643961970849,
                  "lng" : -93.2333947802915
               }
            }
         },
         "place_id" : "ChIJoQJotRAts1IRCcUbVi57MSY",
         "types" : [ "establishment", "point_of_interest", "premise" ]
      },
      {
         "address_components" : [
            {
               "long_name" : "1701",
               "short_name" : "1701",
               "types" : [ "street_number" ]
            },
            {
               "long_name" : "University Avenue Southeast",
               "short_name" : "University Ave SE",
               "types" : [ "route" ]
            },
            {
               "long_name" : "University of Minnesota - Twin Cities",
               "short_name" : "University of Minnesota - Twin Cities",
               "types" : [ "neighborhood", "political" ]
            },
            {
               "long_name" : "Minneapolis",
               "short_name" : "Minneapolis",
               "types" : [ "locality", "political" ]
            },
            {
               "long_name" : "Hennepin County",
               "short_name" : "Hennepin County",
               "types" : [ "administrative_area_level_2", "political" ]
            },
            {
               "long_name" : "Minnesota",
               "short_name" : "MN",
               "types" : [ "administrative_area_level_1", "political" ]
            },
            {
               "long_name" : "United States",
               "short_name" : "US",
               "types" : [ "country", "political" ]
            },
            {
               "long_name" : "55414",
               "short_name" : "55414",
               "types" : [ "postal_code" ]
            },
            {
               "long_name" : "2023",
               "short_name" : "2023",
               "types" : [ "postal_code_suffix" ]
            }
         ],
         "formatted_address" : "1701 University Ave SE, Minneapolis, MN 55414, USA",
         "geometry" : {
            "location" : {
               "lat" : 44.9779736,
               "lng" : -93.23203599999999
            },
            "location_type" : "ROOFTOP",
            "viewport" : {
               "northeast" : {
                  "lat" : 44.9793225802915,
                  "lng" : -93.2306870197085
               },
               "southwest" : {
                  "lat" : 44.9766246197085,
                  "lng" : -93.2333849802915
               }
            }
         },
         "place_id" : "ChIJWYFWsRAts1IR32Mnd3ZvE-g",
         "types" : [ "street_address" ]
      },
      {
         "address_components" : [
            {
               "long_name" : "Students' Cooperative",
               "short_name" : "Students' Cooperative",
               "types" : [ "establishment", "point_of_interest" ]
            },
            {
               "long_name" : "1721",
               "short_name" : "1721",
               "types" : [ "street_number" ]
            },
            {
               "long_name" : "University Avenue Southeast",
               "short_name" : "University Ave SE",
               "types" : [ "route" ]
            },
            {
               "long_name" : "University of Minnesota - Twin Cities",
               "short_name" : "University of Minnesota - Twin Cities",
               "types" : [ "neighborhood", "political" ]
            },
            {
               "long_name" : "Minneapolis",
               "short_name" : "Minneapolis",
               "types" : [ "locality", "political" ]
            },
            {
               "long_name" : "Hennepin County",
               "short_name" : "Hennepin County",
               "types" : [ "administrative_area_level_2", "political" ]
            },
            {
               "long_name" : "Minnesota",
               "short_name" : "MN",
               "types" : [ "administrative_area_level_1", "political" ]
            },
            {
               "long_name" : "United States",
               "short_name" : "US",
               "types" : [ "country", "political" ]
            },
            {
               "long_name" : "55414",
               "short_name" : "55414",
               "types" : [ "postal_code" ]
            }
         ],
         "formatted_address" : "Students' Cooperative, 1721 University Ave SE, Minneapolis, MN 55414, USA",
         "geometry" : {
            "location" : {
               "lat" : 44.9777481,
               "lng" : -93.2313417
            },
            "location_type" : "ROOFTOP",
            "viewport" : {
               "northeast" : {
                  "lat" : 44.9790970802915,
                  "lng" : -93.22999271970849
               },
               "southwest" : {
                  "lat" : 44.9763991197085,
                  "lng" : -93.2326906802915
               }
            }
         },
         "place_id" : "ChIJNcnXUhcts1IR8MaMRQ_3sLw",
         "types" : [ "establishment", "point_of_interest" ]
      },
      {
         "address_components" : [
            {
               "long_name" : "University of Minnesota - Twin Cities",
               "short_name" : "University of Minnesota - Twin Cities",
               "types" : [ "neighborhood", "political" ]
            },
            {
               "long_name" : "Union Park",
               "short_name" : "Union Park",
               "types" : [ "political", "sublocality", "sublocality_level_1" ]
            },
            {
               "long_name" : "Minneapolis",
               "short_name" : "Minneapolis",
               "types" : [ "locality", "political" ]
            },
            {
               "long_name" : "Hennepin County",
               "short_name" : "Hennepin County",
               "types" : [ "administrative_area_level_2", "political" ]
            },
            {
               "long_name" : "Minnesota",
               "short_name" : "MN",
               "types" : [ "administrative_area_level_1", "political" ]
            },
            {
               "long_name" : "United States",
               "short_name" : "US",
               "types" : [ "country", "political" ]
            }
         ],
         "formatted_address" : "University of Minnesota - Twin Cities, Minneapolis, MN, USA",
         "geometry" : {
            "bounds" : {
               "northeast" : {
                  "lat" : 44.984465,
                  "lng" : -93.22053919999999
               },
               "southwest" : {
                  "lat" : 44.96780390000001,
                  "lng" : -93.24572409999999
               }
            },
            "location" : {
               "lat" : 44.9753541,
               "lng" : -93.23307389999999
            },
            "location_type" : "APPROXIMATE",
            "viewport" : {
               "northeast" : {
                  "lat" : 44.984465,
                  "lng" : -93.22053919999999
               },
               "southwest" : {
                  "lat" : 44.96780390000001,
                  "lng" : -93.24572409999999
               }
            }
         },
         "place_id" : "ChIJ9RzqMhQts1IRxoP6F31_DO0",
         "types" : [ "neighborhood", "political" ]
      },
      {
         "address_components" : [
            {
               "long_name" : "Minneapolis",
               "short_name" : "Minneapolis",
               "types" : [ "locality", "political" ]
            },
            {
               "long_name" : "Hennepin County",
               "short_name" : "Hennepin County",
               "types" : [ "administrative_area_level_2", "political" ]
            },
            {
               "long_name" : "Minnesota",
               "short_name" : "MN",
               "types" : [ "administrative_area_level_1", "political" ]
            },
            {
               "long_name" : "United States",
               "short_name" : "US",
               "types" : [ "country", "political" ]
            }
         ],
         "formatted_address" : "Minneapolis, MN, USA",
         "geometry" : {
            "bounds" : {
               "northeast" : {
                  "lat" : 45.05125,
                  "lng" : -93.193794
               },
               "southwest" : {
                  "lat" : 44.890144,
                  "lng" : -93.32916299999999
               }
            },
            "location" : {
               "lat" : 44.977753,
               "lng" : -93.2650108
            },
            "location_type" : "APPROXIMATE",
            "viewport" : {
               "northeast" : {
                  "lat" : 45.05125,
                  "lng" : -93.193794
               },
               "southwest" : {
                  "lat" : 44.890144,
                  "lng" : -93.32916299999999
               }
            }
         },
         "place_id" : "ChIJvbt3k5Azs1IRB-56L4TJn5M",
         "types" : [ "locality", "political" ]
      },
      {
         "address_components" : [
            {
               "long_name" : "55414",
               "short_name" : "55414",
               "types" : [ "postal_code" ]
            },
            {
               "long_name" : "Minneapolis",
               "short_name" : "Minneapolis",
               "types" : [ "locality", "political" ]
            },
            {
               "long_name" : "Hennepin County",
               "short_name" : "Hennepin County",
               "types" : [ "administrative_area_level_2", "political" ]
            },
            {
               "long_name" : "Minnesota",
               "short_name" : "MN",
               "types" : [ "administrative_area_level_1", "political" ]
            },
            {
               "long_name" : "United States",
               "short_name" : "US",
               "types" : [ "country", "political" ]
            }
         ],
         "formatted_address" : "Minneapolis, MN 55414, USA",
         "geometry" : {
            "bounds" : {
               "northeast" : {
                  "lat" : 44.9980959,
                  "lng" : -93.2075579
               },
               "southwest" : {
                  "lat" : 44.9532089,
                  "lng" : -93.259985
               }
            },
            "location" : {
               "lat" : 44.978175,
               "lng" : -93.2157342
            },
            "location_type" : "APPROXIMATE",
            "viewport" : {
               "northeast" : {
                  "lat" : 44.9980959,
                  "lng" : -93.2075579
               },
               "southwest" : {
                  "lat" : 44.9532089,
                  "lng" : -93.259985
               }
            }
         },
         "place_id" : "ChIJqWudcxYts1IRsB2LEo19zKM",
         "types" : [ "postal_code" ]
      },
      {
         "address_components" : [
            {
               "long_name" : "Hennepin County",
               "short_name" : "Hennepin County",
               "types" : [ "administrative_area_level_2", "political" ]
            },
            {
               "long_name" : "Minnesota",
               "short_name" : "MN",
               "types" : [ "administrative_area_level_1", "political" ]
            },
            {
               "long_name" : "United States",
               "short_name" : "US",
               "types" : [ "country", "political" ]
            }
         ],
         "formatted_address" : "Hennepin County, MN, USA",
         "geometry" : {
            "bounds" : {
               "northeast" : {
                  "lat" : 45.2466179,
                  "lng" : -93.177201
               },
               "southwest" : {
                  "lat" : 44.785263,
                  "lng" : -93.767799
               }
            },
            "location" : {
               "lat" : 45.0208911,
               "lng" : -93.5094574
            },
            "location_type" : "APPROXIMATE",
            "viewport" : {
               "northeast" : {
                  "lat" : 45.2466179,
                  "lng" : -93.177201
               },
               "southwest" : {
                  "lat" : 44.785263,
                  "lng" : -93.767799
               }
            }
         },
         "place_id" : "ChIJpe7ZFZId9ocRnkR32F9xAcw",
         "types" : [ "administrative_area_level_2", "political" ]
      },
      {
         "address_components" : [
            {
               "long_name" : "Minneapolis-St. Paul Metropolitan Area",
               "short_name" : "Minneapolis-St. Paul Metropolitan Area",
               "types" : [ "political" ]
            },
            {
               "long_name" : "United States",
               "short_name" : "US",
               "types" : [ "country", "political" ]
            }
         ],
         "formatted_address" : "Minneapolis-St. Paul Metropolitan Area, USA",
         "geometry" : {
            "bounds" : {
               "northeast" : {
                  "lat" : 46.24715,
                  "lng" : -92.1347849
               },
               "southwest" : {
                  "lat" : 44.195836,
                  "lng" : -94.6297659
               }
            },
            "location" : {
               "lat" : 45.2472601,
               "lng" : -93.4553904
            },
            "location_type" : "APPROXIMATE",
            "viewport" : {
               "northeast" : {
                  "lat" : 46.24715,
                  "lng" : -92.1347849
               },
               "southwest" : {
                  "lat" : 44.195836,
                  "lng" : -94.6297659
               }
            }
         },
         "place_id" : "ChIJe2CbQtgus1IRiMzoh65FSak",
         "types" : [ "political" ]
      },
      {
         "address_components" : [
            {
               "long_name" : "Minnesota",
               "short_name" : "MN",
               "types" : [ "administrative_area_level_1", "political" ]
            },
            {
               "long_name" : "United States",
               "short_name" : "US",
               "types" : [ "country", "political" ]
            }
         ],
         "formatted_address" : "Minnesota, USA",
         "geometry" : {
            "bounds" : {
               "northeast" : {
                  "lat" : 49.384358,
                  "lng" : -89.48338509999999
               },
               "southwest" : {
                  "lat" : 43.499361,
                  "lng" : -97.2391959
               }
            },
            "location" : {
               "lat" : 46.729553,
               "lng" : -94.6858998
            },
            "location_type" : "APPROXIMATE",
            "viewport" : {
               "northeast" : {
                  "lat" : 49.384358,
                  "lng" : -89.48338509999999
               },
               "southwest" : {
                  "lat" : 43.499361,
                  "lng" : -97.2391959
               }
            }
         },
         "place_id" : "ChIJmwt4YJpbWE0RD6L-EJvJogI",
         "types" : [ "administrative_area_level_1", "political" ]
      },
      {
         "address_components" : [
            {
               "long_name" : "United States",
               "short_name" : "US",
               "types" : [ "country", "political" ]
            }
         ],
         "formatted_address" : "United States",
         "geometry" : {
            "bounds" : {
               "northeast" : {
                  "lat" : 71.5388001,
                  "lng" : -66.885417
               },
               "southwest" : {
                  "lat" : 18.7763,
                  "lng" : 170.5957
               }
            },
            "location" : {
               "lat" : 37.09024,
               "lng" : -95.712891
            },
            "location_type" : "APPROXIMATE",
            "viewport" : {
               "northeast" : {
                  "lat" : 49.38,
                  "lng" : -66.94
               },
               "southwest" : {
                  "lat" : 25.82,
                  "lng" : -124.39
               }
            }
         },
         "place_id" : "ChIJCzYy5IS16lQRQrfeQ5K5Oxw",
         "types" : [ "country", "political" ]
      }
   ],
   "status" : "OK"
}
