{
   "plus_code" : {
      "compound_code" : "JGG2+4W Berlin, Germany",
      "global_code" : "9F4MJGG2+4W"
   },
   "results" : [
      {
         "address_components" : [
            {
               "long_name" : "10",
               "short_name" : "10",
               "types" : [ "street_number" ]
            },
            {
               "long_name" : "Robert-Rössle-Straße",
               "short_name" : "Robert-Rössle-Straße",
               "types" : [ "route" ]
            },
            {
               "long_name" : "Bezirk Pankow",
               "short_name" : "Bezirk Pankow",
               "types" : [ "political", "sublocality", "sublocality_level_1" ]
            },
            {
               "long_name" : "Berlin",
               "short_name" : "Berlin",
               "types" : [ "locality", "political" ]
            },
            {
               "long_name" : "Berlin",
               "short_name" : "Berlin",
               "types" : [ "administrative_area_level_1", "political" ]
            },
            {
               "long_name" : "Germany",
               "short_name" : "DE",
               "types" : [ "country", "political" ]
            },
            {
               "long_name" : "13125",
               "short_name" : "13125",
               "types" : [ "postal_code" ]
            }
         ],
         "formatted_address" : "Robert-Rössle-Straße 10, 13125 Berlin, Germany",
         "geometry" : {
            "location" : {
               "lat" : 52.6252989,
               "lng" : 13.5022803
            },
            "location_type" : "ROOFTOP",
            "viewport" : {
               "northeast" : {
                  "lat" : 52.62664788029149,
                  "lng" : 13.5036292802915
               },
               "southwest" : {
                  "lat" : 52.6239499197085,
                  "lng" : 13.5009313197085
               }
            }
         },
         "place_id" : "ChIJvaZ69s6yqUcRlsP_aGKUl_g",
         "plus_code" : {
            "compound_code" : "JGG2+4W Berlin, Germany",
            "global_code" : "9F4MJGG2+4W"
         },
         "types" : [ "establishment", "point_of_interest" ]
      },
      {
         "address_components" : [
            {
               "long_name" : "Unnamed Road",
               "short_name" : "Unnamed Road",
               "types" : [ "route" ]
            },
            {
               "long_name" : "Bezirk Pankow",
               "short_name" : "Bezirk Pankow",
               "types" : [ "political", "sublocality", "sublocality_level_1" ]
            },
            {
               "long_name" : "Berlin",
               "short_name" : "Berlin",
               "types" : [ "locality", "political" ]
            },
            {
               "long_name" : "Berlin",
               "short_name" : "Berlin",
               "types" : [ "administrative_area_level_1", "political" ]
            },
            {
               "long_name" : "Germany",
               "short_name" : "DE",
               "types" : [ "country", "political" ]
            },
            {
               "long_name" : "13125",
               "short_name" : "13125",
               "types" : [ "postal_code" ]
            }
         ],
         "formatted_address" : "Unnamed Road, 13125 Berlin, Germany",
         "geometry" : {
            "bounds" : {
               "northeast" : {
                  "lat" : 52.6255078,
                  "lng" : 13.5025359
               },
               "southwest" : {
                  "lat" : 52.6248916,
                  "lng" : 13.5018427
               }
            },
            "location" : {
               "lat" : 52.6251997,
               "lng" : 13.5021893
            },
            "location_type" : "GEOMETRIC_CENTER",
            "viewport" : {
               "northeast" : {
                  "lat" : 52.6265486802915,
                  "lng" : 13.5035382802915
               },
               "southwest" : {
                  "lat" : 52.6238507197085,
                  "lng" : 13.5008403197085
               }
            }
         },
         "place_id" : "ChIJLadpb86yqUcRZkfkpDQSics",
         "types" : [ "route" ]
      },
      {
         "address_components" : [
            {
               "long_name" : "Buch",
               "short_name" : "Buch",
               "types" : [ "political", "sublocality", "sublocality_level_2" ]
            },
            {
               "long_name" : "Pankow",
               "short_name" : "Pankow",
               "types" : [ "political", "sublocality", "sublocality_level_1" ]
            },
            {
               "long_name" : "Berlin",
               "short_name" : "Berlin",
               "types" : [ "locality", "political" ]
            },
            {
               "long_name" : "Berlin",
               "short_name" : "Berlin",
               "types" : [ "administrative_area_level_1", "political" ]
            },
            {
               "long_name" : "Germany",
               "short_name" : "DE",
               "types" : [ "country", "political" ]
            }
         ],
         "formatted_address" : "Buch, Berlin, Germany",
         "geometry" : {
            "bounds" : {
               "northeast" : {
                  "lat" : 52.6754542,
                  "lng" : 13.5230496
               },
               "southwest" : {
                  "lat" : 52.6189651,
                  "lng" : 13.4199154
               }
            },
            "location" : {
               "lat" : 52.6385548,
               "lng" : 13.4727778
            },
            "location_type" : "APPROXIMATE",
            "viewport" : {
               "northeast" : {
                  "lat" : 52.6754542,
                  "lng" : 13.5230496
               },
               "southwest" : {
                  "lat" : 52.6189651,
                  "lng" : 13.4199154
               }
            }
         },
         "place_id" : "ChIJtZltWJ6yqUcRQK9fW0YgIQU",
         "types" : [ "political", "sublocality", "sublocality_level_2" ]
      },
      {
         "address_components" : [
            {
               "long_name" : "13125",
               "short_name" : "13125",
               "types" : [ "postal_code" ]
            },
            {
               "long_name" : "Pankow",
               "short_name" : "Pankow",
               "types" : [ "political", "sublocality", "sublocality_level_1" ]
            },
            {
               "long_name" : "Berlin",
               "short_name" : "Berlin",
               "types" : [ "locality", "political" ]
            },
            {
               "long_name" : "Berlin",
               "short_name" : "Berlin",
               "types" : [ "administrative_area_level_1", "political" ]
            },
            {
               "long_name" : "Germany",
               "short_name" : "DE",
               "types" : [ "country", "political" ]
            }
         ],
         "formatted_address" : "13125 Berlin, Germany",
         "geometry" : {
            "bounds" : {
               "northeast" : {
                  "lat" : 52.675311,
                  "lng" : 13.5231939
               },
               "southwest" : {
                  "lat" : 52.587865,
                  "lng" : 13.436374
               }
            },
            "location" : {
               "lat" : 52.6325588,
               "lng" : 13.4775758
            },
            "location_type" : "APPROXIMATE",
            "viewport" : {
               "northeast" : {
                  "lat" : 52.675311,
                  "lng" : 13.5231939
               },
               "southwest" : {
                  "lat" : 52.587865,
                  "lng" : 13.436374
               }
            }
         },
         "place_id" : "ChIJwVbmaLCyqUcRUOk9lUkgIRw",
         "types" : [ "postal_code" ]
      },
      {
         "address_components" : [
            {
               "long_name" : "Pankow",
               "short_name" : "Pankow",
               "types" : [ "political", "sublocality", "sublocality_level_1" ]
            },
            {
               "long_name" : "Berlin",
               "short_name" : "Berlin",
               "types" : [ "locality", "political" ]
            },
            {
               "long_name" : "Oberhavel",
               "short_name" : "Oberhavel",
               "types" : [ "administrative_area_level_3", "political" ]
            },
            {
               "long_name" : "Berlin",
               "short_name" : "Berlin",
               "types" : [ "administrative_area_level_1", "political" ]
            },
            {
               "long_name" : "Germany",
               "short_name" : "DE",
               "types" : [ "country", "political" ]
            }
         ],
         "formatted_address" : "Pankow, Berlin, Germany",
         "geometry" : {
            "bounds" : {
               "northeast" : {
                  "lat" : 52.6754542,
                  "lng" : 13.5230496
               },
               "southwest" : {
                  "lat" : 52.5199167,
                  "lng" : 13.3476416
               }
            },
            "location" : {
               "lat" : 52.5928787,
               "lng" : 13.4317001
            },
            "location_type" : "APPROXIMATE",
            "viewport" : {
               "northeast" : {
                  "lat" : 52.6754542,
                  "lng" : 13.5230496
               },
               "southwest" : {
                  "lat" : 52.5199167,
                  "lng" : 13.3476416
               }
            }
         },
         "place_id" : "ChIJNYyZemlSqEcRX6BTBcRNMgI",
         "types" : [ "political", "sublocality", "sublocality_level_1" ]
      },
      {
         "address_components" : [
            {
               "long_name" : "Berlin",
               "short_name" : "Berlin",
               "types" : [ "locality", "political" ]
            },
            {
               "long_name" : "Berlin",
               "short_name" : "Berlin",
               "types" : [ "administrative_area_level_1", "political" ]
            },
            {
               "long_name" : "Germany",
               "short_name" : "DE",
               "types" : [ "country", "political" ]
            }
         ],
         "formatted_address" : "Berlin, Germany",
         "geometry" : {
            "bounds" : {
               "northeast" : {
                  "lat" : 52.6754542,
                  "lng" : 13.7611175
               },
               "southwest" : {
                  "lat" : 52.338234,
                  "lng" : 13.088346
               }
            },
            "location" : {
               "lat" : 52.52000659999999,
               "lng" : 13.404954
            },
            "location_type" : "APPROXIMATE",
            "viewport" : {
               "northeast" : {
                  "lat" : 52.6754542,
                  "lng" : 13.7611175
               },
               "southwest" : {
                  "lat" : 52.338234,
                  "lng" : 13.088346
               }
            }
         },
         "place_id" : "ChIJAVkDPzdOqEcRcDteW0YgIQQ",
         "types" : [ "locality", "political" ]
      },
      {
         "address_components" : [
            {
               "long_name" : "Berlin",
               "short_name" : "Berlin",
               "types" : [ "administrative_area_level_1", "political" ]
            },
            {
               "long_name" : "Germany",
               "short_name" : "DE",
               "types" : [ "country", "political" ]
            }
         ],
         "formatted_address" : "Berlin, Germany",
         "geometry" : {
            "bounds" : {
               "northeast" : {
                  "lat" : 52.6754542,
                  "lng" : 13.7611175
               },
               "southwest" : {
                  "lat" : 52.338234,
                  "lng" : 13.088346
               }
            },
            "location" : {
               "lat" : 52.4938053,
               "lng" : 13.4552919
            },
            "location_type" : "APPROXIMATE",
            "viewport" : {
               "northeast" : {
                  "lat" : 52.6754542,
                  "lng" : 13.7611175
               },
               "southwest" : {
                  "lat" : 52.338234,
                  "lng" : 13.088346
               }
            }
         },
         "place_id" : "ChIJ8_KccStOqEcRhtFXjKWPuo0",
         "types" : [ "administrative_area_level_1", "political" ]
      },
      {
         "address_components" : [
            {
               "long_name" : "Germany",
               "short_name" : "DE",
               "types" : [ "country", "political" ]
            }
         ],
         "formatted_address" : "Germany",
         "geometry" : {
            "bounds" : {
               "northeast" : {
                  "lat" : 55.0815,
                  "lng" : 15.0418962
               },
               "southwest" : {
                  "lat" : 47.2701115,
                  "lng" : 5.8663425
               }
            },
            "location" : {
               "lat" : 51.165691,
               "lng" : 10.451526
            },
            "location_type" : "APPROXIMATE",
            "viewport" : {
               "northeast" : {
                  "lat" : 55.0815,
                  "lng" : 15.0418962
               },
               "southwest" : {
                  "lat" : 47.2701115,
                  "lng" : 5.8663425
               }
            }
         },
         "place_id" : "ChIJa76xwh5ymkcRW-WRjmtd6HU",
         "types" : [ "country", "political" ]
      }
   ],
   "status" : "OK"
}
