{
   "plus_code" : {
      "compound_code" : "VPH2+54 Leuven, Belgium",
      "global_code" : "9F26VPH2+54"
   },
   "results" : [
      {
         "address_components" : [
            {
               "long_name" : "13",
               "short_name" : "13",
               "types" : [ "street_number" ]
            },
            {
               "long_name" : "Oude Markt",
               "short_name" : "Oude Markt",
               "types" : [ "route" ]
            },
            {
               "long_name" : "Leuven",
               "short_name" : "Leuven",
               "types" : [ "locality", "political" ]
            },
            {
               "long_name" : "Vlaams-Brabant",
               "short_name" : "VB",
               "types" : [ "administrative_area_level_2", "political" ]
            },
            {
               "long_name" : "Vlaanderen",
               "short_name" : "Vlaanderen",
               "types" : [ "administrative_area_level_1", "political" ]
            },
            {
               "long_name" : "Belgium",
               "short_name" : "BE",
               "types" : [ "country", "political" ]
            },
            {
               "long_name" : "3000",
               "short_name" : "3000",
               "types" : [ "postal_code" ]
            }
         ],
         "formatted_address" : "Oude Markt 13, 3000 Leuven, Belgium",
         "geometry" : {
            "location" : {
               "lat" : 50.87795449999999,
               "lng" : 4.7002953
            },
            "location_type" : "ROOFTOP",
            "viewport" : {
               "northeast" : {
                  "lat" : 50.87930348029149,
                  "lng" : 4.701644280291502
               },
               "southwest" : {
                  "lat" : 50.8766055197085,
                  "lng" : 4.698946319708497
               }
            }
         },
         "place_id" : "ChIJ013lWdhgwUcR-xAOEnwxrBQ",
         "plus_code" : {
            "compound_code" : "VPH2+54 Leuven, Belgium",
            "global_code" : "9F26VPH2+54"
         },
         "types" : [ "street_address" ]
      },
      {
         "address_components" : [
            {
               "long_name" : "13",
               "short_name" : "13",
               "types" : [ "street_number" ]
            },
            {
               "long_name" : "Oude Markt",
               "short_name" : "Oude Markt",
               "types" : [ "route" ]
            },
            {
               "long_name" : "Leuven",
               "short_name" : "Leuven",
               "types" : [ "locality", "political" ]
            },
            {
               "long_name" : "Vlaams-Brabant",
               "short_name" : "VB",
               "types" : [ "administrative_area_level_2", "political" ]
            },
            {
               "long_name" : "Vlaanderen",
               "short_name" : "Vlaanderen",
               "types" : [ "administrative_area_level_1", "political" ]
            },
            {
               "long_name" : "Belgium",
               "short_name" : "BE",
               "types" : [ "country", "political" ]
            },
            {
               "long_name" : "3000",
               "short_name" : "3000",
               "types" : [ "postal_code" ]
            }
         ],
         "formatted_address" : "Oude Markt 13, 3000 Leuven, Belgium",
         "geometry" : {
            "location" : {
               "lat" : 50.87795449999999,
               "lng" : 4.7002953
            },
            "location_type" : "ROOFTOP",
            "viewport" : {
               "northeast" : {
                  "lat" : 50.87930348029149,
                  "lng" : 4.701644280291502
               },
               "southwest" : {
                  "lat" : 50.8766055197085,
                  "lng" : 4.698946319708497
               }
            }
         },
         "place_id" : "ChIJr_LUWthgwUcRLUQV28Mq9yw",
         "plus_code" : {
            "compound_code" : "VPH2+54 Leuven, Belgium",
            "global_code" : "9F26VPH2+54"
         },
         "types" : [ "establishment", "point_of_interest", "university" ]
      },
      {
         "address_components" : [
            {
               "long_name" : "22",
               "short_name" : "22",
               "types" : [ "street_number" ]
            },
            {
               "long_name" : "Naamsestraat",
               "short_name" : "Naamsestraat",
               "types" : [ "route" ]
            },
            {
               "long_name" : "Leuven",
               "short_name" : "Leuven",
               "types" : [ "locality", "political" ]
            },
            {
               "long_name" : "Belgium",
               "short_name" : "BE",
               "types" : [ "country", "political" ]
            },
            {
               "long_name" : "3000",
               "short_name" : "3000",
               "types" : [ "postal_code" ]
            }
         ],
         "formatted_address" : "Naamsestraat 22, 3000 Leuven, Belgium",
         "geometry" : {
            "location" : {
               "lat" : 50.8778972,
               "lng" : 4.7006838
            },
            "location_type" : "RANGE_INTERPOLATED",
            "viewport" : {
               "northeast" : {
                  "lat" : 50.8792461802915,
                  "lng" : 4.702032780291503
               },
               "southwest" : {
                  "lat" : 50.8765482197085,
                  "lng" : 4.699334819708498
               }
            }
         },
         "place_id" : "EiVOYWFtc2VzdHJhYXQgMjIsIDMwMDAgTGV1dmVuLCBCZWxnacOrIhoSGAoUChIJwSOrR9hgwUcRxSMOIMXeNWUQFg",
         "types" : [ "street_address" ]
      },
      {
         "address_components" : [
            {
               "long_name" : "3000",
               "short_name" : "3000",
               "types" : [ "postal_code" ]
            },
            {
               "long_name" : "Leuven",
               "short_name" : "Leuven",
               "types" : [ "locality", "political" ]
            },
            {
               "long_name" : "Flemish Brabant",
               "short_name" : "VB",
               "types" : [ "administrative_area_level_2", "political" ]
            },
            {
               "long_name" : "Flanders",
               "short_name" : "Flanders",
               "types" : [ "administrative_area_level_1", "political" ]
            },
            {
               "long_name" : "Belgium",
               "short_name" : "BE",
               "types" : [ "country", "political" ]
            }
         ],
         "formatted_address" : "3000 Leuven, Belgium",
         "geometry" : {
            "bounds" : {
               "northeast" : {
                  "lat" : 50.8945996,
                  "lng" : 4.7482942
               },
               "southwest" : {
                  "lat" : 50.8546399,
                  "lng" : 4.643221
               }
            },
            "location" : {
               "lat" : 50.88151970000001,
               "lng" : 4.696757799999999
            },
            "location_type" : "APPROXIMATE",
            "viewport" : {
               "northeast" : {
                  "lat" : 50.8945996,
                  "lng" : 4.7482942
               },
               "southwest" : {
                  "lat" : 50.8546399,
                  "lng" : 4.643221
               }
            }
         },
         "place_id" : "ChIJA91mxiphwUcR3T7m4FlTgg8",
         "types" : [ "postal_code" ]
      },
      {
         "address_components" : [
            {
               "long_name" : "Leuven",
               "short_name" : "Leuven",
               "types" : [ "locality", "political" ]
            },
            {
               "long_name" : "Flemish Brabant",
               "short_name" : "VB",
               "types" : [ "administrative_area_level_2", "political" ]
            },
            {
               "long_name" : "Flanders",
               "short_name" : "Flanders",
               "types" : [ "administrative_area_level_1", "political" ]
            },
            {
               "long_name" : "Belgium",
               "short_name" : "BE",
               "types" : [ "country", "political" ]
            }
         ],
         "formatted_address" : "Leuven, Belgium",
         "geometry" : {
            "bounds" : {
               "northeast" : {
                  "lat" : 50.94403,
                  "lng" : 4.770309999999999
               },
               "southwest" : {
                  "lat" : 50.82418999999999,
                  "lng" : 4.64055
               }
            },
            "location" : {
               "lat" : 50.8798438,
               "lng" : 4.7005176
            },
            "location_type" : "APPROXIMATE",
            "viewport" : {
               "northeast" : {
                  "lat" : 50.94403,
                  "lng" : 4.770309999999999
               },
               "southwest" : {
                  "lat" : 50.82418999999999,
                  "lng" : 4.64055
               }
            }
         },
         "place_id" : "ChIJhd-7XtBgwUcRkFZNL6uZAAQ",
         "types" : [ "locality", "political" ]
      },
      {
         "address_components" : [
            {
               "long_name" : "Flemish Brabant",
               "short_name" : "Flemish Brabant",
               "types" : [ "administrative_area_level_2", "political" ]
            },
            {
               "long_name" : "Flanders",
               "short_name" : "Flanders",
               "types" : [ "administrative_area_level_1", "political" ]
            },
            {
               "long_name" : "Belgium",
               "short_name" : "BE",
               "types" : [ "country", "political" ]
            }
         ],
         "formatted_address" : "Flemish Brabant, Belgium",
         "geometry" : {
            "bounds" : {
               "northeast" : {
                  "lat" : 51.04987999999999,
                  "lng" : 5.18831
               },
               "southwest" : {
                  "lat" : 50.68736000000001,
                  "lng" : 3.88928
               }
            },
            "location" : {
               "lat" : 50.8815434,
               "lng" : 4.564597
            },
            "location_type" : "APPROXIMATE",
            "viewport" : {
               "northeast" : {
                  "lat" : 51.04987999999999,
                  "lng" : 5.18831
               },
               "southwest" : {
                  "lat" : 50.68736000000001,
                  "lng" : 3.88928
               }
            }
         },
         "place_id" : "ChIJ7diwvtdgwUcRYrEzvCLYu-M",
         "types" : [ "administrative_area_level_2", "political" ]
      },
      {
         "address_components" : [
            {
               "long_name" : "Flanders",
               "short_name" : "Flanders",
               "types" : [ "administrative_area_level_1", "political" ]
            },
            {
               "long_name" : "Belgium",
               "short_name" : "BE",
               "types" : [ "country", "political" ]
            }
         ],
         "formatted_address" : "Flanders, Belgium",
         "geometry" : {
            "bounds" : {
               "northeast" : {
                  "lat" : 51.5051,
                  "lng" : 5.911010099999999
               },
               "southwest" : {
                  "lat" : 50.68736000000001,
                  "lng" : 2.5449401
               }
            },
            "location" : {
               "lat" : 51.0108706,
               "lng" : 3.7264613
            },
            "location_type" : "APPROXIMATE",
            "viewport" : {
               "northeast" : {
                  "lat" : 51.5051,
                  "lng" : 5.911010099999999
               },
               "southwest" : {
                  "lat" : 50.68736000000001,
                  "lng" : 2.5449401
               }
            }
         },
         "place_id" : "ChIJpeuHbqSSw0cRIIBML6uZAAE",
         "types" : [ "administrative_area_level_1", "political" ]
      },
      {
         "address_components" : [
            {
               "long_name" : "Belgium",
               "short_name" : "BE",
               "types" : [ "country", "political" ]
            }
         ],
         "formatted_address" : "Belgium",
         "geometry" : {
            "bounds" : {
               "northeast" : {
                  "lat" : 51.5051449,
                  "lng" : 6.408124099999999
               },
               "southwest" : {
                  "lat" : 49.497013,
                  "lng" : 2.5240999
               }
            },
            "location" : {
               "lat" : 50.503887,
               "lng" : 4.469936
            },
            "location_type" : "APPROXIMATE",
            "viewport" : {
               "northeast" : {
                  "lat" : 51.5051449,
                  "lng" : 6.408124099999999
               },
               "southwest" : {
                  "lat" : 49.497013,
                  "lng" : 2.5240999
               }
            }
         },
         "place_id" : "ChIJl5fz7WR9wUcR8g_mObTy60c",
         "types" : [ "country", "political" ]
      }
   ],
   "status" : "OK"
}
