{
   "plus_code" : {
      "compound_code" : "Q7H5+3W Florence, Metropolitan City of Florence, Italy",
      "global_code" : "8FMHQ7H5+3W"
   },
   "results" : [
      {
         "address_components" : [
            {
               "long_name" : "4",
               "short_name" : "4",
               "types" : [ "street_number" ]
            },
            {
               "long_name" : "Piazza di San Marco",
               "short_name" : "Piazza di San Marco",
               "types" : [ "route" ]
            },
            {
               "long_name" : "Firenze",
               "short_name" : "Firenze",
               "types" : [ "locality", "political" ]
            },
            {
               "long_name" : "Firenze",
               "short_name" : "Firenze",
               "types" : [ "administrative_area_level_3", "political" ]
            },
            {
               "long_name" : "Città Metropolitana di Firenze",
               "short_name" : "FI",
               "types" : [ "administrative_area_level_2", "political" ]
            },
            {
               "long_name" : "Toscana",
               "short_name" : "Toscana",
               "types" : [ "administrative_area_level_1", "political" ]
            },
            {
               "long_name" : "Italy",
               "short_name" : "IT",
               "types" : [ "country", "political" ]
            },
            {
               "long_name" : "50121",
               "short_name" : "50121",
               "types" : [ "postal_code" ]
            }
         ],
         "formatted_address" : "Piazza di San Marco, 4, 50121 Firenze FI, Italy",
         "geometry" : {
            "location" : {
               "lat" : 43.7776426,
               "lng" : 11.259765
            },
            "location_type" : "ROOFTOP",
            "viewport" : {
               "northeast" : {
                  "lat" : 43.7789915802915,
                  "lng" : 11.2611139802915
               },
               "southwest" : {
                  "lat" : 43.7762936197085,
                  "lng" : 11.2584160197085
               }
            }
         },
         "place_id" : "ChIJU643lg5UKhMR-LjVKkHJReI",
         "plus_code" : {
            "compound_code" : "Q7H5+3W Florence, Metropolitan City of Florence, Italy",
            "global_code" : "8FMHQ7H5+3W"
         },
         "types" : [ "establishment", "point_of_interest", "university" ]
      },
      {
         "address_components" : [
            {
               "long_name" : "12n",
               "short_name" : "12n",
               "types" : [ "street_number" ]
            },
            {
               "long_name" : "Via Cesare Battisti",
               "short_name" : "Via Cesare Battisti",
               "types" : [ "route" ]
            },
            {
               "long_name" : "Firenze",
               "short_name" : "Firenze",
               "types" : [ "locality", "political" ]
            },
            {
               "long_name" : "Firenze",
               "short_name" : "Firenze",
               "types" : [ "administrative_area_level_3", "political" ]
            },
            {
               "long_name" : "Città Metropolitana di Firenze",
               "short_name" : "FI",
               "types" : [ "administrative_area_level_2", "political" ]
            },
            {
               "long_name" : "Toscana",
               "short_name" : "Toscana",
               "types" : [ "administrative_area_level_1", "political" ]
            },
            {
               "long_name" : "Italy",
               "short_name" : "IT",
               "types" : [ "country", "political" ]
            },
            {
               "long_name" : "50121",
               "short_name" : "50121",
               "types" : [ "postal_code" ]
            }
         ],
         "formatted_address" : "Via Cesare Battisti, 12n, 50121 Firenze FI, Italy",
         "geometry" : {
            "location" : {
               "lat" : 43.7773931,
               "lng" : 11.259771
            },
            "location_type" : "ROOFTOP",
            "viewport" : {
               "northeast" : {
                  "lat" : 43.7787420802915,
                  "lng" : 11.2611199802915
               },
               "southwest" : {
                  "lat" : 43.7760441197085,
                  "lng" : 11.2584220197085
               }
            }
         },
         "place_id" : "ChIJRU53ORtUKhMRoe9oMwwcZS4",
         "plus_code" : {
            "compound_code" : "Q7G5+XW Florence, Metropolitan City of Florence, Italy",
            "global_code" : "8FMHQ7G5+XW"
         },
         "types" : [ "street_address" ]
      },
      {
         "address_components" : [
            {
               "long_name" : "3",
               "short_name" : "3",
               "types" : [ "street_number" ]
            },
            {
               "long_name" : "Piazza San Marco",
               "short_name" : "Piazza San Marco",
               "types" : [ "route" ]
            },
            {
               "long_name" : "Firenze",
               "short_name" : "Firenze",
               "types" : [ "locality", "political" ]
            },
            {
               "long_name" : "Firenze",
               "short_name" : "Firenze",
               "types" : [ "administrative_area_level_3", "political" ]
            },
            {
               "long_name" : "Città Metropolitana di Firenze",
               "short_name" : "FI",
               "types" : [ "administrative_area_level_2", "political" ]
            },
            {
               "long_name" : "Italy",
               "short_name" : "IT",
               "types" : [ "country", "political" ]
            },
            {
               "long_name" : "50121",
               "short_name" : "50121",
               "types" : [ "postal_code" ]
            }
         ],
         "formatted_address" : "Piazza San Marco, 3, 50121 Firenze FI, Italy",
         "geometry" : {
            "location" : {
               "lat" : 43.7778484,
               "lng" : 11.2593523
            },
            "location_type" : "RANGE_INTERPOLATED",
            "viewport" : {
               "northeast" : {
                  "lat" : 43.7791973802915,
                  "lng" : 11.2607012802915
               },
               "southwest" : {
                  "lat" : 43.7764994197085,
                  "lng" : 11.2580033197085
               }
            }
         },
         "place_id" : "Ei1QaWF6emEgU2FuIE1hcmNvLCAzLCA1MDEyMSBGaXJlbnplIEZJLCBJdGFsaWEiGhIYChQKEgk76UJqG1QqExEs1cc2c_j8NBAD",
         "types" : [ "street_address" ]
      },
      {
         "address_components" : [
            {
               "long_name" : "San Marco",
               "short_name" : "San Marco",
               "types" : [ "neighborhood", "political" ]
            },
            {
               "long_name" : "Firenze",
               "short_name" : "Firenze",
               "types" : [ "locality", "political" ]
            },
            {
               "long_name" : "Firenze",
               "short_name" : "Firenze",
               "types" : [ "administrative_area_level_3", "political" ]
            },
            {
               "long_name" : "Città Metropolitana di Firenze",
               "short_name" : "FI",
               "types" : [ "administrative_area_level_2", "political" ]
            },
            {
               "long_name" : "Toscana",
               "short_name" : "Toscana",
               "types" : [ "administrative_area_level_1", "political" ]
            },
            {
               "long_name" : "Italy",
               "short_name" : "IT",
               "types" : [ "country", "political" ]
            }
         ],
         "formatted_address" : "San Marco, Firenze FI, Italy",
         "geometry" : {
            "bounds" : {
               "northeast" : {
                  "lat" : 43.7832646,
                  "lng" : 11.2653367
               },
               "southwest" : {
                  "lat" : 43.7741263,
                  "lng" : 11.2558481
               }
            },
            "location" : {
               "lat" : 43.7788238,
               "lng" : 11.2612352
            },
            "location_type" : "APPROXIMATE",
            "viewport" : {
               "northeast" : {
                  "lat" : 43.7832646,
                  "lng" : 11.2653367
               },
               "southwest" : {
                  "lat" : 43.7741263,
                  "lng" : 11.2558481
               }
            }
         },
         "place_id" : "ChIJxUDwGxtUKhMRzXzdDlM0-YY",
         "types" : [ "neighborhood", "political" ]
      },
      {
         "address_components" : [
            {
               "long_name" : "50121",
               "short_name" : "50121",
               "types" : [ "postal_code" ]
            },
            {
               "long_name" : "Florence",
               "short_name" : "Florence",
               "types" : [ "locality", "political" ]
            },
            {
               "long_name" : "Florence",
               "short_name" : "Florence",
               "types" : [ "administrative_area_level_3", "political" ]
            },
            {
               "long_name" : "Metropolitan City of Florence",
               "short_name" : "FI",
               "types" : [ "administrative_area_level_2", "political" ]
            },
            {
               "long_name" : "Tuscany",
               "short_name" : "Tuscany",
               "types" : [ "administrative_area_level_1", "political" ]
            },
            {
               "long_name" : "Italy",
               "short_name" : "IT",
               "types" : [ "country", "political" ]
            }
         ],
         "formatted_address" : "50121 Florence, Metropolitan City of Florence, Italy",
         "geometry" : {
            "bounds" : {
               "northeast" : {
                  "lat" : 43.783276,
                  "lng" : 11.280967
               },
               "southwest" : {
                  "lat" : 43.7657171,
                  "lng" : 11.2573019
               }
            },
            "location" : {
               "lat" : 43.7746405,
               "lng" : 11.267967
            },
            "location_type" : "APPROXIMATE",
            "viewport" : {
               "northeast" : {
                  "lat" : 43.783276,
                  "lng" : 11.280967
               },
               "southwest" : {
                  "lat" : 43.7657171,
                  "lng" : 11.2573019
               }
            }
         },
         "place_id" : "ChIJ99j-eQ5UKhMRQO59QpQsCBw",
         "types" : [ "postal_code" ]
      },
      {
         "address_components" : [
            {
               "long_name" : "Florence",
               "short_name" : "Florence",
               "types" : [ "locality", "political" ]
            },
            {
               "long_name" : "Florence",
               "short_name" : "Florence",
               "types" : [ "administrative_area_level_3", "political" ]
            },
            {
               "long_name" : "Metropolitan City of Florence",
               "short_name" : "FI",
               "types" : [ "administrative_area_level_2", "political" ]
            },
            {
               "long_name" : "Tuscany",
               "short_name" : "Tuscany",
               "types" : [ "administrative_area_level_1", "political" ]
            },
            {
               "long_name" : "Italy",
               "short_name" : "IT",
               "types" : [ "country", "political" ]
            }
         ],
         "formatted_address" : "Florence, Metropolitan City of Florence, Italy",
         "geometry" : {
            "bounds" : {
               "northeast" : {
                  "lat" : 43.8329368,
                  "lng" : 11.3278993
               },
               "southwest" : {
                  "lat" : 43.7269795,
                  "lng" : 11.1540365
               }
            },
            "location" : {
               "lat" : 43.7695604,
               "lng" : 11.2558136
            },
            "location_type" : "APPROXIMATE",
            "viewport" : {
               "northeast" : {
                  "lat" : 43.8329368,
                  "lng" : 11.3278993
               },
               "southwest" : {
                  "lat" : 43.7269795,
                  "lng" : 11.1540365
               }
            }
         },
         "place_id" : "ChIJrdbSgKZWKhMRAyrH7xd51ZM",
         "types" : [ "locality", "political" ]
      },
      {
         "address_components" : [
            {
               "long_name" : "Florence",
               "short_name" : "Florence",
               "types" : [ "administrative_area_level_3", "political" ]
            },
            {
               "long_name" : "Metropolitan City of Florence",
               "short_name" : "FI",
               "types" : [ "administrative_area_level_2", "political" ]
            },
            {
               "long_name" : "Tuscany",
               "short_name" : "Tuscany",
               "types" : [ "administrative_area_level_1", "political" ]
            },
            {
               "long_name" : "Italy",
               "short_name" : "IT",
               "types" : [ "country", "political" ]
            }
         ],
         "formatted_address" : "Florence, Metropolitan City of Florence, Italy",
         "geometry" : {
            "bounds" : {
               "northeast" : {
                  "lat" : 43.8352047,
                  "lng" : 11.3391437
               },
               "southwest" : {
                  "lat" : 43.7258401,
                  "lng" : 11.1506007
               }
            },
            "location" : {
               "lat" : 43.7890761,
               "lng" : 11.2297105
            },
            "location_type" : "APPROXIMATE",
            "viewport" : {
               "northeast" : {
                  "lat" : 43.8352047,
                  "lng" : 11.3391437
               },
               "southwest" : {
                  "lat" : 43.7258401,
                  "lng" : 11.1506007
               }
            }
         },
         "place_id" : "ChIJ30yk06BWKhMR2ZdgiWilRbo",
         "types" : [ "administrative_area_level_3", "political" ]
      },
      {
         "address_components" : [
            {
               "long_name" : "Metropolitan City of Florence",
               "short_name" : "Metropolitan City of Florence",
               "types" : [ "administrative_area_level_2", "political" ]
            },
            {
               "long_name" : "Tuscany",
               "short_name" : "Tuscany",
               "types" : [ "administrative_area_level_1", "political" ]
            },
            {
               "long_name" : "Italy",
               "short_name" : "IT",
               "types" : [ "country", "political" ]
            }
         ],
         "formatted_address" : "Metropolitan City of Florence, Italy",
         "geometry" : {
            "bounds" : {
               "northeast" : {
                  "lat" : 44.239233,
                  "lng" : 11.7529629
               },
               "southwest" : {
                  "lat" : 43.4522844,
                  "lng" : 10.7111173
               }
            },
            "location" : {
               "lat" : 43.7679178,
               "lng" : 11.2523792
            },
            "location_type" : "APPROXIMATE",
            "viewport" : {
               "northeast" : {
                  "lat" : 44.239233,
                  "lng" : 11.7529629
               },
               "southwest" : {
                  "lat" : 43.4522844,
                  "lng" : 10.7111173
               }
            }
         },
         "place_id" : "ChIJY3a9eKD4KhMRYIDk45AsCAM",
         "types" : [ "administrative_area_level_2", "political" ]
      },
      {
         "address_components" : [
            {
               "long_name" : "Tuscany",
               "short_name" : "Tuscany",
               "types" : [ "administrative_area_level_1", "political" ]
            },
            {
               "long_name" : "Italy",
               "short_name" : "IT",
               "types" : [ "country", "political" ]
            }
         ],
         "formatted_address" : "Tuscany, Italy",
         "geometry" : {
            "bounds" : {
               "northeast" : {
                  "lat" : 44.4726899,
                  "lng" : 12.3713555
               },
               "southwest" : {
                  "lat" : 42.2376686,
                  "lng" : 9.6867213
               }
            },
            "location" : {
               "lat" : 43.7710513,
               "lng" : 11.2486208
            },
            "location_type" : "APPROXIMATE",
            "viewport" : {
               "northeast" : {
                  "lat" : 44.4726899,
                  "lng" : 12.3713555
               },
               "southwest" : {
                  "lat" : 42.2376686,
                  "lng" : 9.6867213
               }
            }
         },
         "place_id" : "ChIJezSAEFMr1BIRq1kgW7rDxro",
         "types" : [ "administrative_area_level_1", "political" ]
      },
      {
         "address_components" : [
            {
               "long_name" : "Italy",
               "short_name" : "IT",
               "types" : [ "country", "political" ]
            }
         ],
         "formatted_address" : "Italy",
         "geometry" : {
            "bounds" : {
               "northeast" : {
                  "lat" : 47.092,
                  "lng" : 18.7975999
               },
               "southwest" : {
                  "lat" : 35.4897,
                  "lng" : 6.6267201
               }
            },
            "location" : {
               "lat" : 41.87194,
               "lng" : 12.56738
            },
            "location_type" : "APPROXIMATE",
            "viewport" : {
               "northeast" : {
                  "lat" : 47.092,
                  "lng" : 18.7975999
               },
               "southwest" : {
                  "lat" : 35.4897,
                  "lng" : 6.6267201
               }
            }
         },
         "place_id" : "ChIJA9KNRIL-1BIRb15jJFz1LOI",
         "types" : [ "country", "political" ]
      }
   ],
   "status" : "OK"
}
