{
   "results" : [
      {
         "address_components" : [
            {
               "long_name" : "390",
               "short_name" : "390",
               "types" : [ "street_number" ]
            },
            {
               "long_name" : "Avenida Libertador Bernardo O'Higgins",
               "short_name" : "Av Libertador Bernardo O'Higgins",
               "types" : [ "route" ]
            },
            {
               "long_name" : "Santiago",
               "short_name" : "Santiago",
               "types" : [ "locality", "political" ]
            },
            {
               "long_name" : "Santiago",
               "short_name" : "Santiago",
               "types" : [ "administrative_area_level_3", "political" ]
            },
            {
               "long_name" : "Santiago",
               "short_name" : "Santiago",
               "types" : [ "administrative_area_level_2", "political" ]
            },
            {
               "long_name" : "Región Metropolitana",
               "short_name" : "Región Metropolitana",
               "types" : [ "administrative_area_level_1", "political" ]
            },
            {
               "long_name" : "Chile",
               "short_name" : "CL",
               "types" : [ "country", "political" ]
            }
         ],
         "formatted_address" : "Av Libertador Bernardo O'Higgins 390, Santiago, Región Metropolitana, Chile",
         "geometry" : {
            "bounds" : {
               "northeast" : {
                  "lat" : -33.4404059,
                  "lng" : -70.64017299999999
               },
               "southwest" : {
                  "lat" : -33.4416216,
                  "lng" : -70.6417805
               }
            },
            "location" : {
               "lat" : -33.4412552,
               "lng" : -70.64129059999999
            },
            "location_type" : "ROOFTOP",
            "viewport" : {
               "northeast" : {
                  "lat" : -33.4396647697085,
                  "lng" : -70.6396277697085
               },
               "southwest" : {
                  "lat" : -33.4423627302915,
                  "lng" : -70.6423257302915
               }
            }
         },
         "place_id" : "ChIJSxdpjZ7FYpYRXfUc5kCF4ik",
         "types" : [ "premise" ]
      },
      {
         "address_components" : [
            {
               "long_name" : "16",
               "short_name" : "16",
               "types" : [ "street_number" ]
            },
            {
               "long_name" : "Avenida Portugal",
               "short_name" : "Av. Portugal",
               "types" : [ "route" ]
            },
            {
               "long_name" : "Santiago",
               "short_name" : "Santiago",
               "types" : [ "locality", "political" ]
            },
            {
               "long_name" : "Santiago",
               "short_name" : "Santiago",
               "types" : [ "administrative_area_level_3", "political" ]
            },
            {
               "long_name" : "Santiago",
               "short_name" : "Santiago",
               "types" : [ "administrative_area_level_2", "political" ]
            },
            {
               "long_name" : "Región Metropolitana",
               "short_name" : "Región Metropolitana",
               "types" : [ "administrative_area_level_1", "political" ]
            },
            {
               "long_name" : "Chile",
               "short_name" : "CL",
               "types" : [ "country", "political" ]
            }
         ],
         "formatted_address" : "Av. Portugal 16, Santiago, Región Metropolitana, Chile",
         "geometry" : {
            "location" : {
               "lat" : -33.4405408,
               "lng" : -70.639949
            },
            "location_type" : "ROOFTOP",
            "viewport" : {
               "northeast" : {
                  "lat" : -33.4391918197085,
                  "lng" : -70.63860001970849
               },
               "southwest" : {
                  "lat" : -33.4418897802915,
                  "lng" : -70.6412979802915
               }
            }
         },
         "place_id" : "ChIJo_KSm57FYpYReeXA46e9c0o",
         "types" : [ "street_address" ]
      },
      {
         "address_components" : [
            {
               "long_name" : "Universidad Católica",
               "short_name" : "Universidad Católica",
               "types" : [
                  "establishment",
                  "point_of_interest",
                  "subway_station",
                  "transit_station"
               ]
            },
            {
               "long_name" : "Santiago",
               "short_name" : "Santiago",
               "types" : [ "locality", "political" ]
            },
            {
               "long_name" : "Santiago",
               "short_name" : "Santiago",
               "types" : [ "administrative_area_level_3", "political" ]
            },
            {
               "long_name" : "Santiago",
               "short_name" : "Santiago",
               "types" : [ "administrative_area_level_2", "political" ]
            },
            {
               "long_name" : "Región Metropolitana",
               "short_name" : "Región Metropolitana",
               "types" : [ "administrative_area_level_1", "political" ]
            },
            {
               "long_name" : "Chile",
               "short_name" : "CL",
               "types" : [ "country", "political" ]
            }
         ],
         "formatted_address" : "Universidad Católica, Santiago, Región Metropolitana, Chile",
         "geometry" : {
            "location" : {
               "lat" : -33.4405184,
               "lng" : -70.64065909999999
            },
            "location_type" : "GEOMETRIC_CENTER",
            "viewport" : {
               "northeast" : {
                  "lat" : -33.43916941970851,
                  "lng" : -70.63931011970848
               },
               "southwest" : {
                  "lat" : -33.44186738029151,
                  "lng" : -70.64200808029149
               }
            }
         },
         "place_id" : "ChIJE48flp7FYpYRF2aqkABSNjA",
         "types" : [
            "establishment",
            "point_of_interest",
            "subway_station",
            "transit_station"
         ]
      },
      {
         "address_components" : [
            {
               "long_name" : "Santiago",
               "short_name" : "Santiago",
               "types" : [ "locality", "political" ]
            },
            {
               "long_name" : "Santiago",
               "short_name" : "Santiago",
               "types" : [ "administrative_area_level_3", "political" ]
            },
            {
               "long_name" : "Santiago Province",
               "short_name" : "Santiago Province",
               "types" : [ "administrative_area_level_2", "political" ]
            },
            {
               "long_name" : "Santiago Metropolitan Region",
               "short_name" : "Santiago Metropolitan Region",
               "types" : [ "administrative_area_level_1", "political" ]
            },
            {
               "long_name" : "Chile",
               "short_name" : "CL",
               "types" : [ "country", "political" ]
            }
         ],
         "formatted_address" : "Santiago, Santiago Metropolitan Region, Chile",
         "geometry" : {
            "bounds" : {
               "northeast" : {
                  "lat" : -33.425617,
                  "lng" : -70.6251297
               },
               "southwest" : {
                  "lat" : -33.4811177,
                  "lng" : -70.7332574
               }
            },
            "location" : {
               "lat" : -33.4378305,
               "lng" : -70.6504492
            },
            "location_type" : "APPROXIMATE",
            "viewport" : {
               "northeast" : {
                  "lat" : -33.425617,
                  "lng" : -70.6251297
               },
               "southwest" : {
                  "lat" : -33.4811177,
                  "lng" : -70.7332574
               }
            }
         },
         "place_id" : "ChIJuzrymgbQYpYRl0jtCfRZnYc",
         "types" : [ "locality", "political" ]
      },
      {
         "address_components" : [
            {
               "long_name" : "Santiago",
               "short_name" : "Santiago",
               "types" : [ "colloquial_area", "locality", "political" ]
            },
            {
               "long_name" : "Santiago Province",
               "short_name" : "Santiago Province",
               "types" : [ "administrative_area_level_2", "political" ]
            },
            {
               "long_name" : "Santiago Metropolitan Region",
               "short_name" : "Santiago Metropolitan Region",
               "types" : [ "administrative_area_level_1", "political" ]
            },
            {
               "long_name" : "Chile",
               "short_name" : "CL",
               "types" : [ "country", "political" ]
            }
         ],
         "formatted_address" : "Santiago, Santiago Metropolitan Region, Chile",
         "geometry" : {
            "bounds" : {
               "northeast" : {
                  "lat" : -33.2713874,
                  "lng" : -70.42678069999999
               },
               "southwest" : {
                  "lat" : -33.6741885,
                  "lng" : -70.8328819
               }
            },
            "location" : {
               "lat" : -33.4488897,
               "lng" : -70.66926549999999
            },
            "location_type" : "APPROXIMATE",
            "viewport" : {
               "northeast" : {
                  "lat" : -33.2713874,
                  "lng" : -70.42678069999999
               },
               "southwest" : {
                  "lat" : -33.6741885,
                  "lng" : -70.8328819
               }
            }
         },
         "place_id" : "ChIJL68lBEHFYpYRMQkPQDzVdYQ",
         "types" : [ "colloquial_area", "locality", "political" ]
      },
      {
         "address_components" : [
            {
               "long_name" : "Santiago",
               "short_name" : "Santiago",
               "types" : [ "administrative_area_level_3", "political" ]
            },
            {
               "long_name" : "Santiago",
               "short_name" : "Santiago",
               "types" : [ "locality", "political" ]
            },
            {
               "long_name" : "Santiago",
               "short_name" : "Santiago",
               "types" : [ "administrative_area_level_2", "political" ]
            },
            {
               "long_name" : "Región Metropolitana",
               "short_name" : "Región Metropolitana",
               "types" : [ "administrative_area_level_1", "political" ]
            },
            {
               "long_name" : "Chile",
               "short_name" : "CL",
               "types" : [ "country", "political" ]
            }
         ],
         "formatted_address" : "Santiago, Región Metropolitana, Chile",
         "geometry" : {
            "bounds" : {
               "northeast" : {
                  "lat" : -33.425617,
                  "lng" : -70.6251297
               },
               "southwest" : {
                  "lat" : -33.4785507,
                  "lng" : -70.6918738
               }
            },
            "location" : {
               "lat" : -33.45,
               "lng" : -70.66669999999999
            },
            "location_type" : "APPROXIMATE",
            "viewport" : {
               "northeast" : {
                  "lat" : -33.425617,
                  "lng" : -70.6251297
               },
               "southwest" : {
                  "lat" : -33.4785507,
                  "lng" : -70.6918738
               }
            }
         },
         "place_id" : "ChIJI8xkFgbFYpYRBYHTR-J6eXw",
         "types" : [ "administrative_area_level_3", "political" ]
      },
      {
         "address_components" : [
            {
               "long_name" : "Santiago Province",
               "short_name" : "Santiago Province",
               "types" : [ "administrative_area_level_2", "political" ]
            },
            {
               "long_name" : "Santiago Metropolitan Region",
               "short_name" : "Santiago Metropolitan Region",
               "types" : [ "administrative_area_level_1", "political" ]
            },
            {
               "long_name" : "Chile",
               "short_name" : "CL",
               "types" : [ "country", "political" ]
            }
         ],
         "formatted_address" : "Santiago Province, Santiago Metropolitan Region, Chile",
         "geometry" : {
            "bounds" : {
               "northeast" : {
                  "lat" : -33.1025363,
                  "lng" : -70.17483899999999
               },
               "southwest" : {
                  "lat" : -33.62800259999999,
                  "lng" : -70.9577496
               }
            },
            "location" : {
               "lat" : -33.45,
               "lng" : -70.66669999999999
            },
            "location_type" : "APPROXIMATE",
            "viewport" : {
               "northeast" : {
                  "lat" : -33.1025363,
                  "lng" : -70.17483899999999
               },
               "southwest" : {
                  "lat" : -33.62800259999999,
                  "lng" : -70.9577496
               }
            }
         },
         "place_id" : "ChIJlVV_vxvJYpYRziXz-KE8chY",
         "types" : [ "administrative_area_level_2", "political" ]
      },
      {
         "address_components" : [
            {
               "long_name" : "Santiago Metropolitan Region",
               "short_name" : "Santiago Metropolitan Region",
               "types" : [ "administrative_area_level_1", "political" ]
            },
            {
               "long_name" : "Chile",
               "short_name" : "CL",
               "types" : [ "country", "political" ]
            }
         ],
         "formatted_address" : "Santiago Metropolitan Region, Chile",
         "geometry" : {
            "bounds" : {
               "northeast" : {
                  "lat" : -32.919451,
                  "lng" : -69.7689943
               },
               "southwest" : {
                  "lat" : -34.2878148,
                  "lng" : -71.7088102
               }
            },
            "location" : {
               "lat" : -33.4375545,
               "lng" : -70.6504896
            },
            "location_type" : "APPROXIMATE",
            "viewport" : {
               "northeast" : {
                  "lat" : -32.919451,
                  "lng" : -69.7689943
               },
               "southwest" : {
                  "lat" : -34.2878148,
                  "lng" : -71.7088102
               }
            }
         },
         "place_id" : "ChIJUR74fWpvYpYR2oNLRG3CzWA",
         "types" : [ "administrative_area_level_1", "political" ]
      },
      {
         "address_components" : [
            {
               "long_name" : "Chile",
               "short_name" : "CL",
               "types" : [ "country", "political" ]
            }
         ],
         "formatted_address" : "Chile",
         "geometry" : {
            "bounds" : {
               "northeast" : {
                  "lat" : -17.4983291,
                  "lng" : -66.3327
               },
               "southwest" : {
                  "lat" : -56.1455,
                  "lng" : -110.0281
               }
            },
            "location" : {
               "lat" : -35.675147,
               "lng" : -71.542969
            },
            "location_type" : "APPROXIMATE",
            "viewport" : {
               "northeast" : {
                  "lat" : -17.4983291,
                  "lng" : -66.3327
               },
               "southwest" : {
                  "lat" : -56.1455,
                  "lng" : -110.0281
               }
            }
         },
         "place_id" : "ChIJL68lBEHFYpYRHbkCERPhBQU",
         "types" : [ "country", "political" ]
      }
   ],
   "status" : "OK"
}
