{
   "plus_code" : {
      "compound_code" : "CPCQ+H6 Thunder Bay, ON, Canada",
      "global_code" : "86WGCPCQ+H6"
   },
   "results" : [
      {
         "address_components" : [
            {
               "long_name" : "955",
               "short_name" : "955",
               "types" : [ "street_number" ]
            },
            {
               "long_name" : "Oliver Road",
               "short_name" : "Oliver Rd",
               "types" : [ "route" ]
            },
            {
               "long_name" : "Thunder Bay",
               "short_name" : "Thunder Bay",
               "types" : [ "locality", "political" ]
            },
            {
               "long_name" : "Thunder Bay District",
               "short_name" : "Thunder Bay District",
               "types" : [ "administrative_area_level_2", "political" ]
            },
            {
               "long_name" : "Ontario",
               "short_name" : "ON",
               "types" : [ "administrative_area_level_1", "political" ]
            },
            {
               "long_name" : "Canada",
               "short_name" : "CA",
               "types" : [ "country", "political" ]
            },
            {
               "long_name" : "P7B 5E1",
               "short_name" : "P7B 5E1",
               "types" : [ "postal_code" ]
            }
         ],
         "formatted_address" : "955 Oliver Rd, Thunder Bay, ON P7B 5E1, Canada",
         "geometry" : {
            "location" : {
               "lat" : 48.4214812,
               "lng" : -89.2618968
            },
            "location_type" : "ROOFTOP",
            "viewport" : {
               "northeast" : {
                  "lat" : 48.4228301802915,
                  "lng" : -89.26054781970851
               },
               "southwest" : {
                  "lat" : 48.4201322197085,
                  "lng" : -89.26324578029151
               }
            }
         },
         "place_id" : "ChIJse_yhL4hWU0RDINHCb2gdDY",
         "plus_code" : {
            "compound_code" : "CPCQ+H6 Thunder Bay, Ontario, Canada",
            "global_code" : "86WGCPCQ+H6"
         },
         "types" : [ "establishment", "point_of_interest", "university" ]
      },
      {
         "address_components" : [
            {
               "long_name" : "Agora Circle",
               "short_name" : "Agora Cir",
               "types" : [ "route" ]
            },
            {
               "long_name" : "Thunder Bay",
               "short_name" : "Thunder Bay",
               "types" : [ "locality", "political" ]
            },
            {
               "long_name" : "Thunder Bay District",
               "short_name" : "Thunder Bay District",
               "types" : [ "administrative_area_level_2", "political" ]
            },
            {
               "long_name" : "Ontario",
               "short_name" : "ON",
               "types" : [ "administrative_area_level_1", "political" ]
            },
            {
               "long_name" : "Canada",
               "short_name" : "CA",
               "types" : [ "country", "political" ]
            },
            {
               "long_name" : "P7B",
               "short_name" : "P7B",
               "types" : [ "postal_code", "postal_code_prefix" ]
            }
         ],
         "formatted_address" : "Agora Cir, Thunder Bay, ON P7B, Canada",
         "geometry" : {
            "bounds" : {
               "northeast" : {
                  "lat" : 48.4225118,
                  "lng" : -89.26134949999999
               },
               "southwest" : {
                  "lat" : 48.4214093,
                  "lng" : -89.2622088
               }
            },
            "location" : {
               "lat" : 48.4219606,
               "lng" : -89.26177919999999
            },
            "location_type" : "GEOMETRIC_CENTER",
            "viewport" : {
               "northeast" : {
                  "lat" : 48.4233095302915,
                  "lng" : -89.2604301697085
               },
               "southwest" : {
                  "lat" : 48.4206115697085,
                  "lng" : -89.26312813029151
               }
            }
         },
         "place_id" : "ChIJ9ZmDIrwhWU0RgmarCwGJETM",
         "types" : [ "route" ]
      },
      {
         "address_components" : [
            {
               "long_name" : "7041 SN",
               "short_name" : "7041 SN",
               "types" : [ "postal_code" ]
            },
            {
               "long_name" : "'s-Heerenberg",
               "short_name" : "'s-Heerenberg",
               "types" : [ "locality", "political" ]
            },
            {
               "long_name" : "Netherlands",
               "short_name" : "NL",
               "types" : [ "country", "political" ]
            }
         ],
         "formatted_address" : "7041 SN 's-Heerenberg, Netherlands",
         "geometry" : {
            "bounds" : {
               "northeast" : {
                  "lat" : 51.8754716,
                  "lng" : 6.2561288
               },
               "southwest" : {
                  "lat" : 48.4214085,
                  "lng" : -89.26189909999999
               }
            },
            "location" : {
               "lat" : 51.87293469999999,
               "lng" : 6.2541688
            },
            "location_type" : "APPROXIMATE",
            "viewport" : {
               "northeast" : {
                  "lat" : 51.8754716,
                  "lng" : 6.2561288
               },
               "southwest" : {
                  "lat" : 48.4214085,
                  "lng" : -89.26189909999999
               }
            }
         },
         "place_id" : "ChIJK8i4OUmdx0cRhr1mZdaJqmk",
         "types" : [ "postal_code" ]
      },
      {
         "address_components" : [
            {
               "long_name" : "P7B",
               "short_name" : "P7B",
               "types" : [ "postal_code", "postal_code_prefix" ]
            },
            {
               "long_name" : "Thunder Bay",
               "short_name" : "Thunder Bay",
               "types" : [ "locality", "political" ]
            },
            {
               "long_name" : "Thunder Bay District",
               "short_name" : "Thunder Bay District",
               "types" : [ "administrative_area_level_2", "political" ]
            },
            {
               "long_name" : "Ontario",
               "short_name" : "ON",
               "types" : [ "administrative_area_level_1", "political" ]
            },
            {
               "long_name" : "Canada",
               "short_name" : "CA",
               "types" : [ "country", "political" ]
            }
         ],
         "formatted_address" : "Thunder Bay, ON P7B, Canada",
         "geometry" : {
            "bounds" : {
               "northeast" : {
                  "lat" : 48.45824409999999,
                  "lng" : -89.2114409
               },
               "southwest" : {
                  "lat" : 48.397954,
                  "lng" : -89.28814299999999
               }
            },
            "location" : {
               "lat" : 48.4263142,
               "lng" : -89.24706689999999
            },
            "location_type" : "APPROXIMATE",
            "viewport" : {
               "northeast" : {
                  "lat" : 48.45824409999999,
                  "lng" : -89.2114409
               },
               "southwest" : {
                  "lat" : 48.397954,
                  "lng" : -89.28814299999999
               }
            }
         },
         "place_id" : "ChIJte6XgJAhWU0RHXqUBGQvIhw",
         "types" : [ "postal_code", "postal_code_prefix" ]
      },
      {
         "address_components" : [
            {
               "long_name" : "Thunder Bay",
               "short_name" : "Thunder Bay",
               "types" : [ "locality", "political" ]
            },
            {
               "long_name" : "Thunder Bay District",
               "short_name" : "Thunder Bay District",
               "types" : [ "administrative_area_level_2", "political" ]
            },
            {
               "long_name" : "Ontario",
               "short_name" : "ON",
               "types" : [ "administrative_area_level_1", "political" ]
            },
            {
               "long_name" : "Canada",
               "short_name" : "CA",
               "types" : [ "country", "political" ]
            }
         ],
         "formatted_address" : "Thunder Bay, ON, Canada",
         "geometry" : {
            "bounds" : {
               "northeast" : {
                  "lat" : 48.515816,
                  "lng" : -89.05320499999999
               },
               "southwest" : {
                  "lat" : 48.28930099999999,
                  "lng" : -89.4278451
               }
            },
            "location" : {
               "lat" : 48.3808951,
               "lng" : -89.24768229999999
            },
            "location_type" : "APPROXIMATE",
            "viewport" : {
               "northeast" : {
                  "lat" : 48.515816,
                  "lng" : -89.05320499999999
               },
               "southwest" : {
                  "lat" : 48.28930099999999,
                  "lng" : -89.4278451
               }
            }
         },
         "place_id" : "ChIJjekWTHchWU0RdIsdjzRXBT0",
         "types" : [ "locality", "political" ]
      },
      {
         "address_components" : [
            {
               "long_name" : "Thunder Bay District",
               "short_name" : "Thunder Bay District",
               "types" : [ "administrative_area_level_2", "political" ]
            },
            {
               "long_name" : "Ontario",
               "short_name" : "ON",
               "types" : [ "administrative_area_level_1", "political" ]
            },
            {
               "long_name" : "Canada",
               "short_name" : "CA",
               "types" : [ "country", "political" ]
            }
         ],
         "formatted_address" : "Thunder Bay District, ON, Canada",
         "geometry" : {
            "bounds" : {
               "northeast" : {
                  "lat" : 51.5631259,
                  "lng" : -85.32950889999999
               },
               "southwest" : {
                  "lat" : 47.078807,
                  "lng" : -90.966014
               }
            },
            "location" : {
               "lat" : 49.3456625,
               "lng" : -87.86564009999999
            },
            "location_type" : "APPROXIMATE",
            "viewport" : {
               "northeast" : {
                  "lat" : 51.5631259,
                  "lng" : -85.32950889999999
               },
               "southwest" : {
                  "lat" : 47.078807,
                  "lng" : -90.966014
               }
            }
         },
         "place_id" : "ChIJSXfDfCPMH00R_X6R0F20j1I",
         "types" : [ "administrative_area_level_2", "political" ]
      },
      {
         "address_components" : [
            {
               "long_name" : "Ontario",
               "short_name" : "Ontario",
               "types" : [ "administrative_area_level_1", "political" ]
            },
            {
               "long_name" : "Canada",
               "short_name" : "CA",
               "types" : [ "country", "political" ]
            }
         ],
         "formatted_address" : "Ontario, Canada",
         "geometry" : {
            "bounds" : {
               "northeast" : {
                  "lat" : 56.931393,
                  "lng" : -74.3206479
               },
               "southwest" : {
                  "lat" : 41.6765559,
                  "lng" : -95.1562271
               }
            },
            "location" : {
               "lat" : 51.253775,
               "lng" : -85.32321399999999
            },
            "location_type" : "APPROXIMATE",
            "viewport" : {
               "northeast" : {
                  "lat" : 56.931393,
                  "lng" : -74.3206479
               },
               "southwest" : {
                  "lat" : 41.6765559,
                  "lng" : -95.1562271
               }
            }
         },
         "place_id" : "ChIJrxNRX7IFzkwRCR5iKVZC-HA",
         "types" : [ "administrative_area_level_1", "political" ]
      },
      {
         "address_components" : [
            {
               "long_name" : "Canada",
               "short_name" : "CA",
               "types" : [ "country", "political" ]
            }
         ],
         "formatted_address" : "Canada",
         "geometry" : {
            "bounds" : {
               "northeast" : {
                  "lat" : 83.63809999999999,
                  "lng" : -50.9766
               },
               "southwest" : {
                  "lat" : 41.6765559,
                  "lng" : -141.00187
               }
            },
            "location" : {
               "lat" : 56.130366,
               "lng" : -106.346771
            },
            "location_type" : "APPROXIMATE",
            "viewport" : {
               "northeast" : {
                  "lat" : 83.63809999999999,
                  "lng" : -50.9766
               },
               "southwest" : {
                  "lat" : 41.6765559,
                  "lng" : -141.00187
               }
            }
         },
         "place_id" : "ChIJ2WrMN9MDDUsRpY9Doiq3aJk",
         "types" : [ "country", "political" ]
      }
   ],
   "status" : "OK"
}
