{
   "plus_code" : {
      "compound_code" : "WWFF+57 Grand Forks, ND, USA",
      "global_code" : "86V4WWFF+57"
   },
   "results" : [
      {
         "address_components" : [
            {
               "long_name" : "315",
               "short_name" : "315",
               "types" : [ "street_number" ]
            },
            {
               "long_name" : "Princeton Street",
               "short_name" : "Princeton St",
               "types" : [ "route" ]
            },
            {
               "long_name" : "Grand Forks",
               "short_name" : "Grand Forks",
               "types" : [ "locality", "political" ]
            },
            {
               "long_name" : "Grand Forks County",
               "short_name" : "Grand Forks County",
               "types" : [ "administrative_area_level_2", "political" ]
            },
            {
               "long_name" : "North Dakota",
               "short_name" : "ND",
               "types" : [ "administrative_area_level_1", "political" ]
            },
            {
               "long_name" : "United States",
               "short_name" : "US",
               "types" : [ "country", "political" ]
            },
            {
               "long_name" : "58202",
               "short_name" : "58202",
               "types" : [ "postal_code" ]
            }
         ],
         "formatted_address" : "315 Princeton St, Grand Forks, ND 58202, USA",
         "geometry" : {
            "location" : {
               "lat" : 47.92299,
               "lng" : -97.076408
            },
            "location_type" : "ROOFTOP",
            "viewport" : {
               "northeast" : {
                  "lat" : 47.9243389802915,
                  "lng" : -97.07505901970849
               },
               "southwest" : {
                  "lat" : 47.9216410197085,
                  "lng" : -97.07775698029151
               }
            }
         },
         "place_id" : "ChIJeVxXJ2uBxlIRMCWAxRZVwhM",
         "plus_code" : {
            "compound_code" : "WWFF+5C Grand Forks, ND, United States",
            "global_code" : "86V4WWFF+5C"
         },
         "types" : [ "street_address" ]
      },
      {
         "address_components" : [
            {
               "long_name" : "3300",
               "short_name" : "3300",
               "types" : [ "street_number" ]
            },
            {
               "long_name" : "University Avenue",
               "short_name" : "University Ave",
               "types" : [ "route" ]
            },
            {
               "long_name" : "Grand Forks",
               "short_name" : "Grand Forks",
               "types" : [ "locality", "political" ]
            },
            {
               "long_name" : "Grand Forks County",
               "short_name" : "Grand Forks County",
               "types" : [ "administrative_area_level_2", "political" ]
            },
            {
               "long_name" : "North Dakota",
               "short_name" : "ND",
               "types" : [ "administrative_area_level_1", "political" ]
            },
            {
               "long_name" : "United States",
               "short_name" : "US",
               "types" : [ "country", "political" ]
            },
            {
               "long_name" : "58203",
               "short_name" : "58203",
               "types" : [ "postal_code" ]
            },
            {
               "long_name" : "0593",
               "short_name" : "0593",
               "types" : [ "postal_code_suffix" ]
            }
         ],
         "formatted_address" : "3300 University Ave, Grand Forks, ND 58203, USA",
         "geometry" : {
            "location" : {
               "lat" : 47.9225562,
               "lng" : -97.0758581
            },
            "location_type" : "ROOFTOP",
            "viewport" : {
               "northeast" : {
                  "lat" : 47.9239051802915,
                  "lng" : -97.07450911970851
               },
               "southwest" : {
                  "lat" : 47.9212072197085,
                  "lng" : -97.07720708029152
               }
            }
         },
         "place_id" : "ChIJf2pS1mqBxlIRdim2ysMME2w",
         "plus_code" : {
            "compound_code" : "WWFF+2M Grand Forks, ND, United States",
            "global_code" : "86V4WWFF+2M"
         },
         "types" : [ "establishment", "point_of_interest" ]
      },
      {
         "address_components" : [
            {
               "long_name" : "3386",
               "short_name" : "3386",
               "types" : [ "street_number" ]
            },
            {
               "long_name" : "University Avenue",
               "short_name" : "University Ave",
               "types" : [ "route" ]
            },
            {
               "long_name" : "Grand Forks",
               "short_name" : "Grand Forks",
               "types" : [ "locality", "political" ]
            },
            {
               "long_name" : "North Dakota",
               "short_name" : "ND",
               "types" : [ "administrative_area_level_1", "political" ]
            },
            {
               "long_name" : "United States",
               "short_name" : "US",
               "types" : [ "country", "political" ]
            },
            {
               "long_name" : "58203",
               "short_name" : "58203",
               "types" : [ "postal_code" ]
            }
         ],
         "formatted_address" : "3386 University Ave, Grand Forks, ND 58203, USA",
         "geometry" : {
            "location" : {
               "lat" : 47.9222771,
               "lng" : -97.07679549999999
            },
            "location_type" : "RANGE_INTERPOLATED",
            "viewport" : {
               "northeast" : {
                  "lat" : 47.9236260802915,
                  "lng" : -97.07544651970849
               },
               "southwest" : {
                  "lat" : 47.9209281197085,
                  "lng" : -97.0781444802915
               }
            }
         },
         "place_id" : "Ei8zMzg2IFVuaXZlcnNpdHkgQXZlLCBHcmFuZCBGb3JrcywgTkQgNTgyMDMsIFVTQSIbEhkKFAoSCSF6sS1rgcZSEd8pZbqHPA9DELoa",
         "types" : [ "street_address" ]
      },
      {
         "address_components" : [
            {
               "long_name" : "Grand Forks",
               "short_name" : "Grand Forks",
               "types" : [ "locality", "political" ]
            },
            {
               "long_name" : "Grand Forks",
               "short_name" : "Grand Forks",
               "types" : [ "administrative_area_level_3", "political" ]
            },
            {
               "long_name" : "Grand Forks County",
               "short_name" : "Grand Forks County",
               "types" : [ "administrative_area_level_2", "political" ]
            },
            {
               "long_name" : "North Dakota",
               "short_name" : "ND",
               "types" : [ "administrative_area_level_1", "political" ]
            },
            {
               "long_name" : "United States",
               "short_name" : "US",
               "types" : [ "country", "political" ]
            }
         ],
         "formatted_address" : "Grand Forks, ND, USA",
         "geometry" : {
            "bounds" : {
               "northeast" : {
                  "lat" : 47.969701,
                  "lng" : -97.0098019
               },
               "southwest" : {
                  "lat" : 47.860166,
                  "lng" : -97.195914
               }
            },
            "location" : {
               "lat" : 47.9252568,
               "lng" : -97.0328547
            },
            "location_type" : "APPROXIMATE",
            "viewport" : {
               "northeast" : {
                  "lat" : 47.969701,
                  "lng" : -97.0098019
               },
               "southwest" : {
                  "lat" : 47.860166,
                  "lng" : -97.195914
               }
            }
         },
         "place_id" : "ChIJJV68WzWBxlIRWj1ffNiUaws",
         "types" : [ "locality", "political" ]
      },
      {
         "address_components" : [
            {
               "long_name" : "58203",
               "short_name" : "58203",
               "types" : [ "postal_code" ]
            },
            {
               "long_name" : "Grand Forks",
               "short_name" : "Grand Forks",
               "types" : [ "locality", "political" ]
            },
            {
               "long_name" : "Grand Forks County",
               "short_name" : "Grand Forks County",
               "types" : [ "administrative_area_level_2", "political" ]
            },
            {
               "long_name" : "North Dakota",
               "short_name" : "ND",
               "types" : [ "administrative_area_level_1", "political" ]
            },
            {
               "long_name" : "United States",
               "short_name" : "US",
               "types" : [ "country", "political" ]
            }
         ],
         "formatted_address" : "Grand Forks, ND 58203, USA",
         "geometry" : {
            "bounds" : {
               "northeast" : {
                  "lat" : 48.06301610000001,
                  "lng" : -97.02846699999999
               },
               "southwest" : {
                  "lat" : 47.911119,
                  "lng" : -97.3037489
               }
            },
            "location" : {
               "lat" : 47.9585301,
               "lng" : -97.13041729999999
            },
            "location_type" : "APPROXIMATE",
            "viewport" : {
               "northeast" : {
                  "lat" : 48.06301610000001,
                  "lng" : -97.02846699999999
               },
               "southwest" : {
                  "lat" : 47.911119,
                  "lng" : -97.3037489
               }
            }
         },
         "place_id" : "ChIJ_S50j9YpxFIROfVNv92npts",
         "types" : [ "postal_code" ]
      },
      {
         "address_components" : [
            {
               "long_name" : "Grand Forks County",
               "short_name" : "Grand Forks County",
               "types" : [ "administrative_area_level_2", "political" ]
            },
            {
               "long_name" : "North Dakota",
               "short_name" : "ND",
               "types" : [ "administrative_area_level_1", "political" ]
            },
            {
               "long_name" : "United States",
               "short_name" : "US",
               "types" : [ "country", "political" ]
            }
         ],
         "formatted_address" : "Grand Forks County, ND, USA",
         "geometry" : {
            "bounds" : {
               "northeast" : {
                  "lat" : 48.195102,
                  "lng" : -96.88503279999999
               },
               "southwest" : {
                  "lat" : 47.6719511,
                  "lng" : -97.903751
               }
            },
            "location" : {
               "lat" : 48.0037819,
               "lng" : -97.35945249999999
            },
            "location_type" : "APPROXIMATE",
            "viewport" : {
               "northeast" : {
                  "lat" : 48.195102,
                  "lng" : -96.88503279999999
               },
               "southwest" : {
                  "lat" : 47.6719511,
                  "lng" : -97.903751
               }
            }
         },
         "place_id" : "ChIJ_SCCNQw6xFIR8UhDKjqpxbg",
         "types" : [ "administrative_area_level_2", "political" ]
      },
      {
         "address_components" : [
            {
               "long_name" : "North Dakota",
               "short_name" : "ND",
               "types" : [ "administrative_area_level_1", "political" ]
            },
            {
               "long_name" : "United States",
               "short_name" : "US",
               "types" : [ "country", "political" ]
            }
         ],
         "formatted_address" : "North Dakota, USA",
         "geometry" : {
            "bounds" : {
               "northeast" : {
                  "lat" : 49.000692,
                  "lng" : -96.554491
               },
               "southwest" : {
                  "lat" : 45.9350719,
                  "lng" : -104.05004
               }
            },
            "location" : {
               "lat" : 47.5514926,
               "lng" : -101.0020119
            },
            "location_type" : "APPROXIMATE",
            "viewport" : {
               "northeast" : {
                  "lat" : 49.000692,
                  "lng" : -96.554491
               },
               "southwest" : {
                  "lat" : 45.9350719,
                  "lng" : -104.05004
               }
            }
         },
         "place_id" : "ChIJY-nYVxKD11IRyc9egzmahA0",
         "types" : [ "administrative_area_level_1", "political" ]
      },
      {
         "address_components" : [
            {
               "long_name" : "United States",
               "short_name" : "US",
               "types" : [ "country", "political" ]
            }
         ],
         "formatted_address" : "United States",
         "geometry" : {
            "bounds" : {
               "northeast" : {
                  "lat" : 71.5388001,
                  "lng" : -66.885417
               },
               "southwest" : {
                  "lat" : 18.7763,
                  "lng" : 170.5957
               }
            },
            "location" : {
               "lat" : 37.09024,
               "lng" : -95.712891
            },
            "location_type" : "APPROXIMATE",
            "viewport" : {
               "northeast" : {
                  "lat" : 71.5388001,
                  "lng" : -66.885417
               },
               "southwest" : {
                  "lat" : 18.7763,
                  "lng" : 170.5957
               }
            }
         },
         "place_id" : "ChIJCzYy5IS16lQRQrfeQ5K5Oxw",
         "types" : [ "country", "political" ]
      }
   ],
   "status" : "OK"
}
