{
   "results" : [
      {
         "address_components" : [
            {
               "long_name" : "306",
               "short_name" : "306",
               "types" : [ "street_number" ]
            },
            {
               "long_name" : "Academy Street",
               "short_name" : "Academy St",
               "types" : [ "route" ]
            },
            {
               "long_name" : "Newark",
               "short_name" : "Newark",
               "types" : [ "locality", "political" ]
            },
            {
               "long_name" : "New Castle County",
               "short_name" : "New Castle County",
               "types" : [ "administrative_area_level_2", "political" ]
            },
            {
               "long_name" : "Delaware",
               "short_name" : "DE",
               "types" : [ "administrative_area_level_1", "political" ]
            },
            {
               "long_name" : "United States",
               "short_name" : "US",
               "types" : [ "country", "political" ]
            },
            {
               "long_name" : "19716",
               "short_name" : "19716",
               "types" : [ "postal_code" ]
            }
         ],
         "formatted_address" : "306 Academy St, Newark, DE 19716, USA",
         "geometry" : {
            "location" : {
               "lat" : 39.6781065,
               "lng" : -75.7499665
            },
            "location_type" : "RANGE_INTERPOLATED",
            "viewport" : {
               "northeast" : {
                  "lat" : 39.6794554802915,
                  "lng" : -75.7486175197085
               },
               "southwest" : {
                  "lat" : 39.6767575197085,
                  "lng" : -75.75131548029151
               }
            }
         },
         "place_id" : "EiUzMDYgQWNhZGVteSBTdCwgTmV3YXJrLCBERSAxOTcxNiwgVVNBIhsSGQoUChIJUzW8bS-qx4kRKl_Hb4GAzV4QsgI",
         "types" : [ "street_address" ]
      },
      {
         "address_components" : [
            {
               "long_name" : "Newark",
               "short_name" : "Newark",
               "types" : [ "locality", "political" ]
            },
            {
               "long_name" : "New Castle County",
               "short_name" : "New Castle County",
               "types" : [ "administrative_area_level_2", "political" ]
            },
            {
               "long_name" : "Delaware",
               "short_name" : "DE",
               "types" : [ "administrative_area_level_1", "political" ]
            },
            {
               "long_name" : "United States",
               "short_name" : "US",
               "types" : [ "country", "political" ]
            }
         ],
         "formatted_address" : "Newark, DE, USA",
         "geometry" : {
            "bounds" : {
               "northeast" : {
                  "lat" : 39.7149259,
                  "lng" : -75.7237789
               },
               "southwest" : {
                  "lat" : 39.642517,
                  "lng" : -75.7891309
               }
            },
            "location" : {
               "lat" : 39.6837226,
               "lng" : -75.74965720000002
            },
            "location_type" : "APPROXIMATE",
            "viewport" : {
               "northeast" : {
                  "lat" : 39.7149259,
                  "lng" : -75.7237789
               },
               "southwest" : {
                  "lat" : 39.642517,
                  "lng" : -75.7891309
               }
            }
         },
         "place_id" : "ChIJ64mX45p6x4kRXDhMl_JG4i4",
         "types" : [ "locality", "political" ]
      },
      {
         "address_components" : [
            {
               "long_name" : "19716",
               "short_name" : "19716",
               "types" : [ "postal_code" ]
            },
            {
               "long_name" : "Newark",
               "short_name" : "Newark",
               "types" : [ "locality", "political" ]
            },
            {
               "long_name" : "New Castle County",
               "short_name" : "New Castle County",
               "types" : [ "administrative_area_level_2", "political" ]
            },
            {
               "long_name" : "Delaware",
               "short_name" : "DE",
               "types" : [ "administrative_area_level_1", "political" ]
            },
            {
               "long_name" : "United States",
               "short_name" : "US",
               "types" : [ "country", "political" ]
            }
         ],
         "formatted_address" : "Newark, DE 19716, USA",
         "geometry" : {
            "bounds" : {
               "northeast" : {
                  "lat" : 39.68575990000001,
                  "lng" : -75.729153
               },
               "southwest" : {
                  "lat" : 39.66568789999999,
                  "lng" : -75.758298
               }
            },
            "location" : {
               "lat" : 39.6673566,
               "lng" : -75.75023139999999
            },
            "location_type" : "APPROXIMATE",
            "viewport" : {
               "northeast" : {
                  "lat" : 39.68575990000001,
                  "lng" : -75.729153
               },
               "southwest" : {
                  "lat" : 39.66568789999999,
                  "lng" : -75.758298
               }
            }
         },
         "place_id" : "ChIJGaNT86gAx4kRqcmDq_CGqZQ",
         "types" : [ "postal_code" ]
      },
      {
         "address_components" : [
            {
               "long_name" : "New Castle County",
               "short_name" : "New Castle County",
               "types" : [ "administrative_area_level_2", "political" ]
            },
            {
               "long_name" : "Delaware",
               "short_name" : "DE",
               "types" : [ "administrative_area_level_1", "political" ]
            },
            {
               "long_name" : "United States",
               "short_name" : "US",
               "types" : [ "country", "political" ]
            }
         ],
         "formatted_address" : "New Castle County, DE, USA",
         "geometry" : {
            "bounds" : {
               "northeast" : {
                  "lat" : 39.8394839,
                  "lng" : -75.40541379999999
               },
               "southwest" : {
                  "lat" : 39.290092,
                  "lng" : -75.78914790000002
               }
            },
            "location" : {
               "lat" : 39.5392979,
               "lng" : -75.667356
            },
            "location_type" : "APPROXIMATE",
            "viewport" : {
               "northeast" : {
                  "lat" : 39.8394839,
                  "lng" : -75.40541379999999
               },
               "southwest" : {
                  "lat" : 39.290092,
                  "lng" : -75.78914790000002
               }
            }
         },
         "place_id" : "ChIJh7_kg3Ybx4kR6L5mDoWESqw",
         "types" : [ "administrative_area_level_2", "political" ]
      },
      {
         "address_components" : [
            {
               "long_name" : "Delaware",
               "short_name" : "DE",
               "types" : [ "administrative_area_level_1", "political" ]
            },
            {
               "long_name" : "United States",
               "short_name" : "US",
               "types" : [ "country", "political" ]
            }
         ],
         "formatted_address" : "Delaware, USA",
         "geometry" : {
            "bounds" : {
               "northeast" : {
                  "lat" : 39.8394839,
                  "lng" : -74.98416499999999
               },
               "southwest" : {
                  "lat" : 38.451018,
                  "lng" : -75.78914790000002
               }
            },
            "location" : {
               "lat" : 38.9108325,
               "lng" : -75.52766989999999
            },
            "location_type" : "APPROXIMATE",
            "viewport" : {
               "northeast" : {
                  "lat" : 39.8394839,
                  "lng" : -74.98416499999999
               },
               "southwest" : {
                  "lat" : 38.451018,
                  "lng" : -75.78914790000002
               }
            }
         },
         "place_id" : "ChIJO9YMTXYFx4kReOgEjBItHZQ",
         "types" : [ "administrative_area_level_1", "political" ]
      },
      {
         "address_components" : [
            {
               "long_name" : "Philadelphia-Camden-Wilmington, PA-NJ-DE-MD",
               "short_name" : "Philadelphia-Camden-Wilmington, PA-NJ-DE-MD",
               "types" : [ "political" ]
            },
            {
               "long_name" : "United States",
               "short_name" : "US",
               "types" : [ "country", "political" ]
            }
         ],
         "formatted_address" : "Philadelphia-Camden-Wilmington, PA-NJ-DE-MD, USA",
         "geometry" : {
            "bounds" : {
               "northeast" : {
                  "lat" : 40.60858,
                  "lng" : -74.3898329
               },
               "southwest" : {
                  "lat" : 39.2899909,
                  "lng" : -76.23327689999999
               }
            },
            "location" : {
               "lat" : 39.8373479,
               "lng" : -75.1545381
            },
            "location_type" : "APPROXIMATE",
            "viewport" : {
               "northeast" : {
                  "lat" : 40.60858,
                  "lng" : -74.3898329
               },
               "southwest" : {
                  "lat" : 39.2899909,
                  "lng" : -76.23327689999999
               }
            }
         },
         "place_id" : "ChIJbT27-FDCxokRHNZVkPV7qUc",
         "types" : [ "political" ]
      },
      {
         "address_components" : [
            {
               "long_name" : "Philadelphia Metropolitan Area",
               "short_name" : "Philadelphia Metropolitan Area",
               "types" : [ "political" ]
            },
            {
               "long_name" : "United States",
               "short_name" : "US",
               "types" : [ "country", "political" ]
            }
         ],
         "formatted_address" : "Philadelphia Metropolitan Area, USA",
         "geometry" : {
            "bounds" : {
               "northeast" : {
                  "lat" : 40.6085799,
                  "lng" : -74.38978999999999
               },
               "southwest" : {
                  "lat" : 39.290092,
                  "lng" : -76.233279
               }
            },
            "location" : {
               "lat" : 39.9526322,
               "lng" : -75.1652419
            },
            "location_type" : "APPROXIMATE",
            "viewport" : {
               "northeast" : {
                  "lat" : 40.6085799,
                  "lng" : -74.38978999999999
               },
               "southwest" : {
                  "lat" : 39.290092,
                  "lng" : -76.233279
               }
            }
         },
         "place_id" : "ChIJqfSt85HBxokR0FHFe-7uZkA",
         "types" : [ "political" ]
      },
      {
         "address_components" : [
            {
               "long_name" : "United States",
               "short_name" : "US",
               "types" : [ "country", "political" ]
            }
         ],
         "formatted_address" : "United States",
         "geometry" : {
            "bounds" : {
               "northeast" : {
                  "lat" : 71.5388001,
                  "lng" : -66.885417
               },
               "southwest" : {
                  "lat" : 18.7763,
                  "lng" : 170.5957
               }
            },
            "location" : {
               "lat" : 37.09024,
               "lng" : -95.712891
            },
            "location_type" : "APPROXIMATE",
            "viewport" : {
               "northeast" : {
                  "lat" : 49.38,
                  "lng" : -66.94
               },
               "southwest" : {
                  "lat" : 25.82,
                  "lng" : -124.39
               }
            }
         },
         "place_id" : "ChIJCzYy5IS16lQRQrfeQ5K5Oxw",
         "types" : [ "country", "political" ]
      }
   ],
   "status" : "OK"
}
