{
   "plus_code" : {
      "compound_code" : "75R8+WH Xiacheng, Hangzhou, Zhejiang, China",
      "global_code" : "8Q2275R8+WH"
   },
   "results" : [
      {
         "address_components" : [
            {
               "long_name" : "Gongda 1st Road",
               "short_name" : "Gongda 1st Rd",
               "types" : [ "route" ]
            },
            {
               "long_name" : "Xiacheng Qu",
               "short_name" : "Xiacheng Qu",
               "types" : [ "political", "sublocality", "sublocality_level_1" ]
            },
            {
               "long_name" : "Hangzhou Shi",
               "short_name" : "Hangzhou Shi",
               "types" : [ "locality", "political" ]
            },
            {
               "long_name" : "Zhejiang Sheng",
               "short_name" : "Zhejiang Sheng",
               "types" : [ "administrative_area_level_1", "political" ]
            },
            {
               "long_name" : "China",
               "short_name" : "CN",
               "types" : [ "country", "political" ]
            },
            {
               "long_name" : "310004",
               "short_name" : "310004",
               "types" : [ "postal_code" ]
            }
         ],
         "formatted_address" : "Gongda 1st Rd, Xiacheng Qu, Hangzhou Shi, Zhejiang Sheng, China, 310004",
         "geometry" : {
            "bounds" : {
               "northeast" : {
                  "lat" : 30.2920048,
                  "lng" : 120.1667951
               },
               "southwest" : {
                  "lat" : 30.2918961,
                  "lng" : 120.1661167
               }
            },
            "location" : {
               "lat" : 30.2919504,
               "lng" : 120.1664559
            },
            "location_type" : "GEOMETRIC_CENTER",
            "viewport" : {
               "northeast" : {
                  "lat" : 30.2932994302915,
                  "lng" : 120.1678048802915
               },
               "southwest" : {
                  "lat" : 30.2906014697085,
                  "lng" : 120.1651069197085
               }
            }
         },
         "place_id" : "ChIJ_4MxufOdTDQR2GZkvxondWY",
         "types" : [ "route" ]
      },
      {
         "address_components" : [
            {
               "long_name" : "310004",
               "short_name" : "310004",
               "types" : [ "postal_code" ]
            },
            {
               "long_name" : "Xiacheng",
               "short_name" : "Xiacheng",
               "types" : [ "political", "sublocality", "sublocality_level_1" ]
            },
            {
               "long_name" : "Hangzhou",
               "short_name" : "Hangzhou",
               "types" : [ "locality", "political" ]
            },
            {
               "long_name" : "Zhejiang",
               "short_name" : "Zhejiang",
               "types" : [ "administrative_area_level_1", "political" ]
            },
            {
               "long_name" : "China",
               "short_name" : "CN",
               "types" : [ "country", "political" ]
            }
         ],
         "formatted_address" : "Xiacheng, Hangzhou, Zhejiang, China, 310004",
         "geometry" : {
            "bounds" : {
               "northeast" : {
                  "lat" : 30.3215291,
                  "lng" : 120.2051097
               },
               "southwest" : {
                  "lat" : 30.2575907,
                  "lng" : 120.1589304
               }
            },
            "location" : {
               "lat" : 30.2892518,
               "lng" : 120.1773239
            },
            "location_type" : "APPROXIMATE",
            "viewport" : {
               "northeast" : {
                  "lat" : 30.3215291,
                  "lng" : 120.2051097
               },
               "southwest" : {
                  "lat" : 30.2575907,
                  "lng" : 120.1589304
               }
            }
         },
         "place_id" : "ChIJCbOJk-udTDQRUKy_STY26yM",
         "types" : [ "postal_code" ]
      },
      {
         "address_components" : [
            {
               "long_name" : "Xiacheng",
               "short_name" : "Xiacheng",
               "types" : [ "political", "sublocality", "sublocality_level_1" ]
            },
            {
               "long_name" : "Hangzhou",
               "short_name" : "Hangzhou",
               "types" : [ "locality", "political" ]
            },
            {
               "long_name" : "Zhejiang",
               "short_name" : "Zhejiang",
               "types" : [ "administrative_area_level_1", "political" ]
            },
            {
               "long_name" : "China",
               "short_name" : "CN",
               "types" : [ "country", "political" ]
            }
         ],
         "formatted_address" : "Xiacheng, Hangzhou, Zhejiang, China",
         "geometry" : {
            "bounds" : {
               "northeast" : {
                  "lat" : 30.3543492,
                  "lng" : 120.2133321
               },
               "southwest" : {
                  "lat" : 30.2577888,
                  "lng" : 120.1530659
               }
            },
            "location" : {
               "lat" : 30.281862,
               "lng" : 120.180833
            },
            "location_type" : "APPROXIMATE",
            "viewport" : {
               "northeast" : {
                  "lat" : 30.3543492,
                  "lng" : 120.2133321
               },
               "southwest" : {
                  "lat" : 30.2577888,
                  "lng" : 120.1530659
               }
            }
         },
         "place_id" : "ChIJcZs9DuCdTDQRZuqlK9nhC5g",
         "types" : [ "political", "sublocality", "sublocality_level_1" ]
      },
      {
         "address_components" : [
            {
               "long_name" : "Hangzhou",
               "short_name" : "Hangzhou",
               "types" : [ "locality", "political" ]
            },
            {
               "long_name" : "Zhejiang",
               "short_name" : "Zhejiang",
               "types" : [ "administrative_area_level_1", "political" ]
            },
            {
               "long_name" : "China",
               "short_name" : "CN",
               "types" : [ "country", "political" ]
            }
         ],
         "formatted_address" : "Hangzhou, Zhejiang, China",
         "geometry" : {
            "bounds" : {
               "northeast" : {
                  "lat" : 30.5665162,
                  "lng" : 120.7219451
               },
               "southwest" : {
                  "lat" : 29.18875689999999,
                  "lng" : 118.3449333
               }
            },
            "location" : {
               "lat" : 30.274084,
               "lng" : 120.15507
            },
            "location_type" : "APPROXIMATE",
            "viewport" : {
               "northeast" : {
                  "lat" : 30.5665162,
                  "lng" : 120.7219451
               },
               "southwest" : {
                  "lat" : 29.18875689999999,
                  "lng" : 118.3449333
               }
            }
         },
         "place_id" : "ChIJmaqaQym2SzQROuhNgoPRv6c",
         "types" : [ "locality", "political" ]
      },
      {
         "address_components" : [
            {
               "long_name" : "Zhejiang",
               "short_name" : "Zhejiang",
               "types" : [ "administrative_area_level_1", "political" ]
            },
            {
               "long_name" : "China",
               "short_name" : "CN",
               "types" : [ "country", "political" ]
            }
         ],
         "formatted_address" : "Zhejiang, China",
         "geometry" : {
            "bounds" : {
               "northeast" : {
                  "lat" : 31.1787819,
                  "lng" : 122.9495085
               },
               "southwest" : {
                  "lat" : 27.0413557,
                  "lng" : 118.0282788
               }
            },
            "location" : {
               "lat" : 29.1416432,
               "lng" : 119.7889248
            },
            "location_type" : "APPROXIMATE",
            "viewport" : {
               "northeast" : {
                  "lat" : 31.1787819,
                  "lng" : 122.9495085
               },
               "southwest" : {
                  "lat" : 27.0413557,
                  "lng" : 118.0282788
               }
            }
         },
         "place_id" : "ChIJv8wKpTQSSTQRt3wYNsVx74E",
         "types" : [ "administrative_area_level_1", "political" ]
      },
      {
         "address_components" : [
            {
               "long_name" : "China",
               "short_name" : "CN",
               "types" : [ "country", "political" ]
            }
         ],
         "formatted_address" : "China",
         "geometry" : {
            "bounds" : {
               "northeast" : {
                  "lat" : 53.5609739,
                  "lng" : 134.7754563
               },
               "southwest" : {
                  "lat" : 17.9996,
                  "lng" : 73.4994136
               }
            },
            "location" : {
               "lat" : 35.86166,
               "lng" : 104.195397
            },
            "location_type" : "APPROXIMATE",
            "viewport" : {
               "northeast" : {
                  "lat" : 53.5609739,
                  "lng" : 134.7754563
               },
               "southwest" : {
                  "lat" : 17.9996,
                  "lng" : 73.4994136
               }
            }
         },
         "place_id" : "ChIJwULG5WSOUDERbzafNHyqHZU",
         "types" : [ "country", "political" ]
      }
   ],
   "status" : "OK"
}
