{
   "plus_code" : {
      "compound_code" : "5472+66 Clarksville, MD, USA",
      "global_code" : "87F55472+66"
   },
   "results" : [
      {
         "address_components" : [
            {
               "long_name" : "11100",
               "short_name" : "11100",
               "types" : [ "street_number" ]
            },
            {
               "long_name" : "Johns Hopkins Road",
               "short_name" : "Johns Hopkins Rd",
               "types" : [ "route" ]
            },
            {
               "long_name" : "Laurel",
               "short_name" : "Laurel",
               "types" : [ "locality", "political" ]
            },
            {
               "long_name" : "5, Clarksville",
               "short_name" : "5, Clarksville",
               "types" : [ "administrative_area_level_3", "political" ]
            },
            {
               "long_name" : "Howard County",
               "short_name" : "Howard County",
               "types" : [ "administrative_area_level_2", "political" ]
            },
            {
               "long_name" : "Maryland",
               "short_name" : "MD",
               "types" : [ "administrative_area_level_1", "political" ]
            },
            {
               "long_name" : "United States",
               "short_name" : "US",
               "types" : [ "country", "political" ]
            },
            {
               "long_name" : "20723",
               "short_name" : "20723",
               "types" : [ "postal_code" ]
            },
            {
               "long_name" : "6005",
               "short_name" : "6005",
               "types" : [ "postal_code_suffix" ]
            }
         ],
         "formatted_address" : "11100 Johns Hopkins Rd, Laurel, MD 20723, USA",
         "geometry" : {
            "location" : {
               "lat" : 39.1630996,
               "lng" : -76.899428
            },
            "location_type" : "ROOFTOP",
            "viewport" : {
               "northeast" : {
                  "lat" : 39.16444858029149,
                  "lng" : -76.8980790197085
               },
               "southwest" : {
                  "lat" : 39.1617506197085,
                  "lng" : -76.90077698029151
               }
            }
         },
         "place_id" : "ChIJpzvpPqPet4kRgnlmAPT2XQA",
         "plus_code" : {
            "compound_code" : "5472+66 Clarksville, 5, Clarksville, MD, United States",
            "global_code" : "87F55472+66"
         },
         "types" : [ "street_address" ]
      },
      {
         "address_components" : [
            {
               "long_name" : "11100",
               "short_name" : "11100",
               "types" : [ "street_number" ]
            },
            {
               "long_name" : "Johns Hopkins Road",
               "short_name" : "Johns Hopkins Rd",
               "types" : [ "route" ]
            },
            {
               "long_name" : "Laurel",
               "short_name" : "Laurel",
               "types" : [ "locality", "political" ]
            },
            {
               "long_name" : "5, Clarksville",
               "short_name" : "5, Clarksville",
               "types" : [ "administrative_area_level_3", "political" ]
            },
            {
               "long_name" : "Howard County",
               "short_name" : "Howard County",
               "types" : [ "administrative_area_level_2", "political" ]
            },
            {
               "long_name" : "Maryland",
               "short_name" : "MD",
               "types" : [ "administrative_area_level_1", "political" ]
            },
            {
               "long_name" : "United States",
               "short_name" : "US",
               "types" : [ "country", "political" ]
            },
            {
               "long_name" : "20723",
               "short_name" : "20723",
               "types" : [ "postal_code" ]
            },
            {
               "long_name" : "6005",
               "short_name" : "6005",
               "types" : [ "postal_code_suffix" ]
            }
         ],
         "formatted_address" : "11100 Johns Hopkins Rd, Laurel, MD 20723, USA",
         "geometry" : {
            "location" : {
               "lat" : 39.1630996,
               "lng" : -76.899428
            },
            "location_type" : "ROOFTOP",
            "viewport" : {
               "northeast" : {
                  "lat" : 39.16444858029149,
                  "lng" : -76.8980790197085
               },
               "southwest" : {
                  "lat" : 39.1617506197085,
                  "lng" : -76.90077698029151
               }
            }
         },
         "place_id" : "ChIJ9Xcywx3ft4kR0yTg2L3R0ZQ",
         "plus_code" : {
            "compound_code" : "5472+66 Clarksville, 5, Clarksville, MD, United States",
            "global_code" : "87F55472+66"
         },
         "types" : [ "establishment", "point_of_interest" ]
      },
      {
         "address_components" : [
            {
               "long_name" : "Building 1",
               "short_name" : "Building 1",
               "types" : [ "premise" ]
            },
            {
               "long_name" : "11100",
               "short_name" : "11100",
               "types" : [ "street_number" ]
            },
            {
               "long_name" : "Johns Hopkins Road",
               "short_name" : "Johns Hopkins Rd",
               "types" : [ "route" ]
            },
            {
               "long_name" : "Laurel",
               "short_name" : "Laurel",
               "types" : [ "locality", "political" ]
            },
            {
               "long_name" : "5, Clarksville",
               "short_name" : "5, Clarksville",
               "types" : [ "administrative_area_level_3", "political" ]
            },
            {
               "long_name" : "Howard County",
               "short_name" : "Howard County",
               "types" : [ "administrative_area_level_2", "political" ]
            },
            {
               "long_name" : "Maryland",
               "short_name" : "MD",
               "types" : [ "administrative_area_level_1", "political" ]
            },
            {
               "long_name" : "United States",
               "short_name" : "US",
               "types" : [ "country", "political" ]
            },
            {
               "long_name" : "20723",
               "short_name" : "20723",
               "types" : [ "postal_code" ]
            }
         ],
         "formatted_address" : "Building 1, 11100 Johns Hopkins Rd, Laurel, MD 20723, USA",
         "geometry" : {
            "bounds" : {
               "northeast" : {
                  "lat" : 39.1636252,
                  "lng" : -76.89743829999999
               },
               "southwest" : {
                  "lat" : 39.1628089,
                  "lng" : -76.90023269999999
               }
            },
            "location" : {
               "lat" : 39.1634929,
               "lng" : -76.8984566
            },
            "location_type" : "ROOFTOP",
            "viewport" : {
               "northeast" : {
                  "lat" : 39.1645660302915,
                  "lng" : -76.89743829999999
               },
               "southwest" : {
                  "lat" : 39.1618680697085,
                  "lng" : -76.90023269999999
               }
            }
         },
         "place_id" : "ChIJVYLWyqPet4kRLL_9u_t4me4",
         "types" : [ "premise" ]
      },
      {
         "address_components" : [
            {
               "long_name" : "APL Drive",
               "short_name" : "APL Dr",
               "types" : [ "route" ]
            },
            {
               "long_name" : "Laurel",
               "short_name" : "Laurel",
               "types" : [ "locality", "political" ]
            },
            {
               "long_name" : "5, Clarksville",
               "short_name" : "5, Clarksville",
               "types" : [ "administrative_area_level_3", "political" ]
            },
            {
               "long_name" : "Howard County",
               "short_name" : "Howard County",
               "types" : [ "administrative_area_level_2", "political" ]
            },
            {
               "long_name" : "Maryland",
               "short_name" : "MD",
               "types" : [ "administrative_area_level_1", "political" ]
            },
            {
               "long_name" : "United States",
               "short_name" : "US",
               "types" : [ "country", "political" ]
            },
            {
               "long_name" : "20723",
               "short_name" : "20723",
               "types" : [ "postal_code" ]
            }
         ],
         "formatted_address" : "APL Dr, Laurel, MD 20723, USA",
         "geometry" : {
            "bounds" : {
               "northeast" : {
                  "lat" : 39.1625538,
                  "lng" : -76.8995429
               },
               "southwest" : {
                  "lat" : 39.1622909,
                  "lng" : -76.89957240000001
               }
            },
            "location" : {
               "lat" : 39.1624223,
               "lng" : -76.89955759999999
            },
            "location_type" : "GEOMETRIC_CENTER",
            "viewport" : {
               "northeast" : {
                  "lat" : 39.1637713302915,
                  "lng" : -76.89820866970851
               },
               "southwest" : {
                  "lat" : 39.1610733697085,
                  "lng" : -76.90090663029152
               }
            }
         },
         "place_id" : "ChIJR6uSX6Het4kRvLB6Uy4lL-k",
         "types" : [ "route" ]
      },
      {
         "address_components" : [
            {
               "long_name" : "20723",
               "short_name" : "20723",
               "types" : [ "postal_code" ]
            },
            {
               "long_name" : "Laurel",
               "short_name" : "Laurel",
               "types" : [ "locality", "political" ]
            },
            {
               "long_name" : "Howard County",
               "short_name" : "Howard County",
               "types" : [ "administrative_area_level_2", "political" ]
            },
            {
               "long_name" : "Maryland",
               "short_name" : "MD",
               "types" : [ "administrative_area_level_1", "political" ]
            },
            {
               "long_name" : "United States",
               "short_name" : "US",
               "types" : [ "country", "political" ]
            }
         ],
         "formatted_address" : "Laurel, MD 20723, USA",
         "geometry" : {
            "bounds" : {
               "northeast" : {
                  "lat" : 39.1811439,
                  "lng" : -76.8136841
               },
               "southwest" : {
                  "lat" : 39.1049639,
                  "lng" : -76.9189239
               }
            },
            "location" : {
               "lat" : 39.1426709,
               "lng" : -76.86056499999999
            },
            "location_type" : "APPROXIMATE",
            "viewport" : {
               "northeast" : {
                  "lat" : 39.1811439,
                  "lng" : -76.8136841
               },
               "southwest" : {
                  "lat" : 39.1049639,
                  "lng" : -76.9189239
               }
            }
         },
         "place_id" : "ChIJCd3URMvdt4kReXzXJWCVeBI",
         "types" : [ "postal_code" ]
      },
      {
         "address_components" : [
            {
               "long_name" : "5, Clarksville",
               "short_name" : "5, Clarksville",
               "types" : [ "administrative_area_level_3", "political" ]
            },
            {
               "long_name" : "Howard County",
               "short_name" : "Howard County",
               "types" : [ "administrative_area_level_2", "political" ]
            },
            {
               "long_name" : "Maryland",
               "short_name" : "MD",
               "types" : [ "administrative_area_level_1", "political" ]
            },
            {
               "long_name" : "United States",
               "short_name" : "US",
               "types" : [ "country", "political" ]
            }
         ],
         "formatted_address" : "5, Clarksville, MD, USA",
         "geometry" : {
            "bounds" : {
               "northeast" : {
                  "lat" : 39.264636,
                  "lng" : -76.837362
               },
               "southwest" : {
                  "lat" : 39.129407,
                  "lng" : -77.04100099999999
               }
            },
            "location" : {
               "lat" : 39.2234413,
               "lng" : -76.94126009999999
            },
            "location_type" : "APPROXIMATE",
            "viewport" : {
               "northeast" : {
                  "lat" : 39.264636,
                  "lng" : -76.837362
               },
               "southwest" : {
                  "lat" : 39.129407,
                  "lng" : -77.04100099999999
               }
            }
         },
         "place_id" : "ChIJcXin9BDZt4kR2rQOCv8dFuc",
         "types" : [ "administrative_area_level_3", "political" ]
      },
      {
         "address_components" : [
            {
               "long_name" : "Howard County",
               "short_name" : "Howard County",
               "types" : [ "administrative_area_level_2", "political" ]
            },
            {
               "long_name" : "Maryland",
               "short_name" : "MD",
               "types" : [ "administrative_area_level_1", "political" ]
            },
            {
               "long_name" : "United States",
               "short_name" : "US",
               "types" : [ "country", "political" ]
            }
         ],
         "formatted_address" : "Howard County, MD, USA",
         "geometry" : {
            "bounds" : {
               "northeast" : {
                  "lat" : 39.369162,
                  "lng" : -76.69732479999999
               },
               "southwest" : {
                  "lat" : 39.10313,
                  "lng" : -77.1871129
               }
            },
            "location" : {
               "lat" : 39.2873463,
               "lng" : -76.96430599999999
            },
            "location_type" : "APPROXIMATE",
            "viewport" : {
               "northeast" : {
                  "lat" : 39.369162,
                  "lng" : -76.69732479999999
               },
               "southwest" : {
                  "lat" : 39.10313,
                  "lng" : -77.1871129
               }
            }
         },
         "place_id" : "ChIJH5jhq5AmyIkRktjkA__Uilo",
         "types" : [ "administrative_area_level_2", "political" ]
      },
      {
         "address_components" : [
            {
               "long_name" : "Maryland",
               "short_name" : "Maryland",
               "types" : [ "administrative_area_level_1", "political" ]
            },
            {
               "long_name" : "United States",
               "short_name" : "US",
               "types" : [ "country", "political" ]
            }
         ],
         "formatted_address" : "Maryland, USA",
         "geometry" : {
            "bounds" : {
               "northeast" : {
                  "lat" : 39.723037,
                  "lng" : -74.98628189999999
               },
               "southwest" : {
                  "lat" : 37.8866049,
                  "lng" : -79.48765109999999
               }
            },
            "location" : {
               "lat" : 39.0457549,
               "lng" : -76.64127119999999
            },
            "location_type" : "APPROXIMATE",
            "viewport" : {
               "northeast" : {
                  "lat" : 39.723037,
                  "lng" : -74.98628189999999
               },
               "southwest" : {
                  "lat" : 37.8866049,
                  "lng" : -79.48765109999999
               }
            }
         },
         "place_id" : "ChIJ35Dx6etNtokRsfZVdmU3r_I",
         "types" : [ "administrative_area_level_1", "political" ]
      },
      {
         "address_components" : [
            {
               "long_name" : "United States",
               "short_name" : "US",
               "types" : [ "country", "political" ]
            }
         ],
         "formatted_address" : "United States",
         "geometry" : {
            "bounds" : {
               "northeast" : {
                  "lat" : 71.5388001,
                  "lng" : -66.885417
               },
               "southwest" : {
                  "lat" : 18.7763,
                  "lng" : 170.5957
               }
            },
            "location" : {
               "lat" : 37.09024,
               "lng" : -95.712891
            },
            "location_type" : "APPROXIMATE",
            "viewport" : {
               "northeast" : {
                  "lat" : 71.5388001,
                  "lng" : -66.885417
               },
               "southwest" : {
                  "lat" : 18.7763,
                  "lng" : 170.5957
               }
            }
         },
         "place_id" : "ChIJCzYy5IS16lQRQrfeQ5K5Oxw",
         "types" : [ "country", "political" ]
      }
   ],
   "status" : "OK"
}
