{
   "results" : [
      {
         "address_components" : [
            {
               "long_name" : "1",
               "short_name" : "1",
               "types" : [ "street_number" ]
            },
            {
               "long_name" : "Wellington Square",
               "short_name" : "Wellington Square",
               "types" : [ "route" ]
            },
            {
               "long_name" : "Oxford",
               "short_name" : "Oxford",
               "types" : [ "locality", "political" ]
            },
            {
               "long_name" : "Oxford",
               "short_name" : "Oxford",
               "types" : [ "postal_town" ]
            },
            {
               "long_name" : "Oxfordshire",
               "short_name" : "Oxfordshire",
               "types" : [ "administrative_area_level_2", "political" ]
            },
            {
               "long_name" : "England",
               "short_name" : "England",
               "types" : [ "administrative_area_level_1", "political" ]
            },
            {
               "long_name" : "United Kingdom",
               "short_name" : "GB",
               "types" : [ "country", "political" ]
            },
            {
               "long_name" : "OX1 2HY",
               "short_name" : "OX1 2HY",
               "types" : [ "postal_code" ]
            }
         ],
         "formatted_address" : "1 Wellington Square, Oxford OX1 2HY, UK",
         "geometry" : {
            "location" : {
               "lat" : 51.7572244,
               "lng" : -1.2621562
            },
            "location_type" : "ROOFTOP",
            "viewport" : {
               "northeast" : {
                  "lat" : 51.7585733802915,
                  "lng" : -1.260807219708498
               },
               "southwest" : {
                  "lat" : 51.7558754197085,
                  "lng" : -1.263505180291502
               }
            }
         },
         "place_id" : "ChIJC8yO8qbGdkgRYkTuj_y3dew",
         "types" : [ "street_address" ]
      },
      {
         "address_components" : [
            {
               "long_name" : "University Offices",
               "short_name" : "University Offices",
               "types" : [ "premise" ]
            },
            {
               "long_name" : "Wellington Square",
               "short_name" : "Wellington Square",
               "types" : [ "route" ]
            },
            {
               "long_name" : "Oxford",
               "short_name" : "Oxford",
               "types" : [ "locality", "political" ]
            },
            {
               "long_name" : "Oxford",
               "short_name" : "Oxford",
               "types" : [ "postal_town" ]
            },
            {
               "long_name" : "Oxfordshire",
               "short_name" : "Oxfordshire",
               "types" : [ "administrative_area_level_2", "political" ]
            },
            {
               "long_name" : "England",
               "short_name" : "England",
               "types" : [ "administrative_area_level_1", "political" ]
            },
            {
               "long_name" : "United Kingdom",
               "short_name" : "GB",
               "types" : [ "country", "political" ]
            },
            {
               "long_name" : "OX1 2JD",
               "short_name" : "OX1 2JD",
               "types" : [ "postal_code" ]
            }
         ],
         "formatted_address" : "University Offices, Wellington Square, Oxford OX1 2JD, UK",
         "geometry" : {
            "location" : {
               "lat" : 51.7580805,
               "lng" : -1.2622362
            },
            "location_type" : "ROOFTOP",
            "viewport" : {
               "northeast" : {
                  "lat" : 51.75942948029149,
                  "lng" : -1.260887219708498
               },
               "southwest" : {
                  "lat" : 51.7567315197085,
                  "lng" : -1.263585180291502
               }
            }
         },
         "place_id" : "ChIJj9Sr_KbGdkgRz28hVp10nYU",
         "types" : [ "premise" ]
      },
      {
         "address_components" : [
            {
               "long_name" : "Oxford",
               "short_name" : "Oxford",
               "types" : [ "locality", "political" ]
            },
            {
               "long_name" : "Oxford",
               "short_name" : "Oxford",
               "types" : [ "postal_town" ]
            },
            {
               "long_name" : "Oxfordshire",
               "short_name" : "Oxfordshire",
               "types" : [ "administrative_area_level_2", "political" ]
            },
            {
               "long_name" : "England",
               "short_name" : "England",
               "types" : [ "administrative_area_level_1", "political" ]
            },
            {
               "long_name" : "United Kingdom",
               "short_name" : "GB",
               "types" : [ "country", "political" ]
            }
         ],
         "formatted_address" : "Oxford, UK",
         "geometry" : {
            "bounds" : {
               "northeast" : {
                  "lat" : 51.7963006,
                  "lng" : -1.1751763
               },
               "southwest" : {
                  "lat" : 51.704532,
                  "lng" : -1.3199994
               }
            },
            "location" : {
               "lat" : 51.7520209,
               "lng" : -1.2577263
            },
            "location_type" : "APPROXIMATE",
            "viewport" : {
               "northeast" : {
                  "lat" : 51.7963006,
                  "lng" : -1.1751763
               },
               "southwest" : {
                  "lat" : 51.704532,
                  "lng" : -1.3199994
               }
            }
         },
         "place_id" : "ChIJrx_ErYAzcUgRAnRUy6jbIMg",
         "types" : [ "locality", "political" ]
      },
      {
         "address_components" : [
            {
               "long_name" : "OX1 2JA",
               "short_name" : "OX1 2JA",
               "types" : [ "postal_code" ]
            },
            {
               "long_name" : "Oxford",
               "short_name" : "Oxford",
               "types" : [ "locality", "political" ]
            },
            {
               "long_name" : "Oxford",
               "short_name" : "Oxford",
               "types" : [ "postal_town" ]
            },
            {
               "long_name" : "Oxfordshire",
               "short_name" : "Oxfordshire",
               "types" : [ "administrative_area_level_2", "political" ]
            },
            {
               "long_name" : "England",
               "short_name" : "England",
               "types" : [ "administrative_area_level_1", "political" ]
            },
            {
               "long_name" : "United Kingdom",
               "short_name" : "GB",
               "types" : [ "country", "political" ]
            }
         ],
         "formatted_address" : "Oxford OX1 2JA, UK",
         "geometry" : {
            "bounds" : {
               "northeast" : {
                  "lat" : 51.7574537,
                  "lng" : -1.2615977
               },
               "southwest" : {
                  "lat" : 51.75684039999999,
                  "lng" : -1.2625653
               }
            },
            "location" : {
               "lat" : 51.7570942,
               "lng" : -1.2620545
            },
            "location_type" : "APPROXIMATE",
            "viewport" : {
               "northeast" : {
                  "lat" : 51.7584960302915,
                  "lng" : -1.260732519708498
               },
               "southwest" : {
                  "lat" : 51.7557980697085,
                  "lng" : -1.263430480291502
               }
            }
         },
         "place_id" : "ChIJDw8vjabGdkgRw6ge-bqYS2o",
         "types" : [ "postal_code" ]
      },
      {
         "address_components" : [
            {
               "long_name" : "OX1",
               "short_name" : "OX1",
               "types" : [ "postal_code", "postal_code_prefix" ]
            },
            {
               "long_name" : "Oxford",
               "short_name" : "Oxford",
               "types" : [ "postal_town" ]
            },
            {
               "long_name" : "Oxfordshire",
               "short_name" : "Oxfordshire",
               "types" : [ "administrative_area_level_2", "political" ]
            },
            {
               "long_name" : "England",
               "short_name" : "England",
               "types" : [ "administrative_area_level_1", "political" ]
            },
            {
               "long_name" : "United Kingdom",
               "short_name" : "GB",
               "types" : [ "country", "political" ]
            }
         ],
         "formatted_address" : "Oxford OX1, UK",
         "geometry" : {
            "bounds" : {
               "northeast" : {
                  "lat" : 51.76511490000001,
                  "lng" : -1.233607
               },
               "southwest" : {
                  "lat" : 51.7032726,
                  "lng" : -1.329731
               }
            },
            "location" : {
               "lat" : 51.7239721,
               "lng" : -1.2751145
            },
            "location_type" : "APPROXIMATE",
            "viewport" : {
               "northeast" : {
                  "lat" : 51.76511490000001,
                  "lng" : -1.233607
               },
               "southwest" : {
                  "lat" : 51.7032726,
                  "lng" : -1.329731
               }
            }
         },
         "place_id" : "ChIJ68nSVczAdkgRKB4iVHgbP8Q",
         "types" : [ "postal_code", "postal_code_prefix" ]
      },
      {
         "address_components" : [
            {
               "long_name" : "Oxford",
               "short_name" : "Oxford",
               "types" : [ "administrative_area_level_3", "political" ]
            },
            {
               "long_name" : "Oxford",
               "short_name" : "Oxford",
               "types" : [ "locality", "political" ]
            },
            {
               "long_name" : "Oxford",
               "short_name" : "Oxford",
               "types" : [ "postal_town" ]
            },
            {
               "long_name" : "Oxfordshire",
               "short_name" : "Oxfordshire",
               "types" : [ "administrative_area_level_2", "political" ]
            },
            {
               "long_name" : "England",
               "short_name" : "England",
               "types" : [ "administrative_area_level_1", "political" ]
            },
            {
               "long_name" : "United Kingdom",
               "short_name" : "GB",
               "types" : [ "country", "political" ]
            }
         ],
         "formatted_address" : "Oxford, UK",
         "geometry" : {
            "bounds" : {
               "northeast" : {
                  "lat" : 51.7963006,
                  "lng" : -1.1758134
               },
               "southwest" : {
                  "lat" : 51.71093620000001,
                  "lng" : -1.3042449
               }
            },
            "location" : {
               "lat" : 51.7507856,
               "lng" : -1.2338697
            },
            "location_type" : "APPROXIMATE",
            "viewport" : {
               "northeast" : {
                  "lat" : 51.7963006,
                  "lng" : -1.1758134
               },
               "southwest" : {
                  "lat" : 51.71093620000001,
                  "lng" : -1.3042449
               }
            }
         },
         "place_id" : "ChIJqQsoql3BdkgRIIqX1COLDQQ",
         "types" : [ "administrative_area_level_3", "political" ]
      },
      {
         "address_components" : [
            {
               "long_name" : "Oxford",
               "short_name" : "Oxford",
               "types" : [ "postal_town" ]
            },
            {
               "long_name" : "Oxfordshire",
               "short_name" : "Oxfordshire",
               "types" : [ "administrative_area_level_2", "political" ]
            },
            {
               "long_name" : "England",
               "short_name" : "England",
               "types" : [ "administrative_area_level_1", "political" ]
            },
            {
               "long_name" : "United Kingdom",
               "short_name" : "GB",
               "types" : [ "country", "political" ]
            }
         ],
         "formatted_address" : "Oxford, UK",
         "geometry" : {
            "bounds" : {
               "northeast" : {
                  "lat" : 51.824766,
                  "lng" : -1.0219056
               },
               "southwest" : {
                  "lat" : 51.65596619999999,
                  "lng" : -1.3696223
               }
            },
            "location" : {
               "lat" : 51.740858,
               "lng" : -1.1728387
            },
            "location_type" : "APPROXIMATE",
            "viewport" : {
               "northeast" : {
                  "lat" : 51.824766,
                  "lng" : -1.0219056
               },
               "southwest" : {
                  "lat" : 51.65596619999999,
                  "lng" : -1.3696223
               }
            }
         },
         "place_id" : "ChIJd8bcHqDBdkgRV0JUSxziqv0",
         "types" : [ "postal_town" ]
      },
      {
         "address_components" : [
            {
               "long_name" : "Oxfordshire",
               "short_name" : "Oxfordshire",
               "types" : [ "administrative_area_level_2", "political" ]
            },
            {
               "long_name" : "England",
               "short_name" : "England",
               "types" : [ "administrative_area_level_1", "political" ]
            },
            {
               "long_name" : "United Kingdom",
               "short_name" : "GB",
               "types" : [ "country", "political" ]
            }
         ],
         "formatted_address" : "Oxfordshire, UK",
         "geometry" : {
            "bounds" : {
               "northeast" : {
                  "lat" : 52.16847139999999,
                  "lng" : -0.8700833
               },
               "southwest" : {
                  "lat" : 51.4594132,
                  "lng" : -1.7195008
               }
            },
            "location" : {
               "lat" : 51.7612056,
               "lng" : -1.2464674
            },
            "location_type" : "APPROXIMATE",
            "viewport" : {
               "northeast" : {
                  "lat" : 52.16847139999999,
                  "lng" : -0.8700833
               },
               "southwest" : {
                  "lat" : 51.4594132,
                  "lng" : -1.7195008
               }
            }
         },
         "place_id" : "ChIJ5xOOaNPUcEgRUY89nbaaqW8",
         "types" : [ "administrative_area_level_2", "political" ]
      },
      {
         "address_components" : [
            {
               "long_name" : "South East",
               "short_name" : "South East",
               "types" : [ "political" ]
            },
            {
               "long_name" : "England",
               "short_name" : "England",
               "types" : [ "administrative_area_level_1", "political" ]
            },
            {
               "long_name" : "United Kingdom",
               "short_name" : "GB",
               "types" : [ "country", "political" ]
            }
         ],
         "formatted_address" : "South East, UK",
         "geometry" : {
            "bounds" : {
               "northeast" : {
                  "lat" : 52.196285,
                  "lng" : 1.4518184
               },
               "southwest" : {
                  "lat" : 50.5746064,
                  "lng" : -1.9572961
               }
            },
            "location" : {
               "lat" : 51.17812,
               "lng" : -0.5595644000000001
            },
            "location_type" : "APPROXIMATE",
            "viewport" : {
               "northeast" : {
                  "lat" : 52.196285,
                  "lng" : 1.4518184
               },
               "southwest" : {
                  "lat" : 50.5746064,
                  "lng" : -1.9572961
               }
            }
         },
         "place_id" : "ChIJ17zNL3Q5dEgRHp0A3s84zfo",
         "types" : [ "political" ]
      },
      {
         "address_components" : [
            {
               "long_name" : "England",
               "short_name" : "England",
               "types" : [ "administrative_area_level_1", "political" ]
            },
            {
               "long_name" : "United Kingdom",
               "short_name" : "GB",
               "types" : [ "country", "political" ]
            }
         ],
         "formatted_address" : "England, UK",
         "geometry" : {
            "bounds" : {
               "northeast" : {
                  "lat" : 55.81165979999999,
                  "lng" : 1.7629159
               },
               "southwest" : {
                  "lat" : 49.8647411,
                  "lng" : -6.4185458
               }
            },
            "location" : {
               "lat" : 52.3555177,
               "lng" : -1.1743197
            },
            "location_type" : "APPROXIMATE",
            "viewport" : {
               "northeast" : {
                  "lat" : 55.81165979999999,
                  "lng" : 1.7629159
               },
               "southwest" : {
                  "lat" : 49.8647411,
                  "lng" : -6.4185458
               }
            }
         },
         "place_id" : "ChIJ39UebIqp0EcRqI4tMyWV4fQ",
         "types" : [ "administrative_area_level_1", "political" ]
      },
      {
         "address_components" : [
            {
               "long_name" : "United Kingdom",
               "short_name" : "GB",
               "types" : [ "country", "political" ]
            }
         ],
         "formatted_address" : "United Kingdom",
         "geometry" : {
            "bounds" : {
               "northeast" : {
                  "lat" : 60.91569999999999,
                  "lng" : 33.9165549
               },
               "southwest" : {
                  "lat" : 34.5614,
                  "lng" : -8.8988999
               }
            },
            "location" : {
               "lat" : 55.378051,
               "lng" : -3.435973
            },
            "location_type" : "APPROXIMATE",
            "viewport" : {
               "northeast" : {
                  "lat" : 60.91569999999999,
                  "lng" : 33.9165549
               },
               "southwest" : {
                  "lat" : 34.5614,
                  "lng" : -8.8988999
               }
            }
         },
         "place_id" : "ChIJqZHHQhE7WgIReiWIMkOg-MQ",
         "types" : [ "country", "political" ]
      }
   ],
   "status" : "OK"
}
