{
   "plus_code" : {
      "compound_code" : "G8X7+XG Santiago, Chile",
      "global_code" : "47RFG8X7+XG"
   },
   "results" : [
      {
         "address_components" : [
            {
               "long_name" : "3363",
               "short_name" : "3363",
               "types" : [ "street_number" ]
            },
            {
               "long_name" : "Avenida Libertador Bernardo O'Higgins",
               "short_name" : "Av Libertador Bernardo O'Higgins",
               "types" : [ "route" ]
            },
            {
               "long_name" : "Santiago",
               "short_name" : "Santiago",
               "types" : [ "locality", "political" ]
            },
            {
               "long_name" : "Estación Central",
               "short_name" : "Estación Central",
               "types" : [ "administrative_area_level_3", "political" ]
            },
            {
               "long_name" : "Santiago",
               "short_name" : "Santiago",
               "types" : [ "administrative_area_level_2", "political" ]
            },
            {
               "long_name" : "Región Metropolitana",
               "short_name" : "Región Metropolitana",
               "types" : [ "administrative_area_level_1", "political" ]
            },
            {
               "long_name" : "Chile",
               "short_name" : "CL",
               "types" : [ "country", "political" ]
            }
         ],
         "formatted_address" : "Av Libertador Bernardo O'Higgins 3363, Santiago, Estación Central, Región Metropolitana, Chile",
         "geometry" : {
            "location" : {
               "lat" : -33.4500338,
               "lng" : -70.6861614
            },
            "location_type" : "ROOFTOP",
            "viewport" : {
               "northeast" : {
                  "lat" : -33.4486848197085,
                  "lng" : -70.68481241970851
               },
               "southwest" : {
                  "lat" : -33.4513827802915,
                  "lng" : -70.68751038029151
               }
            }
         },
         "place_id" : "ChIJTf1uC_jEYpYRj3BAGPGySOo",
         "plus_code" : {
            "compound_code" : "G8X7+XG Santiago, Chile",
            "global_code" : "47RFG8X7+XG"
         },
         "types" : [ "establishment", "point_of_interest", "university" ]
      },
      {
         "address_components" : [
            {
               "long_name" : "Patio de los Naranjos",
               "short_name" : "Patio de los Naranjos",
               "types" : [ "route" ]
            },
            {
               "long_name" : "Santiago",
               "short_name" : "Santiago",
               "types" : [ "locality", "political" ]
            },
            {
               "long_name" : "Estación Central",
               "short_name" : "Estación Central",
               "types" : [ "administrative_area_level_3", "political" ]
            },
            {
               "long_name" : "Santiago",
               "short_name" : "Santiago",
               "types" : [ "administrative_area_level_2", "political" ]
            },
            {
               "long_name" : "Región Metropolitana",
               "short_name" : "Región Metropolitana",
               "types" : [ "administrative_area_level_1", "political" ]
            },
            {
               "long_name" : "Chile",
               "short_name" : "CL",
               "types" : [ "country", "political" ]
            }
         ],
         "formatted_address" : "Patio de los Naranjos, Santiago, Estación Central, Región Metropolitana, Chile",
         "geometry" : {
            "bounds" : {
               "northeast" : {
                  "lat" : -33.450112,
                  "lng" : -70.6855195
               },
               "southwest" : {
                  "lat" : -33.4502009,
                  "lng" : -70.6855437
               }
            },
            "location" : {
               "lat" : -33.4501564,
               "lng" : -70.68553159999999
            },
            "location_type" : "GEOMETRIC_CENTER",
            "viewport" : {
               "northeast" : {
                  "lat" : -33.44880746970851,
                  "lng" : -70.68418261970849
               },
               "southwest" : {
                  "lat" : -33.4515054302915,
                  "lng" : -70.68688058029151
               }
            }
         },
         "place_id" : "ChIJz3q16ljEYpYRVnNn6TlAc8A",
         "types" : [ "route" ]
      },
      {
         "address_components" : [
            {
               "long_name" : "Estación Central",
               "short_name" : "Estación Central",
               "types" : [ "administrative_area_level_3", "political" ]
            },
            {
               "long_name" : "Santiago",
               "short_name" : "Santiago",
               "types" : [ "locality", "political" ]
            },
            {
               "long_name" : "Santiago Province",
               "short_name" : "Santiago Province",
               "types" : [ "administrative_area_level_2", "political" ]
            },
            {
               "long_name" : "Santiago Metropolitan Region",
               "short_name" : "Santiago Metropolitan Region",
               "types" : [ "administrative_area_level_1", "political" ]
            },
            {
               "long_name" : "Chile",
               "short_name" : "CL",
               "types" : [ "country", "political" ]
            }
         ],
         "formatted_address" : "Santiago, Estación Central, Santiago Metropolitan Region, Chile",
         "geometry" : {
            "bounds" : {
               "northeast" : {
                  "lat" : -33.4438522,
                  "lng" : -70.67292519999999
               },
               "southwest" : {
                  "lat" : -33.4813479,
                  "lng" : -70.7335423
               }
            },
            "location" : {
               "lat" : -33.4590774,
               "lng" : -70.6990045
            },
            "location_type" : "APPROXIMATE",
            "viewport" : {
               "northeast" : {
                  "lat" : -33.4438522,
                  "lng" : -70.67292519999999
               },
               "southwest" : {
                  "lat" : -33.4813479,
                  "lng" : -70.7335423
               }
            }
         },
         "place_id" : "ChIJcaLTqI_EYpYRwziWaen1_SE",
         "types" : [ "administrative_area_level_3", "political" ]
      },
      {
         "address_components" : [
            {
               "long_name" : "Santiago",
               "short_name" : "Santiago",
               "types" : [ "locality", "political" ]
            },
            {
               "long_name" : "Santiago",
               "short_name" : "Santiago",
               "types" : [ "administrative_area_level_3", "political" ]
            },
            {
               "long_name" : "Santiago Province",
               "short_name" : "Santiago Province",
               "types" : [ "administrative_area_level_2", "political" ]
            },
            {
               "long_name" : "Santiago Metropolitan Region",
               "short_name" : "Santiago Metropolitan Region",
               "types" : [ "administrative_area_level_1", "political" ]
            },
            {
               "long_name" : "Chile",
               "short_name" : "CL",
               "types" : [ "country", "political" ]
            }
         ],
         "formatted_address" : "Santiago, Santiago Metropolitan Region, Chile",
         "geometry" : {
            "bounds" : {
               "northeast" : {
                  "lat" : -33.425617,
                  "lng" : -70.6251297
               },
               "southwest" : {
                  "lat" : -33.4811177,
                  "lng" : -70.7332574
               }
            },
            "location" : {
               "lat" : -33.4378305,
               "lng" : -70.6504492
            },
            "location_type" : "APPROXIMATE",
            "viewport" : {
               "northeast" : {
                  "lat" : -33.425617,
                  "lng" : -70.6251297
               },
               "southwest" : {
                  "lat" : -33.4811177,
                  "lng" : -70.7332574
               }
            }
         },
         "place_id" : "ChIJuzrymgbQYpYRl0jtCfRZnYc",
         "types" : [ "locality", "political" ]
      },
      {
         "address_components" : [
            {
               "long_name" : "Santiago",
               "short_name" : "Santiago",
               "types" : [ "colloquial_area", "locality", "political" ]
            },
            {
               "long_name" : "Santiago Province",
               "short_name" : "Santiago Province",
               "types" : [ "administrative_area_level_2", "political" ]
            },
            {
               "long_name" : "Santiago Metropolitan Region",
               "short_name" : "Santiago Metropolitan Region",
               "types" : [ "administrative_area_level_1", "political" ]
            },
            {
               "long_name" : "Chile",
               "short_name" : "CL",
               "types" : [ "country", "political" ]
            }
         ],
         "formatted_address" : "Santiago, Santiago Metropolitan Region, Chile",
         "geometry" : {
            "bounds" : {
               "northeast" : {
                  "lat" : -33.2713874,
                  "lng" : -70.42678069999999
               },
               "southwest" : {
                  "lat" : -33.6741885,
                  "lng" : -70.8328819
               }
            },
            "location" : {
               "lat" : -33.4488897,
               "lng" : -70.66926549999999
            },
            "location_type" : "APPROXIMATE",
            "viewport" : {
               "northeast" : {
                  "lat" : -33.2713874,
                  "lng" : -70.42678069999999
               },
               "southwest" : {
                  "lat" : -33.6741885,
                  "lng" : -70.8328819
               }
            }
         },
         "place_id" : "ChIJL68lBEHFYpYRMQkPQDzVdYQ",
         "types" : [ "colloquial_area", "locality", "political" ]
      },
      {
         "address_components" : [
            {
               "long_name" : "Santiago Province",
               "short_name" : "Santiago Province",
               "types" : [ "administrative_area_level_2", "political" ]
            },
            {
               "long_name" : "Santiago Metropolitan Region",
               "short_name" : "Santiago Metropolitan Region",
               "types" : [ "administrative_area_level_1", "political" ]
            },
            {
               "long_name" : "Chile",
               "short_name" : "CL",
               "types" : [ "country", "political" ]
            }
         ],
         "formatted_address" : "Santiago Province, Santiago Metropolitan Region, Chile",
         "geometry" : {
            "bounds" : {
               "northeast" : {
                  "lat" : -33.1025363,
                  "lng" : -70.17483899999999
               },
               "southwest" : {
                  "lat" : -33.62800259999999,
                  "lng" : -70.9577496
               }
            },
            "location" : {
               "lat" : -33.45,
               "lng" : -70.66669999999999
            },
            "location_type" : "APPROXIMATE",
            "viewport" : {
               "northeast" : {
                  "lat" : -33.1025363,
                  "lng" : -70.17483899999999
               },
               "southwest" : {
                  "lat" : -33.62800259999999,
                  "lng" : -70.9577496
               }
            }
         },
         "place_id" : "ChIJlVV_vxvJYpYRziXz-KE8chY",
         "types" : [ "administrative_area_level_2", "political" ]
      },
      {
         "address_components" : [
            {
               "long_name" : "Santiago Metropolitan Region",
               "short_name" : "Santiago Metropolitan Region",
               "types" : [ "administrative_area_level_1", "political" ]
            },
            {
               "long_name" : "Chile",
               "short_name" : "CL",
               "types" : [ "country", "political" ]
            }
         ],
         "formatted_address" : "Santiago Metropolitan Region, Chile",
         "geometry" : {
            "bounds" : {
               "northeast" : {
                  "lat" : -32.919451,
                  "lng" : -69.7689943
               },
               "southwest" : {
                  "lat" : -34.2878148,
                  "lng" : -71.7088102
               }
            },
            "location" : {
               "lat" : -33.4375545,
               "lng" : -70.6504896
            },
            "location_type" : "APPROXIMATE",
            "viewport" : {
               "northeast" : {
                  "lat" : -32.919451,
                  "lng" : -69.7689943
               },
               "southwest" : {
                  "lat" : -34.2878148,
                  "lng" : -71.7088102
               }
            }
         },
         "place_id" : "ChIJUR74fWpvYpYR2oNLRG3CzWA",
         "types" : [ "administrative_area_level_1", "political" ]
      },
      {
         "address_components" : [
            {
               "long_name" : "Chile",
               "short_name" : "CL",
               "types" : [ "country", "political" ]
            }
         ],
         "formatted_address" : "Chile",
         "geometry" : {
            "bounds" : {
               "northeast" : {
                  "lat" : -17.4983291,
                  "lng" : -66.3327
               },
               "southwest" : {
                  "lat" : -56.1455,
                  "lng" : -110.0281
               }
            },
            "location" : {
               "lat" : -35.675147,
               "lng" : -71.542969
            },
            "location_type" : "APPROXIMATE",
            "viewport" : {
               "northeast" : {
                  "lat" : -17.4983291,
                  "lng" : -66.3327
               },
               "southwest" : {
                  "lat" : -56.1455,
                  "lng" : -110.0281
               }
            }
         },
         "place_id" : "ChIJL68lBEHFYpYRHbkCERPhBQU",
         "types" : [ "country", "political" ]
      }
   ],
   "status" : "OK"
}
