{
   "plus_code" : {
      "compound_code" : "FH36+94 Ara-dong, Jeju-si, Jeju-do, South Korea",
      "global_code" : "8Q58FH36+94"
   },
   "results" : [
      {
         "address_components" : [
            {
               "long_name" : "690-121",
               "short_name" : "690-121",
               "types" : [ "postal_code" ]
            },
            {
               "long_name" : "Arail-dong",
               "short_name" : "Arail-dong",
               "types" : [ "political", "sublocality", "sublocality_level_2" ]
            },
            {
               "long_name" : "Jeju-si",
               "short_name" : "Jeju-si",
               "types" : [ "locality", "political" ]
            },
            {
               "long_name" : "Jeju-do",
               "short_name" : "Jeju-do",
               "types" : [ "administrative_area_level_1", "political" ]
            },
            {
               "long_name" : "South Korea",
               "short_name" : "KR",
               "types" : [ "country", "political" ]
            }
         ],
         "formatted_address" : "Arail-dong, Jeju-si, Jeju-do, South Korea",
         "geometry" : {
            "bounds" : {
               "northeast" : {
                  "lat" : 33.4877787,
                  "lng" : 126.579855
               },
               "southwest" : {
                  "lat" : 33.3707471,
                  "lng" : 126.5299542
               }
            },
            "location" : {
               "lat" : 33.443541,
               "lng" : 126.5607888
            },
            "location_type" : "APPROXIMATE",
            "viewport" : {
               "northeast" : {
                  "lat" : 33.4877787,
                  "lng" : 126.579855
               },
               "southwest" : {
                  "lat" : 33.3707471,
                  "lng" : 126.5299542
               }
            }
         },
         "place_id" : "ChIJQWLkZCX8DDURhvqltnLgUXc",
         "types" : [ "postal_code" ]
      },
      {
         "address_components" : [
            {
               "long_name" : "Arail-dong",
               "short_name" : "Arail-dong",
               "types" : [ "political", "sublocality", "sublocality_level_2" ]
            },
            {
               "long_name" : "Jeju-si",
               "short_name" : "Jeju-si",
               "types" : [ "locality", "political" ]
            },
            {
               "long_name" : "Jeju-do",
               "short_name" : "Jeju-do",
               "types" : [ "administrative_area_level_1", "political" ]
            },
            {
               "long_name" : "South Korea",
               "short_name" : "KR",
               "types" : [ "country", "political" ]
            },
            {
               "long_name" : "690-121",
               "short_name" : "690-121",
               "types" : [ "postal_code" ]
            }
         ],
         "formatted_address" : "Arail-dong, Jeju-si, Jeju-do, South Korea",
         "geometry" : {
            "bounds" : {
               "northeast" : {
                  "lat" : 33.4877787,
                  "lng" : 126.579855
               },
               "southwest" : {
                  "lat" : 33.3707471,
                  "lng" : 126.5299542
               }
            },
            "location" : {
               "lat" : 33.4261379,
               "lng" : 126.5626925
            },
            "location_type" : "APPROXIMATE",
            "viewport" : {
               "northeast" : {
                  "lat" : 33.4877787,
                  "lng" : 126.579855
               },
               "southwest" : {
                  "lat" : 33.3707471,
                  "lng" : 126.5299542
               }
            }
         },
         "place_id" : "ChIJN8-WCzz8DDUR2wvuEj6D_8g",
         "types" : [ "political", "sublocality", "sublocality_level_2" ]
      },
      {
         "address_components" : [
            {
               "long_name" : "Jeju-si",
               "short_name" : "Jeju-si",
               "types" : [ "locality", "political" ]
            },
            {
               "long_name" : "Jeju-do",
               "short_name" : "Jeju-do",
               "types" : [ "administrative_area_level_1", "political" ]
            },
            {
               "long_name" : "South Korea",
               "short_name" : "KR",
               "types" : [ "country", "political" ]
            }
         ],
         "formatted_address" : "Jeju-si, Jeju-do, South Korea",
         "geometry" : {
            "bounds" : {
               "northeast" : {
                  "lat" : 34.053171,
                  "lng" : 126.9979895
               },
               "southwest" : {
                  "lat" : 33.2727985,
                  "lng" : 126.1480697
               }
            },
            "location" : {
               "lat" : 33.4996213,
               "lng" : 126.5311884
            },
            "location_type" : "APPROXIMATE",
            "viewport" : {
               "northeast" : {
                  "lat" : 34.053171,
                  "lng" : 126.9979895
               },
               "southwest" : {
                  "lat" : 33.2727985,
                  "lng" : 126.1480697
               }
            }
         },
         "place_id" : "ChIJ_XltioXgDDUR4pyR4WmImks",
         "types" : [ "locality", "political" ]
      },
      {
         "address_components" : [
            {
               "long_name" : "Jeju-do",
               "short_name" : "Jeju-do",
               "types" : [ "administrative_area_level_1", "political" ]
            },
            {
               "long_name" : "South Korea",
               "short_name" : "KR",
               "types" : [ "country", "political" ]
            }
         ],
         "formatted_address" : "Jeju-do, South Korea",
         "geometry" : {
            "bounds" : {
               "northeast" : {
                  "lat" : 34.053171,
                  "lng" : 126.9979895
               },
               "southwest" : {
                  "lat" : 33.1032777,
                  "lng" : 126.1480697
               }
            },
            "location" : {
               "lat" : 33.4890113,
               "lng" : 126.4983023
            },
            "location_type" : "APPROXIMATE",
            "viewport" : {
               "northeast" : {
                  "lat" : 34.053171,
                  "lng" : 126.9979895
               },
               "southwest" : {
                  "lat" : 33.1032777,
                  "lng" : 126.1480697
               }
            }
         },
         "place_id" : "ChIJRUDITFTjDDURMb8emNI2vGY",
         "types" : [ "administrative_area_level_1", "political" ]
      },
      {
         "address_components" : [
            {
               "long_name" : "South Korea",
               "short_name" : "KR",
               "types" : [ "country", "political" ]
            }
         ],
         "formatted_address" : "South Korea",
         "geometry" : {
            "bounds" : {
               "northeast" : {
                  "lat" : 38.63400000000001,
                  "lng" : 131.1603
               },
               "southwest" : {
                  "lat" : 33.0041,
                  "lng" : 124.5863
               }
            },
            "location" : {
               "lat" : 35.907757,
               "lng" : 127.766922
            },
            "location_type" : "APPROXIMATE",
            "viewport" : {
               "northeast" : {
                  "lat" : 38.63400000000001,
                  "lng" : 131.1603
               },
               "southwest" : {
                  "lat" : 33.0041,
                  "lng" : 124.5863
               }
            }
         },
         "place_id" : "ChIJm7oRy-tVZDURS9uIugCbJJE",
         "types" : [ "country", "political" ]
      }
   ],
   "status" : "OK"
}
