{
   "plus_code" : {
      "compound_code" : "3Q36+2R Gulou, Nanjing, Jiangsu, China",
      "global_code" : "8P4W3Q36+2R"
   },
   "results" : [
      {
         "address_components" : [
            {
               "long_name" : "Unnamed Road",
               "short_name" : "Unnamed Road",
               "types" : [ "route" ]
            },
            {
               "long_name" : "Gulou Qu",
               "short_name" : "Gulou Qu",
               "types" : [ "political", "sublocality", "sublocality_level_1" ]
            },
            {
               "long_name" : "Nanjing Shi",
               "short_name" : "Nanjing Shi",
               "types" : [ "locality", "political" ]
            },
            {
               "long_name" : "Jiangsu Sheng",
               "short_name" : "Jiangsu Sheng",
               "types" : [ "administrative_area_level_1", "political" ]
            },
            {
               "long_name" : "China",
               "short_name" : "CN",
               "types" : [ "country", "political" ]
            },
            {
               "long_name" : "210029",
               "short_name" : "210029",
               "types" : [ "postal_code" ]
            }
         ],
         "formatted_address" : "Unnamed Road, Gulou Qu, Nanjing Shi, Jiangsu Sheng, China, 210029",
         "geometry" : {
            "bounds" : {
               "northeast" : {
                  "lat" : 32.05406970000001,
                  "lng" : 118.7629423
               },
               "southwest" : {
                  "lat" : 32.0518863,
                  "lng" : 118.7599595
               }
            },
            "location" : {
               "lat" : 32.052978,
               "lng" : 118.7614509
            },
            "location_type" : "GEOMETRIC_CENTER",
            "viewport" : {
               "northeast" : {
                  "lat" : 32.05432698029151,
                  "lng" : 118.7629423
               },
               "southwest" : {
                  "lat" : 32.05162901970851,
                  "lng" : 118.7599595
               }
            }
         },
         "place_id" : "ChIJwae-7WOLtTUR5ooG3h0GYTQ",
         "types" : [ "route" ]
      },
      {
         "address_components" : [
            {
               "long_name" : "210029",
               "short_name" : "210029",
               "types" : [ "postal_code" ]
            },
            {
               "long_name" : "Gulou",
               "short_name" : "Gulou",
               "types" : [ "political", "sublocality", "sublocality_level_1" ]
            },
            {
               "long_name" : "Nanjing",
               "short_name" : "Nanjing",
               "types" : [ "locality", "political" ]
            },
            {
               "long_name" : "Jiangsu",
               "short_name" : "Jiangsu",
               "types" : [ "administrative_area_level_1", "political" ]
            },
            {
               "long_name" : "China",
               "short_name" : "CN",
               "types" : [ "country", "political" ]
            }
         ],
         "formatted_address" : "Gulou, Nanjing, Jiangsu, China, 210029",
         "geometry" : {
            "bounds" : {
               "northeast" : {
                  "lat" : 32.0580285,
                  "lng" : 118.7897559
               },
               "southwest" : {
                  "lat" : 31.97862099999999,
                  "lng" : 118.7227159
               }
            },
            "location" : {
               "lat" : 32.047895,
               "lng" : 118.7607487
            },
            "location_type" : "APPROXIMATE",
            "viewport" : {
               "northeast" : {
                  "lat" : 32.0580285,
                  "lng" : 118.7897559
               },
               "southwest" : {
                  "lat" : 31.97862099999999,
                  "lng" : 118.7227159
               }
            }
         },
         "place_id" : "ChIJX9T5oHyLtTUR4HR1d-XxQ78",
         "types" : [ "postal_code" ]
      },
      {
         "address_components" : [
            {
               "long_name" : "Gulou",
               "short_name" : "Gulou",
               "types" : [ "political", "sublocality", "sublocality_level_1" ]
            },
            {
               "long_name" : "Nanjing",
               "short_name" : "Nanjing",
               "types" : [ "locality", "political" ]
            },
            {
               "long_name" : "Jiangsu",
               "short_name" : "Jiangsu",
               "types" : [ "administrative_area_level_1", "political" ]
            },
            {
               "long_name" : "China",
               "short_name" : "CN",
               "types" : [ "country", "political" ]
            }
         ],
         "formatted_address" : "Gulou, Nanjing, Jiangsu, China",
         "geometry" : {
            "bounds" : {
               "northeast" : {
                  "lat" : 32.1324569,
                  "lng" : 118.8064053
               },
               "southwest" : {
                  "lat" : 32.028948,
                  "lng" : 118.7187017
               }
            },
            "location" : {
               "lat" : 32.066335,
               "lng" : 118.76979
            },
            "location_type" : "APPROXIMATE",
            "viewport" : {
               "northeast" : {
                  "lat" : 32.1324569,
                  "lng" : 118.8064053
               },
               "southwest" : {
                  "lat" : 32.028948,
                  "lng" : 118.7187017
               }
            }
         },
         "place_id" : "ChIJyUt5VUKLtTURQFKo0Fd79lQ",
         "types" : [ "political", "sublocality", "sublocality_level_1" ]
      },
      {
         "address_components" : [
            {
               "long_name" : "Nanjing",
               "short_name" : "Nanjing",
               "types" : [ "locality", "political" ]
            },
            {
               "long_name" : "Jiangsu",
               "short_name" : "Jiangsu",
               "types" : [ "administrative_area_level_1", "political" ]
            },
            {
               "long_name" : "China",
               "short_name" : "CN",
               "types" : [ "country", "political" ]
            }
         ],
         "formatted_address" : "Nanjing, Jiangsu, China",
         "geometry" : {
            "bounds" : {
               "northeast" : {
                  "lat" : 32.6143632,
                  "lng" : 119.2416626
               },
               "southwest" : {
                  "lat" : 31.2280975,
                  "lng" : 118.3633729
               }
            },
            "location" : {
               "lat" : 32.060255,
               "lng" : 118.796877
            },
            "location_type" : "APPROXIMATE",
            "viewport" : {
               "northeast" : {
                  "lat" : 32.6143632,
                  "lng" : 119.2416626
               },
               "southwest" : {
                  "lat" : 31.2280975,
                  "lng" : 118.3633729
               }
            }
         },
         "place_id" : "ChIJg82NZpuMtTURBhvfeQu2-48",
         "types" : [ "locality", "political" ]
      },
      {
         "address_components" : [
            {
               "long_name" : "Jiangsu",
               "short_name" : "Jiangsu",
               "types" : [ "administrative_area_level_1", "political" ]
            },
            {
               "long_name" : "China",
               "short_name" : "CN",
               "types" : [ "country", "political" ]
            }
         ],
         "formatted_address" : "Jiangsu, China",
         "geometry" : {
            "bounds" : {
               "northeast" : {
                  "lat" : 35.1245133,
                  "lng" : 121.9751853
               },
               "southwest" : {
                  "lat" : 30.7578404,
                  "lng" : 116.3619603
               }
            },
            "location" : {
               "lat" : 33.1401715,
               "lng" : 119.7889248
            },
            "location_type" : "APPROXIMATE",
            "viewport" : {
               "northeast" : {
                  "lat" : 35.1245133,
                  "lng" : 121.9751853
               },
               "southwest" : {
                  "lat" : 30.7578404,
                  "lng" : 116.3619603
               }
            }
         },
         "place_id" : "ChIJRcJLMdoAtzURtVOFbLbqlI0",
         "types" : [ "administrative_area_level_1", "political" ]
      },
      {
         "address_components" : [
            {
               "long_name" : "China",
               "short_name" : "CN",
               "types" : [ "country", "political" ]
            }
         ],
         "formatted_address" : "China",
         "geometry" : {
            "bounds" : {
               "northeast" : {
                  "lat" : 53.5609739,
                  "lng" : 134.7754563
               },
               "southwest" : {
                  "lat" : 17.9996,
                  "lng" : 73.4994136
               }
            },
            "location" : {
               "lat" : 35.86166,
               "lng" : 104.195397
            },
            "location_type" : "APPROXIMATE",
            "viewport" : {
               "northeast" : {
                  "lat" : 53.5609739,
                  "lng" : 134.7754563
               },
               "southwest" : {
                  "lat" : 17.9996,
                  "lng" : 73.4994136
               }
            }
         },
         "place_id" : "ChIJwULG5WSOUDERbzafNHyqHZU",
         "types" : [ "country", "political" ]
      }
   ],
   "status" : "OK"
}
