{
   "plus_code" : {
      "compound_code" : "F54C+G7 Santander, Spain",
      "global_code" : "8CMRF54C+G7"
   },
   "results" : [
      {
         "address_components" : [
            {
               "long_name" : "25",
               "short_name" : "25",
               "types" : [ "street_number" ]
            },
            {
               "long_name" : "Avenida Valdecilla",
               "short_name" : "Av. Valdecilla",
               "types" : [ "route" ]
            },
            {
               "long_name" : "Santander",
               "short_name" : "Santander",
               "types" : [ "locality", "political" ]
            },
            {
               "long_name" : "Cantabria",
               "short_name" : "S",
               "types" : [ "administrative_area_level_2", "political" ]
            },
            {
               "long_name" : "Cantabria",
               "short_name" : "Cantabria",
               "types" : [ "administrative_area_level_1", "political" ]
            },
            {
               "long_name" : "Spain",
               "short_name" : "ES",
               "types" : [ "country", "political" ]
            },
            {
               "long_name" : "39008",
               "short_name" : "39008",
               "types" : [ "postal_code" ]
            }
         ],
         "formatted_address" : "Av. Valdecilla, 25, 39008 Santander, Cantabria, Spain",
         "geometry" : {
            "location" : {
               "lat" : 43.4563373,
               "lng" : -3.829278099999999
            },
            "location_type" : "ROOFTOP",
            "viewport" : {
               "northeast" : {
                  "lat" : 43.4576862802915,
                  "lng" : -3.827929119708497
               },
               "southwest" : {
                  "lat" : 43.45498831970851,
                  "lng" : -3.830627080291502
               }
            }
         },
         "place_id" : "ChIJsaW6HoJJSQ0RV8PttOL6CQg",
         "plus_code" : {
            "compound_code" : "F54C+G7 Santander, Spain",
            "global_code" : "8CMRF54C+G7"
         },
         "types" : [ "establishment", "hospital", "point_of_interest" ]
      },
      {
         "address_components" : [
            {
               "long_name" : "25",
               "short_name" : "25",
               "types" : [ "street_number" ]
            },
            {
               "long_name" : "Avenida de Valdecilla",
               "short_name" : "Av. de Valdecilla",
               "types" : [ "route" ]
            },
            {
               "long_name" : "Santander",
               "short_name" : "Santander",
               "types" : [ "locality", "political" ]
            },
            {
               "long_name" : "Cantabria",
               "short_name" : "S",
               "types" : [ "administrative_area_level_2", "political" ]
            },
            {
               "long_name" : "Cantabria",
               "short_name" : "Cantabria",
               "types" : [ "administrative_area_level_1", "political" ]
            },
            {
               "long_name" : "Spain",
               "short_name" : "ES",
               "types" : [ "country", "political" ]
            },
            {
               "long_name" : "39008",
               "short_name" : "39008",
               "types" : [ "postal_code" ]
            }
         ],
         "formatted_address" : "Av. de Valdecilla, 25, 39008 Santander, Cantabria, Spain",
         "geometry" : {
            "location" : {
               "lat" : 43.4562993,
               "lng" : -3.8293668
            },
            "location_type" : "ROOFTOP",
            "viewport" : {
               "northeast" : {
                  "lat" : 43.45764828029149,
                  "lng" : -3.828017819708498
               },
               "southwest" : {
                  "lat" : 43.45495031970849,
                  "lng" : -3.830715780291502
               }
            }
         },
         "place_id" : "ChIJ4RbaHoJJSQ0ROQQJj40OymI",
         "plus_code" : {
            "compound_code" : "F54C+G7 Santander, Spain",
            "global_code" : "8CMRF54C+G7"
         },
         "types" : [ "street_address" ]
      },
      {
         "address_components" : [
            {
               "long_name" : "39011",
               "short_name" : "39011",
               "types" : [ "postal_code" ]
            },
            {
               "long_name" : "Santander",
               "short_name" : "Santander",
               "types" : [ "locality", "political" ]
            },
            {
               "long_name" : "Cantabria",
               "short_name" : "S",
               "types" : [ "administrative_area_level_2", "political" ]
            },
            {
               "long_name" : "Cantabria",
               "short_name" : "Cantabria",
               "types" : [ "administrative_area_level_1", "political" ]
            },
            {
               "long_name" : "Spain",
               "short_name" : "ES",
               "types" : [ "country", "political" ]
            }
         ],
         "formatted_address" : "39011 Santander, Cantabria, Spain",
         "geometry" : {
            "bounds" : {
               "northeast" : {
                  "lat" : 43.4703546,
                  "lng" : -3.8181827
               },
               "southwest" : {
                  "lat" : 43.43442539999999,
                  "lng" : -3.8890286
               }
            },
            "location" : {
               "lat" : 43.4527789,
               "lng" : -3.8502617
            },
            "location_type" : "APPROXIMATE",
            "viewport" : {
               "northeast" : {
                  "lat" : 43.4703546,
                  "lng" : -3.8181827
               },
               "southwest" : {
                  "lat" : 43.43442539999999,
                  "lng" : -3.8890286
               }
            }
         },
         "place_id" : "ChIJsW3Vy6JJSQ0REOYfvoX1BBw",
         "types" : [ "postal_code" ]
      },
      {
         "address_components" : [
            {
               "long_name" : "Santander",
               "short_name" : "Santander",
               "types" : [ "locality", "political" ]
            },
            {
               "long_name" : "Cantabria",
               "short_name" : "S",
               "types" : [ "administrative_area_level_2", "political" ]
            },
            {
               "long_name" : "Cantabria",
               "short_name" : "Cantabria",
               "types" : [ "administrative_area_level_1", "political" ]
            },
            {
               "long_name" : "Spain",
               "short_name" : "ES",
               "types" : [ "country", "political" ]
            }
         ],
         "formatted_address" : "Santander, Cantabria, Spain",
         "geometry" : {
            "bounds" : {
               "northeast" : {
                  "lat" : 43.4863908,
                  "lng" : -3.7536109
               },
               "southwest" : {
                  "lat" : 43.436298,
                  "lng" : -3.8686632
               }
            },
            "location" : {
               "lat" : 43.46230569999999,
               "lng" : -3.8099803
            },
            "location_type" : "APPROXIMATE",
            "viewport" : {
               "northeast" : {
                  "lat" : 43.4863908,
                  "lng" : -3.7536109
               },
               "southwest" : {
                  "lat" : 43.436298,
                  "lng" : -3.8686632
               }
            }
         },
         "place_id" : "ChIJce5riq5JSQ0RlrqCFoDcfNI",
         "types" : [ "locality", "political" ]
      },
      {
         "address_components" : [
            {
               "long_name" : "Santander",
               "short_name" : "Santander",
               "types" : [ "administrative_area_level_4", "political" ]
            },
            {
               "long_name" : "Cantabria",
               "short_name" : "S",
               "types" : [ "administrative_area_level_2", "political" ]
            },
            {
               "long_name" : "Cantabria",
               "short_name" : "Cantabria",
               "types" : [ "administrative_area_level_1", "political" ]
            },
            {
               "long_name" : "Spain",
               "short_name" : "ES",
               "types" : [ "country", "political" ]
            }
         ],
         "formatted_address" : "Santander, Cantabria, Spain",
         "geometry" : {
            "bounds" : {
               "northeast" : {
                  "lat" : 43.4949325,
                  "lng" : -3.7536109
               },
               "southwest" : {
                  "lat" : 43.434424,
                  "lng" : -3.8890299
               }
            },
            "location" : {
               "lat" : 43.4677177,
               "lng" : -3.8349976
            },
            "location_type" : "APPROXIMATE",
            "viewport" : {
               "northeast" : {
                  "lat" : 43.4949325,
                  "lng" : -3.7536109
               },
               "southwest" : {
                  "lat" : 43.434424,
                  "lng" : -3.8890299
               }
            }
         },
         "place_id" : "ChIJQ1sWvn1JSQ0RcDfLc4L1BAQ",
         "types" : [ "administrative_area_level_4", "political" ]
      },
      {
         "address_components" : [
            {
               "long_name" : "Santander",
               "short_name" : "Santander",
               "types" : [ "administrative_area_level_3", "political" ]
            },
            {
               "long_name" : "Cantabria",
               "short_name" : "S",
               "types" : [ "administrative_area_level_2", "political" ]
            },
            {
               "long_name" : "Cantabria",
               "short_name" : "Cantabria",
               "types" : [ "administrative_area_level_1", "political" ]
            },
            {
               "long_name" : "Spain",
               "short_name" : "ES",
               "types" : [ "country", "political" ]
            }
         ],
         "formatted_address" : "Santander, Cantabria, Spain",
         "geometry" : {
            "bounds" : {
               "northeast" : {
                  "lat" : 43.4949467,
                  "lng" : -3.7632007
               },
               "southwest" : {
                  "lat" : 43.2959813,
                  "lng" : -4.0357542
               }
            },
            "location" : {
               "lat" : 43.3986414,
               "lng" : -3.8858955
            },
            "location_type" : "APPROXIMATE",
            "viewport" : {
               "northeast" : {
                  "lat" : 43.4949467,
                  "lng" : -3.7632007
               },
               "southwest" : {
                  "lat" : 43.2959813,
                  "lng" : -4.0357542
               }
            }
         },
         "place_id" : "ChIJ8-bYW4w3SQ0RXIQ4-J_JytQ",
         "types" : [ "administrative_area_level_3", "political" ]
      },
      {
         "address_components" : [
            {
               "long_name" : "Cantabria",
               "short_name" : "Cantabria",
               "types" : [ "administrative_area_level_1", "political" ]
            },
            {
               "long_name" : "Cantabria",
               "short_name" : "S",
               "types" : [ "administrative_area_level_2", "political" ]
            },
            {
               "long_name" : "Spain",
               "short_name" : "ES",
               "types" : [ "country", "political" ]
            }
         ],
         "formatted_address" : "Cantabria, Spain",
         "geometry" : {
            "bounds" : {
               "northeast" : {
                  "lat" : 43.5136929,
                  "lng" : -3.149652
               },
               "southwest" : {
                  "lat" : 42.75804979999999,
                  "lng" : -4.8517782
               }
            },
            "location" : {
               "lat" : 43.1828396,
               "lng" : -3.9878427
            },
            "location_type" : "APPROXIMATE",
            "viewport" : {
               "northeast" : {
                  "lat" : 43.5136929,
                  "lng" : -3.149652
               },
               "southwest" : {
                  "lat" : 42.75804979999999,
                  "lng" : -4.8517782
               }
            }
         },
         "place_id" : "ChIJy78OCdsgSQ0R0MjJc4L1BAE",
         "types" : [ "administrative_area_level_1", "political" ]
      },
      {
         "address_components" : [
            {
               "long_name" : "Cantabria",
               "short_name" : "Cantabria",
               "types" : [ "administrative_area_level_2", "political" ]
            },
            {
               "long_name" : "Cantabria",
               "short_name" : "Cantabria",
               "types" : [ "administrative_area_level_1", "political" ]
            },
            {
               "long_name" : "Spain",
               "short_name" : "ES",
               "types" : [ "country", "political" ]
            }
         ],
         "formatted_address" : "Cantabria, Spain",
         "geometry" : {
            "bounds" : {
               "northeast" : {
                  "lat" : 43.5136929,
                  "lng" : -3.149652
               },
               "southwest" : {
                  "lat" : 42.75804979999999,
                  "lng" : -4.8517782
               }
            },
            "location" : {
               "lat" : 43.1828396,
               "lng" : -3.9878427
            },
            "location_type" : "APPROXIMATE",
            "viewport" : {
               "northeast" : {
                  "lat" : 43.5136929,
                  "lng" : -3.149652
               },
               "southwest" : {
                  "lat" : 42.75804979999999,
                  "lng" : -4.8517782
               }
            }
         },
         "place_id" : "ChIJy78OCdsgSQ0RoMvJc4L1BAM",
         "types" : [ "administrative_area_level_2", "political" ]
      },
      {
         "address_components" : [
            {
               "long_name" : "Spain",
               "short_name" : "ES",
               "types" : [ "country", "political" ]
            }
         ],
         "formatted_address" : "Spain",
         "geometry" : {
            "bounds" : {
               "northeast" : {
                  "lat" : 43.8504,
                  "lng" : 4.6362
               },
               "southwest" : {
                  "lat" : 27.4985,
                  "lng" : -18.2648001
               }
            },
            "location" : {
               "lat" : 40.46366700000001,
               "lng" : -3.74922
            },
            "location_type" : "APPROXIMATE",
            "viewport" : {
               "northeast" : {
                  "lat" : 43.8504,
                  "lng" : 4.6362
               },
               "southwest" : {
                  "lat" : 27.4985,
                  "lng" : -18.2648001
               }
            }
         },
         "place_id" : "ChIJi7xhMnjjQgwR7KNoB5Qs7KY",
         "types" : [ "country", "political" ]
      }
   ],
   "status" : "OK"
}
