{
   "plus_code" : {
      "compound_code" : "C8F8+6P Sandy Hill, Ottawa, ON, Canada",
      "global_code" : "87Q6C8F8+6P"
   },
   "results" : [
      {
         "address_components" : [
            {
               "long_name" : "75",
               "short_name" : "75",
               "types" : [ "street_number" ]
            },
            {
               "long_name" : "Laurier Avenue East",
               "short_name" : "Laurier Ave E",
               "types" : [ "route" ]
            },
            {
               "long_name" : "Sandy Hill",
               "short_name" : "Sandy Hill",
               "types" : [ "neighborhood", "political" ]
            },
            {
               "long_name" : "Ottawa",
               "short_name" : "Ottawa",
               "types" : [ "locality", "political" ]
            },
            {
               "long_name" : "Ottawa Division",
               "short_name" : "Ottawa Division",
               "types" : [ "administrative_area_level_2", "political" ]
            },
            {
               "long_name" : "Ontario",
               "short_name" : "ON",
               "types" : [ "administrative_area_level_1", "political" ]
            },
            {
               "long_name" : "Canada",
               "short_name" : "CA",
               "types" : [ "country", "political" ]
            },
            {
               "long_name" : "K1N 6N5",
               "short_name" : "K1N 6N5",
               "types" : [ "postal_code" ]
            }
         ],
         "formatted_address" : "75 Laurier Ave E, Ottawa, ON K1N 6N5, Canada",
         "geometry" : {
            "location" : {
               "lat" : 45.42310639999999,
               "lng" : -75.68313289999999
            },
            "location_type" : "ROOFTOP",
            "viewport" : {
               "northeast" : {
                  "lat" : 45.42445538029149,
                  "lng" : -75.68178391970848
               },
               "southwest" : {
                  "lat" : 45.4217574197085,
                  "lng" : -75.68448188029149
               }
            }
         },
         "place_id" : "ChIJc425bQoFzkwRrtsvYsNZihg",
         "plus_code" : {
            "compound_code" : "C8F8+6P Sandy Hill, Ottawa, ON, Canada",
            "global_code" : "87Q6C8F8+6P"
         },
         "types" : [ "establishment", "point_of_interest", "university" ]
      },
      {
         "address_components" : [
            {
               "long_name" : "75",
               "short_name" : "75",
               "types" : [ "street_number" ]
            },
            {
               "long_name" : "Laurier Avenue East",
               "short_name" : "Laurier Ave E",
               "types" : [ "route" ]
            },
            {
               "long_name" : "Sandy Hill",
               "short_name" : "Sandy Hill",
               "types" : [ "neighborhood", "political" ]
            },
            {
               "long_name" : "Ottawa",
               "short_name" : "Ottawa",
               "types" : [ "locality", "political" ]
            },
            {
               "long_name" : "Ottawa Division",
               "short_name" : "Ottawa Division",
               "types" : [ "administrative_area_level_2", "political" ]
            },
            {
               "long_name" : "Ontario",
               "short_name" : "ON",
               "types" : [ "administrative_area_level_1", "political" ]
            },
            {
               "long_name" : "Canada",
               "short_name" : "CA",
               "types" : [ "country", "political" ]
            },
            {
               "long_name" : "K1N 1A2",
               "short_name" : "K1N 1A2",
               "types" : [ "postal_code" ]
            }
         ],
         "formatted_address" : "75 Laurier Ave E, Ottawa, ON K1N 1A2, Canada",
         "geometry" : {
            "location" : {
               "lat" : 45.4231067,
               "lng" : -75.6831328
            },
            "location_type" : "ROOFTOP",
            "viewport" : {
               "northeast" : {
                  "lat" : 45.4244556802915,
                  "lng" : -75.6817838197085
               },
               "southwest" : {
                  "lat" : 45.4217577197085,
                  "lng" : -75.68448178029151
               }
            }
         },
         "place_id" : "ChIJ8yI-8AYFzkwRk5Fuhz2UJYY",
         "plus_code" : {
            "compound_code" : "C8F8+6P Sandy Hill, Ottawa, ON, Canada",
            "global_code" : "87Q6C8F8+6P"
         },
         "types" : [ "street_address" ]
      },
      {
         "address_components" : [
            {
               "long_name" : "Jock-Turcot University Centre",
               "short_name" : "Jock-Turcot University Centre",
               "types" : [ "premise" ]
            },
            {
               "long_name" : "85",
               "short_name" : "85",
               "types" : [ "street_number" ]
            },
            {
               "long_name" : "University Private",
               "short_name" : "University Private",
               "types" : [ "route" ]
            },
            {
               "long_name" : "Sandy Hill",
               "short_name" : "Sandy Hill",
               "types" : [ "neighborhood", "political" ]
            },
            {
               "long_name" : "Ottawa",
               "short_name" : "Ottawa",
               "types" : [ "locality", "political" ]
            },
            {
               "long_name" : "Ottawa Division",
               "short_name" : "Ottawa Division",
               "types" : [ "administrative_area_level_2", "political" ]
            },
            {
               "long_name" : "Ontario",
               "short_name" : "ON",
               "types" : [ "administrative_area_level_1", "political" ]
            },
            {
               "long_name" : "Canada",
               "short_name" : "CA",
               "types" : [ "country", "political" ]
            },
            {
               "long_name" : "K1N 9A7",
               "short_name" : "K1N 9A7",
               "types" : [ "postal_code" ]
            }
         ],
         "formatted_address" : "Jock-Turcot University Centre, 85 University Private, Ottawa, ON K1N 9A7, Canada",
         "geometry" : {
            "bounds" : {
               "northeast" : {
                  "lat" : 45.4229754,
                  "lng" : -75.68231639999999
               },
               "southwest" : {
                  "lat" : 45.4221706,
                  "lng" : -75.68414299999999
               }
            },
            "location" : {
               "lat" : 45.4225565,
               "lng" : -75.68332749999999
            },
            "location_type" : "ROOFTOP",
            "viewport" : {
               "northeast" : {
                  "lat" : 45.4239219802915,
                  "lng" : -75.68188071970849
               },
               "southwest" : {
                  "lat" : 45.4212240197085,
                  "lng" : -75.68457868029149
               }
            }
         },
         "place_id" : "ChIJq5x61wcFzkwRR7erqZH8VOk",
         "types" : [ "premise" ]
      },
      {
         "address_components" : [
            {
               "long_name" : "57",
               "short_name" : "57",
               "types" : [ "street_number" ]
            },
            {
               "long_name" : "Copernicus Street",
               "short_name" : "Copernicus St",
               "types" : [ "route" ]
            },
            {
               "long_name" : "Ottawa",
               "short_name" : "Ottawa",
               "types" : [ "locality", "political" ]
            },
            {
               "long_name" : "Ontario",
               "short_name" : "ON",
               "types" : [ "administrative_area_level_1", "political" ]
            },
            {
               "long_name" : "Canada",
               "short_name" : "CA",
               "types" : [ "country", "political" ]
            }
         ],
         "formatted_address" : "57 Copernicus St, Ottawa, ON, Canada",
         "geometry" : {
            "location" : {
               "lat" : 45.42354599999999,
               "lng" : -75.6826516
            },
            "location_type" : "RANGE_INTERPOLATED",
            "viewport" : {
               "northeast" : {
                  "lat" : 45.42489498029149,
                  "lng" : -75.68130261970849
               },
               "southwest" : {
                  "lat" : 45.42219701970849,
                  "lng" : -75.68400058029151
               }
            }
         },
         "place_id" : "EiQ1NyBDb3Blcm5pY3VzIFN0LCBPdHRhd2EsIE9OLCBDYW5hZGEiGhIYChQKEglXKpgoBgXOTBGZg77dKUcO1xA5",
         "types" : [ "street_address" ]
      },
      {
         "address_components" : [
            {
               "long_name" : "K1N 9B1",
               "short_name" : "K1N 9B1",
               "types" : [ "postal_code" ]
            },
            {
               "long_name" : "Sandy Hill",
               "short_name" : "Sandy Hill",
               "types" : [ "neighborhood", "political" ]
            },
            {
               "long_name" : "Ottawa",
               "short_name" : "Ottawa",
               "types" : [ "locality", "political" ]
            },
            {
               "long_name" : "Ottawa Division",
               "short_name" : "Ottawa Division",
               "types" : [ "administrative_area_level_2", "political" ]
            },
            {
               "long_name" : "Ontario",
               "short_name" : "ON",
               "types" : [ "administrative_area_level_1", "political" ]
            },
            {
               "long_name" : "Canada",
               "short_name" : "CA",
               "types" : [ "country", "political" ]
            }
         ],
         "formatted_address" : "Ottawa, ON K1N 9B1, Canada",
         "geometry" : {
            "bounds" : {
               "northeast" : {
                  "lat" : 45.4238841,
                  "lng" : -75.683094
               },
               "southwest" : {
                  "lat" : 45.4230421,
                  "lng" : -75.6840775
               }
            },
            "location" : {
               "lat" : 45.423445,
               "lng" : -75.68358859999999
            },
            "location_type" : "APPROXIMATE",
            "viewport" : {
               "northeast" : {
                  "lat" : 45.4248120802915,
                  "lng" : -75.6822367697085
               },
               "southwest" : {
                  "lat" : 45.4221141197085,
                  "lng" : -75.6849347302915
               }
            }
         },
         "place_id" : "ChIJc425bQoFzkwRmyBH5KBaLZM",
         "types" : [ "postal_code" ]
      },
      {
         "address_components" : [
            {
               "long_name" : "Sandy Hill",
               "short_name" : "Sandy Hill",
               "types" : [ "neighborhood", "political" ]
            },
            {
               "long_name" : "Ottawa",
               "short_name" : "Ottawa",
               "types" : [ "locality", "political" ]
            },
            {
               "long_name" : "Ottawa Division",
               "short_name" : "Ottawa Division",
               "types" : [ "administrative_area_level_2", "political" ]
            },
            {
               "long_name" : "Ontario",
               "short_name" : "ON",
               "types" : [ "administrative_area_level_1", "political" ]
            },
            {
               "long_name" : "Canada",
               "short_name" : "CA",
               "types" : [ "country", "political" ]
            }
         ],
         "formatted_address" : "Sandy Hill, Ottawa, ON, Canada",
         "geometry" : {
            "bounds" : {
               "northeast" : {
                  "lat" : 45.433527,
                  "lng" : -75.66376269999999
               },
               "southwest" : {
                  "lat" : 45.416426,
                  "lng" : -75.69113609999999
               }
            },
            "location" : {
               "lat" : 45.42422730000001,
               "lng" : -75.67528899999999
            },
            "location_type" : "APPROXIMATE",
            "viewport" : {
               "northeast" : {
                  "lat" : 45.433527,
                  "lng" : -75.66376269999999
               },
               "southwest" : {
                  "lat" : 45.416426,
                  "lng" : -75.69113609999999
               }
            }
         },
         "place_id" : "ChIJYVZczA4FzkwRJryZS4pPvok",
         "types" : [ "neighborhood", "political" ]
      },
      {
         "address_components" : [
            {
               "long_name" : "K1N",
               "short_name" : "K1N",
               "types" : [ "postal_code", "postal_code_prefix" ]
            },
            {
               "long_name" : "Ottawa",
               "short_name" : "Ottawa",
               "types" : [ "locality", "political" ]
            },
            {
               "long_name" : "Ottawa Division",
               "short_name" : "Ottawa Division",
               "types" : [ "administrative_area_level_2", "political" ]
            },
            {
               "long_name" : "Ontario",
               "short_name" : "ON",
               "types" : [ "administrative_area_level_1", "political" ]
            },
            {
               "long_name" : "Canada",
               "short_name" : "CA",
               "types" : [ "country", "political" ]
            }
         ],
         "formatted_address" : "Ottawa, ON K1N, Canada",
         "geometry" : {
            "bounds" : {
               "northeast" : {
                  "lat" : 45.441164,
                  "lng" : -75.6637181
               },
               "southwest" : {
                  "lat" : 45.41689909999999,
                  "lng" : -75.69941899999999
               }
            },
            "location" : {
               "lat" : 45.4279636,
               "lng" : -75.6834408
            },
            "location_type" : "APPROXIMATE",
            "viewport" : {
               "northeast" : {
                  "lat" : 45.441164,
                  "lng" : -75.6637181
               },
               "southwest" : {
                  "lat" : 45.41689909999999,
                  "lng" : -75.69941899999999
               }
            }
         },
         "place_id" : "ChIJU29DPgUFzkwRUdDMpiBoCGI",
         "types" : [ "postal_code", "postal_code_prefix" ]
      },
      {
         "address_components" : [
            {
               "long_name" : "Ottawa",
               "short_name" : "Ottawa",
               "types" : [ "locality", "political" ]
            },
            {
               "long_name" : "Ottawa Division",
               "short_name" : "Ottawa Division",
               "types" : [ "administrative_area_level_2", "political" ]
            },
            {
               "long_name" : "Ontario",
               "short_name" : "ON",
               "types" : [ "administrative_area_level_1", "political" ]
            },
            {
               "long_name" : "Canada",
               "short_name" : "CA",
               "types" : [ "country", "political" ]
            }
         ],
         "formatted_address" : "Ottawa, ON, Canada",
         "geometry" : {
            "bounds" : {
               "northeast" : {
                  "lat" : 45.5375801,
                  "lng" : -75.2465979
               },
               "southwest" : {
                  "lat" : 44.962733,
                  "lng" : -76.35391589999999
               }
            },
            "location" : {
               "lat" : 45.4215296,
               "lng" : -75.69719309999999
            },
            "location_type" : "APPROXIMATE",
            "viewport" : {
               "northeast" : {
                  "lat" : 45.5375801,
                  "lng" : -75.2465979
               },
               "southwest" : {
                  "lat" : 44.962733,
                  "lng" : -76.35391589999999
               }
            }
         },
         "place_id" : "ChIJrxNRX7IFzkwR7RXdMeFRaoo",
         "types" : [ "locality", "political" ]
      },
      {
         "address_components" : [
            {
               "long_name" : "Ottawa Division",
               "short_name" : "Ottawa Division",
               "types" : [ "administrative_area_level_2", "political" ]
            },
            {
               "long_name" : "Ottawa",
               "short_name" : "Ottawa",
               "types" : [ "locality", "political" ]
            },
            {
               "long_name" : "Ontario",
               "short_name" : "ON",
               "types" : [ "administrative_area_level_1", "political" ]
            },
            {
               "long_name" : "Canada",
               "short_name" : "CA",
               "types" : [ "country", "political" ]
            }
         ],
         "formatted_address" : "Ottawa Division, Ottawa, ON, Canada",
         "geometry" : {
            "bounds" : {
               "northeast" : {
                  "lat" : 45.5375801,
                  "lng" : -75.2465979
               },
               "southwest" : {
                  "lat" : 44.962733,
                  "lng" : -76.35391589999999
               }
            },
            "location" : {
               "lat" : 45.2484615,
               "lng" : -75.83537059999999
            },
            "location_type" : "APPROXIMATE",
            "viewport" : {
               "northeast" : {
                  "lat" : 45.5375801,
                  "lng" : -75.2465979
               },
               "southwest" : {
                  "lat" : 44.962733,
                  "lng" : -76.35391589999999
               }
            }
         },
         "place_id" : "ChIJmcB2guBn0UwRr0RW_iic0LY",
         "types" : [ "administrative_area_level_2", "political" ]
      },
      {
         "address_components" : [
            {
               "long_name" : "Ontario",
               "short_name" : "Ontario",
               "types" : [ "administrative_area_level_1", "political" ]
            },
            {
               "long_name" : "Canada",
               "short_name" : "CA",
               "types" : [ "country", "political" ]
            }
         ],
         "formatted_address" : "Ontario, Canada",
         "geometry" : {
            "bounds" : {
               "northeast" : {
                  "lat" : 56.931393,
                  "lng" : -74.3206479
               },
               "southwest" : {
                  "lat" : 41.6765559,
                  "lng" : -95.1562271
               }
            },
            "location" : {
               "lat" : 51.253775,
               "lng" : -85.32321399999999
            },
            "location_type" : "APPROXIMATE",
            "viewport" : {
               "northeast" : {
                  "lat" : 56.931393,
                  "lng" : -74.3206479
               },
               "southwest" : {
                  "lat" : 41.6765559,
                  "lng" : -95.1562271
               }
            }
         },
         "place_id" : "ChIJrxNRX7IFzkwRCR5iKVZC-HA",
         "types" : [ "administrative_area_level_1", "political" ]
      },
      {
         "address_components" : [
            {
               "long_name" : "Canada",
               "short_name" : "CA",
               "types" : [ "country", "political" ]
            }
         ],
         "formatted_address" : "Canada",
         "geometry" : {
            "bounds" : {
               "northeast" : {
                  "lat" : 83.63809999999999,
                  "lng" : -50.9766
               },
               "southwest" : {
                  "lat" : 41.6765559,
                  "lng" : -141.00187
               }
            },
            "location" : {
               "lat" : 56.130366,
               "lng" : -106.346771
            },
            "location_type" : "APPROXIMATE",
            "viewport" : {
               "northeast" : {
                  "lat" : 83.63809999999999,
                  "lng" : -50.9766
               },
               "southwest" : {
                  "lat" : 41.6765559,
                  "lng" : -141.00187
               }
            }
         },
         "place_id" : "ChIJ2WrMN9MDDUsRpY9Doiq3aJk",
         "types" : [ "country", "political" ]
      }
   ],
   "status" : "OK"
}
