{
   "plus_code" : {
      "compound_code" : "X8XG+VH Haidian, Beijing, China",
      "global_code" : "8PFRX8XG+VH"
   },
   "results" : [
      {
         "address_components" : [
            {
               "long_name" : "30",
               "short_name" : "30",
               "types" : [ "street_number" ]
            },
            {
               "long_name" : "Shuangqing Road",
               "short_name" : "Shuangqing Rd",
               "types" : [ "route" ]
            },
            {
               "long_name" : "Haidian Qu",
               "short_name" : "Haidian Qu",
               "types" : [ "political", "sublocality", "sublocality_level_1" ]
            },
            {
               "long_name" : "Beijing Shi",
               "short_name" : "Beijing Shi",
               "types" : [ "administrative_area_level_1", "political" ]
            },
            {
               "long_name" : "China",
               "short_name" : "CN",
               "types" : [ "country", "political" ]
            }
         ],
         "formatted_address" : "30 Shuangqing Rd, Haidian Qu, Beijing Shi, China",
         "geometry" : {
            "location" : {
               "lat" : 39.9996674,
               "lng" : 116.3264439
            },
            "location_type" : "ROOFTOP",
            "viewport" : {
               "northeast" : {
                  "lat" : 40.0010163802915,
                  "lng" : 116.3277928802915
               },
               "southwest" : {
                  "lat" : 39.9983184197085,
                  "lng" : 116.3250949197085
               }
            }
         },
         "place_id" : "ChIJjzweph9U8DURyeLg4P5QWtk",
         "plus_code" : {
            "compound_code" : "X8XG+VH Haidian, Beijing, China",
            "global_code" : "8PFRX8XG+VH"
         },
         "types" : [ "establishment", "point_of_interest", "university" ]
      },
      {
         "address_components" : [
            {
               "long_name" : "Unnamed Road",
               "short_name" : "Unnamed Road",
               "types" : [ "route" ]
            },
            {
               "long_name" : "Haidian Qu",
               "short_name" : "Haidian Qu",
               "types" : [ "political", "sublocality", "sublocality_level_1" ]
            },
            {
               "long_name" : "Beijing Shi",
               "short_name" : "Beijing Shi",
               "types" : [ "administrative_area_level_1", "political" ]
            },
            {
               "long_name" : "China",
               "short_name" : "CN",
               "types" : [ "country", "political" ]
            }
         ],
         "formatted_address" : "Unnamed Road, Haidian Qu, Beijing Shi, China",
         "geometry" : {
            "bounds" : {
               "northeast" : {
                  "lat" : 39.9996309,
                  "lng" : 116.3267864
               },
               "southwest" : {
                  "lat" : 39.999618,
                  "lng" : 116.3260326
               }
            },
            "location" : {
               "lat" : 39.99962439999999,
               "lng" : 116.3264095
            },
            "location_type" : "GEOMETRIC_CENTER",
            "viewport" : {
               "northeast" : {
                  "lat" : 40.00097343029149,
                  "lng" : 116.3277584802915
               },
               "southwest" : {
                  "lat" : 39.9982754697085,
                  "lng" : 116.3250605197085
               }
            }
         },
         "place_id" : "ChIJnSZMbR5U8DUReKEhrQQW4gY",
         "types" : [ "route" ]
      },
      {
         "address_components" : [
            {
               "long_name" : "Haidian",
               "short_name" : "Haidian",
               "types" : [ "political", "sublocality", "sublocality_level_1" ]
            },
            {
               "long_name" : "Beijing",
               "short_name" : "Beijing",
               "types" : [ "administrative_area_level_1", "political" ]
            },
            {
               "long_name" : "China",
               "short_name" : "CN",
               "types" : [ "country", "political" ]
            }
         ],
         "formatted_address" : "Haidian, Beijing, China",
         "geometry" : {
            "bounds" : {
               "northeast" : {
                  "lat" : 40.1609855,
                  "lng" : 116.3950925
               },
               "southwest" : {
                  "lat" : 39.8866432,
                  "lng" : 116.0488379
               }
            },
            "location" : {
               "lat" : 39.959953,
               "lng" : 116.298326
            },
            "location_type" : "APPROXIMATE",
            "viewport" : {
               "northeast" : {
                  "lat" : 40.1609855,
                  "lng" : 116.3950925
               },
               "southwest" : {
                  "lat" : 39.8866432,
                  "lng" : 116.0488379
               }
            }
         },
         "place_id" : "ChIJY61lyDdR8DURicN9xoOvSNM",
         "types" : [ "political", "sublocality", "sublocality_level_1" ]
      },
      {
         "address_components" : [
            {
               "long_name" : "Beijing",
               "short_name" : "Beijing",
               "types" : [ "locality", "political" ]
            },
            {
               "long_name" : "Beijing",
               "short_name" : "Beijing",
               "types" : [ "administrative_area_level_1", "political" ]
            },
            {
               "long_name" : "China",
               "short_name" : "CN",
               "types" : [ "country", "political" ]
            }
         ],
         "formatted_address" : "Beijing, China",
         "geometry" : {
            "bounds" : {
               "northeast" : {
                  "lat" : 41.0608157,
                  "lng" : 117.514625
               },
               "southwest" : {
                  "lat" : 39.442758,
                  "lng" : 115.4234112
               }
            },
            "location" : {
               "lat" : 39.90419989999999,
               "lng" : 116.4073963
            },
            "location_type" : "APPROXIMATE",
            "viewport" : {
               "northeast" : {
                  "lat" : 41.0608157,
                  "lng" : 117.514625
               },
               "southwest" : {
                  "lat" : 39.442758,
                  "lng" : 115.4234112
               }
            }
         },
         "place_id" : "ChIJuSwU55ZS8DURiqkPryBWYrk",
         "types" : [ "locality", "political" ]
      },
      {
         "address_components" : [
            {
               "long_name" : "Beijing",
               "short_name" : "Beijing",
               "types" : [ "administrative_area_level_1", "political" ]
            },
            {
               "long_name" : "China",
               "short_name" : "CN",
               "types" : [ "country", "political" ]
            }
         ],
         "formatted_address" : "Beijing, China",
         "geometry" : {
            "bounds" : {
               "northeast" : {
                  "lat" : 41.0608157,
                  "lng" : 117.514625
               },
               "southwest" : {
                  "lat" : 39.442758,
                  "lng" : 115.4234112
               }
            },
            "location" : {
               "lat" : 40.2373519,
               "lng" : 116.2304616
            },
            "location_type" : "APPROXIMATE",
            "viewport" : {
               "northeast" : {
                  "lat" : 41.0608157,
                  "lng" : 117.514625
               },
               "southwest" : {
                  "lat" : 39.442758,
                  "lng" : 115.4234112
               }
            }
         },
         "place_id" : "ChIJuSwU55ZS8DURp8_dOLuVd8A",
         "types" : [ "administrative_area_level_1", "political" ]
      },
      {
         "address_components" : [
            {
               "long_name" : "China",
               "short_name" : "CN",
               "types" : [ "country", "political" ]
            }
         ],
         "formatted_address" : "China",
         "geometry" : {
            "bounds" : {
               "northeast" : {
                  "lat" : 53.5609739,
                  "lng" : 134.7754563
               },
               "southwest" : {
                  "lat" : 17.9996,
                  "lng" : 73.4994136
               }
            },
            "location" : {
               "lat" : 35.86166,
               "lng" : 104.195397
            },
            "location_type" : "APPROXIMATE",
            "viewport" : {
               "northeast" : {
                  "lat" : 53.5609739,
                  "lng" : 134.7754563
               },
               "southwest" : {
                  "lat" : 17.9996,
                  "lng" : 73.4994136
               }
            }
         },
         "place_id" : "ChIJwULG5WSOUDERbzafNHyqHZU",
         "types" : [ "country", "political" ]
      }
   ],
   "status" : "OK"
}
