{
   "plus_code" : {
      "compound_code" : "MQG3+25 Tokyo, Japan",
      "global_code" : "8Q7XMQG3+25"
   },
   "results" : [
      {
         "address_components" : [
            {
               "long_name" : "4",
               "short_name" : "4",
               "types" : [ "premise" ]
            },
            {
               "long_name" : "1",
               "short_name" : "1",
               "types" : [ "political", "sublocality", "sublocality_level_4" ]
            },
            {
               "long_name" : "1 Chome",
               "short_name" : "1 Chome",
               "types" : [ "political", "sublocality", "sublocality_level_3" ]
            },
            {
               "long_name" : "Kasumigaseki",
               "short_name" : "Kasumigaseki",
               "types" : [ "political", "sublocality", "sublocality_level_2" ]
            },
            {
               "long_name" : "Chiyoda",
               "short_name" : "Chiyoda",
               "types" : [ "locality", "political" ]
            },
            {
               "long_name" : "Tokyo",
               "short_name" : "Tokyo",
               "types" : [ "administrative_area_level_1", "political" ]
            },
            {
               "long_name" : "Japan",
               "short_name" : "JP",
               "types" : [ "country", "political" ]
            },
            {
               "long_name" : "100-0013",
               "short_name" : "100-0013",
               "types" : [ "postal_code" ]
            }
         ],
         "formatted_address" : "1 Chome-1-4 Kasumigaseki, Chiyoda, Tokyo 100-0013, Japan",
         "geometry" : {
            "location" : {
               "lat" : 35.6746942,
               "lng" : 139.7524211
            },
            "location_type" : "ROOFTOP",
            "viewport" : {
               "northeast" : {
                  "lat" : 35.67604318029149,
                  "lng" : 139.7537700802915
               },
               "southwest" : {
                  "lat" : 35.67334521970849,
                  "lng" : 139.7510721197085
               }
            }
         },
         "place_id" : "ChIJ8YHhS_OLGGARiMJcBz0Ip60",
         "plus_code" : {
            "compound_code" : "MQF2+VX Tokyo, Japan",
            "global_code" : "8Q7XMQF2+VX"
         },
         "types" : [ "establishment", "finance", "point_of_interest", "post_office" ]
      },
      {
         "address_components" : [
            {
               "long_name" : "4",
               "short_name" : "4",
               "types" : [ "premise" ]
            },
            {
               "long_name" : "1",
               "short_name" : "1",
               "types" : [ "political", "sublocality", "sublocality_level_4" ]
            },
            {
               "long_name" : "1 Chome",
               "short_name" : "1 Chome",
               "types" : [ "political", "sublocality", "sublocality_level_3" ]
            },
            {
               "long_name" : "Kasumigaseki",
               "short_name" : "Kasumigaseki",
               "types" : [ "political", "sublocality", "sublocality_level_2" ]
            },
            {
               "long_name" : "Chiyoda-ku",
               "short_name" : "Chiyoda-ku",
               "types" : [ "locality", "political" ]
            },
            {
               "long_name" : "Tōkyō-to",
               "short_name" : "Tōkyō-to",
               "types" : [ "administrative_area_level_1", "political" ]
            },
            {
               "long_name" : "Japan",
               "short_name" : "JP",
               "types" : [ "country", "political" ]
            },
            {
               "long_name" : "100-0013",
               "short_name" : "100-0013",
               "types" : [ "postal_code" ]
            }
         ],
         "formatted_address" : "1 Chome-1-4 Kasumigaseki, Chiyoda-ku, Tōkyō-to 100-0013, Japan",
         "geometry" : {
            "location" : {
               "lat" : 35.6751716,
               "lng" : 139.7527625
            },
            "location_type" : "ROOFTOP",
            "viewport" : {
               "northeast" : {
                  "lat" : 35.67652058029149,
                  "lng" : 139.7541114802915
               },
               "southwest" : {
                  "lat" : 35.6738226197085,
                  "lng" : 139.7514135197085
               }
            }
         },
         "place_id" : "ChIJnSRKSfOLGGAROtI_DDpJnzE",
         "plus_code" : {
            "compound_code" : "MQG3+34 Tokyo, Japan",
            "global_code" : "8Q7XMQG3+34"
         },
         "types" : [ "street_address" ]
      },
      {
         "address_components" : [
            {
               "long_name" : "1 Chome",
               "short_name" : "1 Chome",
               "types" : [ "political", "sublocality", "sublocality_level_3" ]
            },
            {
               "long_name" : "Kasumigaseki",
               "short_name" : "Kasumigaseki",
               "types" : [ "political", "sublocality", "sublocality_level_2" ]
            },
            {
               "long_name" : "Chiyoda",
               "short_name" : "Chiyoda",
               "types" : [ "locality", "political" ]
            },
            {
               "long_name" : "Tokyo",
               "short_name" : "Tokyo",
               "types" : [ "administrative_area_level_1", "political" ]
            },
            {
               "long_name" : "Japan",
               "short_name" : "JP",
               "types" : [ "country", "political" ]
            },
            {
               "long_name" : "100-0013",
               "short_name" : "100-0013",
               "types" : [ "postal_code" ]
            }
         ],
         "formatted_address" : "1 Chome Kasumigaseki, Chiyoda, Tokyo 100-0013, Japan",
         "geometry" : {
            "bounds" : {
               "northeast" : {
                  "lat" : 35.6779463,
                  "lng" : 139.7559863
               },
               "southwest" : {
                  "lat" : 35.6701439,
                  "lng" : 139.7494785
               }
            },
            "location" : {
               "lat" : 35.6750966,
               "lng" : 139.7529763
            },
            "location_type" : "APPROXIMATE",
            "viewport" : {
               "northeast" : {
                  "lat" : 35.6779463,
                  "lng" : 139.7559863
               },
               "southwest" : {
                  "lat" : 35.6701439,
                  "lng" : 139.7494785
               }
            }
         },
         "place_id" : "ChIJfUgBLPOLGGARIypJrYYr4Yg",
         "types" : [ "political", "sublocality", "sublocality_level_3" ]
      },
      {
         "address_components" : [
            {
               "long_name" : "1",
               "short_name" : "1",
               "types" : [ "political", "sublocality", "sublocality_level_4" ]
            },
            {
               "long_name" : "1 Chome",
               "short_name" : "1 Chome",
               "types" : [ "political", "sublocality", "sublocality_level_3" ]
            },
            {
               "long_name" : "Kasumigaseki",
               "short_name" : "Kasumigaseki",
               "types" : [ "political", "sublocality", "sublocality_level_2" ]
            },
            {
               "long_name" : "Chiyoda",
               "short_name" : "Chiyoda",
               "types" : [ "locality", "political" ]
            },
            {
               "long_name" : "Tokyo",
               "short_name" : "Tokyo",
               "types" : [ "administrative_area_level_1", "political" ]
            },
            {
               "long_name" : "Japan",
               "short_name" : "JP",
               "types" : [ "country", "political" ]
            },
            {
               "long_name" : "100-0013",
               "short_name" : "100-0013",
               "types" : [ "postal_code" ]
            }
         ],
         "formatted_address" : "1 Chome-1 Kasumigaseki, Chiyoda, Tokyo 100-0013, Japan",
         "geometry" : {
            "bounds" : {
               "northeast" : {
                  "lat" : 35.6779463,
                  "lng" : 139.7559863
               },
               "southwest" : {
                  "lat" : 35.6737337,
                  "lng" : 139.7514584
               }
            },
            "location" : {
               "lat" : 35.6760104,
               "lng" : 139.753954
            },
            "location_type" : "GEOMETRIC_CENTER",
            "viewport" : {
               "northeast" : {
                  "lat" : 35.6779463,
                  "lng" : 139.7559863
               },
               "southwest" : {
                  "lat" : 35.6737337,
                  "lng" : 139.7514584
               }
            }
         },
         "place_id" : "ChIJEb8DaPOLGGARwsRKPtsfHYk",
         "types" : [ "political", "sublocality", "sublocality_level_4" ]
      },
      {
         "address_components" : [
            {
               "long_name" : "Kasumigaseki",
               "short_name" : "Kasumigaseki",
               "types" : [ "political", "sublocality", "sublocality_level_2" ]
            },
            {
               "long_name" : "Chiyoda",
               "short_name" : "Chiyoda",
               "types" : [ "locality", "political" ]
            },
            {
               "long_name" : "Tokyo",
               "short_name" : "Tokyo",
               "types" : [ "administrative_area_level_1", "political" ]
            },
            {
               "long_name" : "Japan",
               "short_name" : "JP",
               "types" : [ "country", "political" ]
            },
            {
               "long_name" : "100-0013",
               "short_name" : "100-0013",
               "types" : [ "postal_code" ]
            }
         ],
         "formatted_address" : "Kasumigaseki, Chiyoda, Tokyo 100-0013, Japan",
         "geometry" : {
            "bounds" : {
               "northeast" : {
                  "lat" : 35.6780341,
                  "lng" : 139.7559836
               },
               "southwest" : {
                  "lat" : 35.6695167,
                  "lng" : 139.7430643
               }
            },
            "location" : {
               "lat" : 35.6752772,
               "lng" : 139.7525236
            },
            "location_type" : "APPROXIMATE",
            "viewport" : {
               "northeast" : {
                  "lat" : 35.6780341,
                  "lng" : 139.7559836
               },
               "southwest" : {
                  "lat" : 35.6695167,
                  "lng" : 139.7430643
               }
            }
         },
         "place_id" : "ChIJQfjQZoyLGGAR5jyOgja7PKE",
         "types" : [ "political", "sublocality", "sublocality_level_2" ]
      },
      {
         "address_components" : [
            {
               "long_name" : "100-0013",
               "short_name" : "100-0013",
               "types" : [ "postal_code" ]
            },
            {
               "long_name" : "Kasumigaseki",
               "short_name" : "Kasumigaseki",
               "types" : [ "political", "sublocality", "sublocality_level_2" ]
            },
            {
               "long_name" : "Chiyoda",
               "short_name" : "Chiyoda",
               "types" : [ "locality", "political" ]
            },
            {
               "long_name" : "Tokyo",
               "short_name" : "Tokyo",
               "types" : [ "administrative_area_level_1", "political" ]
            },
            {
               "long_name" : "Japan",
               "short_name" : "JP",
               "types" : [ "country", "political" ]
            }
         ],
         "formatted_address" : "100-0013, Japan",
         "geometry" : {
            "bounds" : {
               "northeast" : {
                  "lat" : 35.6780365,
                  "lng" : 139.7559863
               },
               "southwest" : {
                  "lat" : 35.6695167,
                  "lng" : 139.7430643
               }
            },
            "location" : {
               "lat" : 35.6742586,
               "lng" : 139.751153
            },
            "location_type" : "APPROXIMATE",
            "viewport" : {
               "northeast" : {
                  "lat" : 35.6780365,
                  "lng" : 139.7559863
               },
               "southwest" : {
                  "lat" : 35.6695167,
                  "lng" : 139.7430643
               }
            }
         },
         "place_id" : "ChIJK3Ca2vKLGGARs34Md7BHN-M",
         "types" : [ "postal_code" ]
      },
      {
         "address_components" : [
            {
               "long_name" : "Chiyoda",
               "short_name" : "Chiyoda",
               "types" : [ "locality", "political" ]
            },
            {
               "long_name" : "Tokyo",
               "short_name" : "Tokyo",
               "types" : [ "administrative_area_level_1", "political" ]
            },
            {
               "long_name" : "Japan",
               "short_name" : "JP",
               "types" : [ "country", "political" ]
            }
         ],
         "formatted_address" : "Chiyoda, Tokyo, Japan",
         "geometry" : {
            "bounds" : {
               "northeast" : {
                  "lat" : 35.7052158,
                  "lng" : 139.7828336
               },
               "southwest" : {
                  "lat" : 35.6685454,
                  "lng" : 139.7298934
               }
            },
            "location" : {
               "lat" : 35.6940027,
               "lng" : 139.7535951
            },
            "location_type" : "APPROXIMATE",
            "viewport" : {
               "northeast" : {
                  "lat" : 35.7052158,
                  "lng" : 139.7828336
               },
               "southwest" : {
                  "lat" : 35.6685454,
                  "lng" : 139.7298934
               }
            }
         },
         "place_id" : "ChIJTfUTCwyMGGARiIHk7juVMLY",
         "types" : [ "locality", "political" ]
      },
      {
         "address_components" : [
            {
               "long_name" : "Tokyo",
               "short_name" : "Tokyo",
               "types" : [ "colloquial_area", "locality", "political" ]
            },
            {
               "long_name" : "Tokyo",
               "short_name" : "Tokyo",
               "types" : [ "administrative_area_level_1", "political" ]
            },
            {
               "long_name" : "Japan",
               "short_name" : "JP",
               "types" : [ "country", "political" ]
            }
         ],
         "formatted_address" : "Tokyo, Japan",
         "geometry" : {
            "bounds" : {
               "northeast" : {
                  "lat" : 35.8175167,
                  "lng" : 139.9198565
               },
               "southwest" : {
                  "lat" : 35.5208603,
                  "lng" : 139.5629048
               }
            },
            "location" : {
               "lat" : 35.7090259,
               "lng" : 139.7319925
            },
            "location_type" : "APPROXIMATE",
            "viewport" : {
               "northeast" : {
                  "lat" : 35.8175167,
                  "lng" : 139.9198565
               },
               "southwest" : {
                  "lat" : 35.5208603,
                  "lng" : 139.5629048
               }
            }
         },
         "place_id" : "ChIJXSModoWLGGARILWiCfeu2M0",
         "types" : [ "colloquial_area", "locality", "political" ]
      },
      {
         "address_components" : [
            {
               "long_name" : "Tokyo",
               "short_name" : "Tokyo",
               "types" : [ "administrative_area_level_1", "locality", "political" ]
            },
            {
               "long_name" : "Japan",
               "short_name" : "JP",
               "types" : [ "country", "political" ]
            }
         ],
         "formatted_address" : "Tokyo, Japan",
         "geometry" : {
            "bounds" : {
               "northeast" : {
                  "lat" : 35.8986468,
                  "lng" : 153.9876115
               },
               "southwest" : {
                  "lat" : 24.2242626,
                  "lng" : 138.942758
               }
            },
            "location" : {
               "lat" : 35.6894875,
               "lng" : 139.6917064
            },
            "location_type" : "APPROXIMATE",
            "viewport" : {
               "northeast" : {
                  "lat" : 35.8986468,
                  "lng" : 153.9876115
               },
               "southwest" : {
                  "lat" : 24.2242626,
                  "lng" : 138.942758
               }
            }
         },
         "place_id" : "ChIJ51cu8IcbXWARiRtXIothAS4",
         "types" : [ "administrative_area_level_1", "locality", "political" ]
      },
      {
         "address_components" : [
            {
               "long_name" : "Japan",
               "short_name" : "JP",
               "types" : [ "country", "political" ]
            }
         ],
         "formatted_address" : "Japan",
         "geometry" : {
            "bounds" : {
               "northeast" : {
                  "lat" : 45.6412626,
                  "lng" : 154.0031455
               },
               "southwest" : {
                  "lat" : 20.3585295,
                  "lng" : 122.8554688
               }
            },
            "location" : {
               "lat" : 36.204824,
               "lng" : 138.252924
            },
            "location_type" : "APPROXIMATE",
            "viewport" : {
               "northeast" : {
                  "lat" : 45.6412626,
                  "lng" : 154.0031455
               },
               "southwest" : {
                  "lat" : 20.3585295,
                  "lng" : 122.8554688
               }
            }
         },
         "place_id" : "ChIJLxl_1w9OZzQRRFJmfNR1QvU",
         "types" : [ "country", "political" ]
      }
   ],
   "status" : "OK"
}
