{
   "plus_code" : {
      "compound_code" : "WXXH+GH Lucas Heights NSW, Australia",
      "global_code" : "4RQGWXXH+GH"
   },
   "results" : [
      {
         "address_components" : [
            {
               "long_name" : "New Illawarra Road",
               "short_name" : "New Illawarra Rd",
               "types" : [ "route" ]
            },
            {
               "long_name" : "Lucas Heights",
               "short_name" : "Lucas Heights",
               "types" : [ "locality", "political" ]
            },
            {
               "long_name" : "Sutherland Shire Council",
               "short_name" : "Sutherland Shire",
               "types" : [ "administrative_area_level_2", "political" ]
            },
            {
               "long_name" : "New South Wales",
               "short_name" : "NSW",
               "types" : [ "administrative_area_level_1", "political" ]
            },
            {
               "long_name" : "Australia",
               "short_name" : "AU",
               "types" : [ "country", "political" ]
            },
            {
               "long_name" : "2234",
               "short_name" : "2234",
               "types" : [ "postal_code" ]
            }
         ],
         "formatted_address" : "New Illawarra Rd, Lucas Heights NSW 2234, Australia",
         "geometry" : {
            "location" : {
               "lat" : -34.051141,
               "lng" : 150.9788961
            },
            "location_type" : "GEOMETRIC_CENTER",
            "viewport" : {
               "northeast" : {
                  "lat" : -34.04979201970851,
                  "lng" : 150.9802450802915
               },
               "southwest" : {
                  "lat" : -34.0524899802915,
                  "lng" : 150.9775471197085
               }
            }
         },
         "place_id" : "ChIJWWnyELDBEmsReVDEqI5NOBM",
         "plus_code" : {
            "compound_code" : "WXXH+GH Lucas Heights, New South Wales, Australia",
            "global_code" : "4RQGWXXH+GH"
         },
         "types" : [ "establishment", "point_of_interest" ]
      },
      {
         "address_components" : [
            {
               "long_name" : "Aston Avenue",
               "short_name" : "Aston Ave",
               "types" : [ "route" ]
            },
            {
               "long_name" : "Lucas Heights",
               "short_name" : "Lucas Heights",
               "types" : [ "locality", "political" ]
            },
            {
               "long_name" : "Sutherland Shire Council",
               "short_name" : "Sutherland Shire",
               "types" : [ "administrative_area_level_2", "political" ]
            },
            {
               "long_name" : "New South Wales",
               "short_name" : "NSW",
               "types" : [ "administrative_area_level_1", "political" ]
            },
            {
               "long_name" : "Australia",
               "short_name" : "AU",
               "types" : [ "country", "political" ]
            },
            {
               "long_name" : "2234",
               "short_name" : "2234",
               "types" : [ "postal_code" ]
            }
         ],
         "formatted_address" : "Aston Ave, Lucas Heights NSW 2234, Australia",
         "geometry" : {
            "bounds" : {
               "northeast" : {
                  "lat" : -34.0511009,
                  "lng" : 150.9811279
               },
               "southwest" : {
                  "lat" : -34.0514092,
                  "lng" : 150.9794889
               }
            },
            "location" : {
               "lat" : -34.0512551,
               "lng" : 150.9803084
            },
            "location_type" : "GEOMETRIC_CENTER",
            "viewport" : {
               "northeast" : {
                  "lat" : -34.04990606970851,
                  "lng" : 150.9816573802915
               },
               "southwest" : {
                  "lat" : -34.0526040302915,
                  "lng" : 150.9789594197085
               }
            }
         },
         "place_id" : "ChIJe0fL2L7BEmsR0EWU5Wd9ARM",
         "types" : [ "route" ]
      },
      {
         "address_components" : [
            {
               "long_name" : "Lucas Heights",
               "short_name" : "Lucas Heights",
               "types" : [ "locality", "political" ]
            },
            {
               "long_name" : "Sutherland Shire Council",
               "short_name" : "Sutherland Shire",
               "types" : [ "administrative_area_level_2", "political" ]
            },
            {
               "long_name" : "New South Wales",
               "short_name" : "NSW",
               "types" : [ "administrative_area_level_1", "political" ]
            },
            {
               "long_name" : "Australia",
               "short_name" : "AU",
               "types" : [ "country", "political" ]
            },
            {
               "long_name" : "2234",
               "short_name" : "2234",
               "types" : [ "postal_code" ]
            }
         ],
         "formatted_address" : "Lucas Heights NSW 2234, Australia",
         "geometry" : {
            "bounds" : {
               "northeast" : {
                  "lat" : -34.0171876,
                  "lng" : 150.9969719
               },
               "southwest" : {
                  "lat" : -34.0603729,
                  "lng" : 150.9587949
               }
            },
            "location" : {
               "lat" : -34.049,
               "lng" : 150.975
            },
            "location_type" : "APPROXIMATE",
            "viewport" : {
               "northeast" : {
                  "lat" : -34.0171876,
                  "lng" : 150.9969719
               },
               "southwest" : {
                  "lat" : -34.0603729,
                  "lng" : 150.9587949
               }
            }
         },
         "place_id" : "ChIJd_xvGbbBEmsRIL8yFmh9AQU",
         "types" : [ "locality", "political" ]
      },
      {
         "address_components" : [
            {
               "long_name" : "2234",
               "short_name" : "2234",
               "types" : [ "postal_code" ]
            },
            {
               "long_name" : "Menai",
               "short_name" : "Menai",
               "types" : [ "locality", "political" ]
            },
            {
               "long_name" : "Sutherland Shire Council",
               "short_name" : "Sutherland Shire",
               "types" : [ "administrative_area_level_2", "political" ]
            },
            {
               "long_name" : "New South Wales",
               "short_name" : "NSW",
               "types" : [ "administrative_area_level_1", "political" ]
            },
            {
               "long_name" : "Australia",
               "short_name" : "AU",
               "types" : [ "country", "political" ]
            }
         ],
         "formatted_address" : "Menai NSW 2234, Australia",
         "geometry" : {
            "bounds" : {
               "northeast" : {
                  "lat" : -33.9757808,
                  "lng" : 151.069015
               },
               "southwest" : {
                  "lat" : -34.0603729,
                  "lng" : 150.9587949
               }
            },
            "location" : {
               "lat" : -34.0161592,
               "lng" : 151.006385
            },
            "location_type" : "APPROXIMATE",
            "viewport" : {
               "northeast" : {
                  "lat" : -33.9757808,
                  "lng" : 151.069015
               },
               "southwest" : {
                  "lat" : -34.0603729,
                  "lng" : 150.9587949
               }
            }
         },
         "place_id" : "ChIJmx091s--EmsRMJO6P2t9ARw",
         "postcode_localities" : [
            "Alfords Point",
            "Bangor",
            "Barden Ridge",
            "Illawong",
            "Lucas Heights",
            "Menai"
         ],
         "types" : [ "postal_code" ]
      },
      {
         "address_components" : [
            {
               "long_name" : "Sutherland Shire Council",
               "short_name" : "Sutherland Shire",
               "types" : [ "administrative_area_level_2", "political" ]
            },
            {
               "long_name" : "New South Wales",
               "short_name" : "NSW",
               "types" : [ "administrative_area_level_1", "political" ]
            },
            {
               "long_name" : "Australia",
               "short_name" : "AU",
               "types" : [ "country", "political" ]
            }
         ],
         "formatted_address" : "Sutherland Shire, NSW, Australia",
         "geometry" : {
            "bounds" : {
               "northeast" : {
                  "lat" : -33.9712329,
                  "lng" : 151.232231
               },
               "southwest" : {
                  "lat" : -34.1723949,
                  "lng" : 150.9222461
               }
            },
            "location" : {
               "lat" : -34.0640771,
               "lng" : 151.0937206
            },
            "location_type" : "APPROXIMATE",
            "viewport" : {
               "northeast" : {
                  "lat" : -33.9712329,
                  "lng" : 151.232231
               },
               "southwest" : {
                  "lat" : -34.1723949,
                  "lng" : 150.9222461
               }
            }
         },
         "place_id" : "ChIJz18KO-_GEmsRe3usN31cxv0",
         "types" : [ "administrative_area_level_2", "political" ]
      },
      {
         "address_components" : [
            {
               "long_name" : "Sydney",
               "short_name" : "Sydney",
               "types" : [ "colloquial_area", "locality", "political" ]
            },
            {
               "long_name" : "New South Wales",
               "short_name" : "NSW",
               "types" : [ "administrative_area_level_1", "political" ]
            },
            {
               "long_name" : "Australia",
               "short_name" : "AU",
               "types" : [ "country", "political" ]
            }
         ],
         "formatted_address" : "Sydney NSW, Australia",
         "geometry" : {
            "bounds" : {
               "northeast" : {
                  "lat" : -33.5781409,
                  "lng" : 151.3430209
               },
               "southwest" : {
                  "lat" : -34.118347,
                  "lng" : 150.5209286
               }
            },
            "location" : {
               "lat" : -33.8688197,
               "lng" : 151.2092955
            },
            "location_type" : "APPROXIMATE",
            "viewport" : {
               "northeast" : {
                  "lat" : -33.5781409,
                  "lng" : 151.3430209
               },
               "southwest" : {
                  "lat" : -34.118347,
                  "lng" : 150.5209286
               }
            }
         },
         "place_id" : "ChIJP3Sa8ziYEmsRUKgyFmh9AQM",
         "types" : [ "colloquial_area", "locality", "political" ]
      },
      {
         "address_components" : [
            {
               "long_name" : "New South Wales",
               "short_name" : "New South Wales",
               "types" : [ "administrative_area_level_1", "political" ]
            },
            {
               "long_name" : "Australia",
               "short_name" : "AU",
               "types" : [ "country", "political" ]
            }
         ],
         "formatted_address" : "New South Wales, Australia",
         "geometry" : {
            "bounds" : {
               "northeast" : {
                  "lat" : -28.15702,
                  "lng" : 159.1054441
               },
               "southwest" : {
                  "lat" : -37.5052801,
                  "lng" : 140.9992793
               }
            },
            "location" : {
               "lat" : -31.2532183,
               "lng" : 146.921099
            },
            "location_type" : "APPROXIMATE",
            "viewport" : {
               "northeast" : {
                  "lat" : -28.15702,
                  "lng" : 159.1054441
               },
               "southwest" : {
                  "lat" : -37.5052801,
                  "lng" : 140.9992793
               }
            }
         },
         "place_id" : "ChIJDUte93TLDWsRLZ_EIhGvgBc",
         "types" : [ "administrative_area_level_1", "political" ]
      },
      {
         "address_components" : [
            {
               "long_name" : "Australia",
               "short_name" : "AU",
               "types" : [ "country", "political" ]
            }
         ],
         "formatted_address" : "Australia",
         "geometry" : {
            "bounds" : {
               "northeast" : {
                  "lat" : -9.187026399999999,
                  "lng" : 159.2872223
               },
               "southwest" : {
                  "lat" : -54.83376579999999,
                  "lng" : 110.9510339
               }
            },
            "location" : {
               "lat" : -25.274398,
               "lng" : 133.775136
            },
            "location_type" : "APPROXIMATE",
            "viewport" : {
               "northeast" : {
                  "lat" : -9.187026399999999,
                  "lng" : 159.2872223
               },
               "southwest" : {
                  "lat" : -54.83376579999999,
                  "lng" : 110.9510339
               }
            }
         },
         "place_id" : "ChIJ38WHZwf9KysRUhNblaFnglM",
         "types" : [ "country", "political" ]
      }
   ],
   "status" : "OK"
}
