{
   "plus_code" : {
      "compound_code" : "78G6+M5 Elche, Spain",
      "global_code" : "8CCX78G6+M5"
   },
   "results" : [
      {
         "address_components" : [
            {
               "long_name" : "s/n",
               "short_name" : "s/n",
               "types" : [ "street_number" ]
            },
            {
               "long_name" : "Avinguda de la Universitat d'Elx",
               "short_name" : "Avinguda de la Universitat d'Elx",
               "types" : [ "route" ]
            },
            {
               "long_name" : "Elx",
               "short_name" : "Elx",
               "types" : [ "locality", "political" ]
            },
            {
               "long_name" : "Alicante",
               "short_name" : "A",
               "types" : [ "administrative_area_level_2", "political" ]
            },
            {
               "long_name" : "Comunidad Valenciana",
               "short_name" : "Comunidad Valenciana",
               "types" : [ "administrative_area_level_1", "political" ]
            },
            {
               "long_name" : "Spain",
               "short_name" : "ES",
               "types" : [ "country", "political" ]
            },
            {
               "long_name" : "03202",
               "short_name" : "03202",
               "types" : [ "postal_code" ]
            }
         ],
         "formatted_address" : "Avinguda de la Universitat d'Elx, s/n, 03202 Elx, Alicante, Spain",
         "geometry" : {
            "location" : {
               "lat" : 38.2766838,
               "lng" : -0.6895119
            },
            "location_type" : "ROOFTOP",
            "viewport" : {
               "northeast" : {
                  "lat" : 38.2780327802915,
                  "lng" : -0.6881629197084979
               },
               "southwest" : {
                  "lat" : 38.2753348197085,
                  "lng" : -0.6908608802915019
               }
            }
         },
         "place_id" : "ChIJl4xSa2O2Yw0Rq4hYVTOtxx4",
         "plus_code" : {
            "compound_code" : "78G6+M5 Elche, Spain",
            "global_code" : "8CCX78G6+M5"
         },
         "types" : [ "establishment", "point_of_interest", "university" ]
      },
      {
         "address_components" : [
            {
               "long_name" : "16",
               "short_name" : "16",
               "types" : [ "street_number" ]
            },
            {
               "long_name" : "Altabix-3",
               "short_name" : "Altabix-3",
               "types" : [ "route" ]
            },
            {
               "long_name" : "Elx",
               "short_name" : "Elx",
               "types" : [ "locality", "political" ]
            },
            {
               "long_name" : "Alicante",
               "short_name" : "A",
               "types" : [ "administrative_area_level_2", "political" ]
            },
            {
               "long_name" : "Comunidad Valenciana",
               "short_name" : "Comunidad Valenciana",
               "types" : [ "administrative_area_level_1", "political" ]
            },
            {
               "long_name" : "Spain",
               "short_name" : "ES",
               "types" : [ "country", "political" ]
            },
            {
               "long_name" : "03207",
               "short_name" : "03207",
               "types" : [ "postal_code" ]
            }
         ],
         "formatted_address" : "Altabix-3, 16, 03207 Elx, Alicante, Spain",
         "geometry" : {
            "location" : {
               "lat" : 38.2764897,
               "lng" : -0.6892929999999999
            },
            "location_type" : "ROOFTOP",
            "viewport" : {
               "northeast" : {
                  "lat" : 38.2778386802915,
                  "lng" : -0.6879440197084979
               },
               "southwest" : {
                  "lat" : 38.2751407197085,
                  "lng" : -0.690641980291502
               }
            }
         },
         "place_id" : "ChIJEWysn2O2Yw0RK1k5A1kKlos",
         "plus_code" : {
            "compound_code" : "78G6+H7 Elche, Spain",
            "global_code" : "8CCX78G6+H7"
         },
         "types" : [ "street_address" ]
      },
      {
         "address_components" : [
            {
               "long_name" : "11",
               "short_name" : "11",
               "types" : [ "street_number" ]
            },
            {
               "long_name" : "Altabix-3",
               "short_name" : "Altabix-3",
               "types" : [ "route" ]
            },
            {
               "long_name" : "Elx",
               "short_name" : "Elx",
               "types" : [ "locality", "political" ]
            },
            {
               "long_name" : "Alicante",
               "short_name" : "A",
               "types" : [ "administrative_area_level_2", "political" ]
            },
            {
               "long_name" : "Spain",
               "short_name" : "ES",
               "types" : [ "country", "political" ]
            },
            {
               "long_name" : "03207",
               "short_name" : "03207",
               "types" : [ "postal_code" ]
            }
         ],
         "formatted_address" : "Altabix-3, 11, 03207 Elx, Alicante, Spain",
         "geometry" : {
            "location" : {
               "lat" : 38.2766163,
               "lng" : -0.6896871
            },
            "location_type" : "RANGE_INTERPOLATED",
            "viewport" : {
               "northeast" : {
                  "lat" : 38.2779652802915,
                  "lng" : -0.6883381197084979
               },
               "southwest" : {
                  "lat" : 38.2752673197085,
                  "lng" : -0.691036080291502
               }
            }
         },
         "place_id" : "EitBbHRhYml4LTMsIDExLCAwMzIwNyBFbHgsIEFsaWNhbnRlLCBFc3BhbnlhIhoSGAoUChIJaVR3mWO2Yw0RD_84wRthn5UQCw",
         "types" : [ "street_address" ]
      },
      {
         "address_components" : [
            {
               "long_name" : "03207",
               "short_name" : "03207",
               "types" : [ "postal_code" ]
            },
            {
               "long_name" : "Elche",
               "short_name" : "Elche",
               "types" : [ "locality", "political" ]
            },
            {
               "long_name" : "Alicante",
               "short_name" : "A",
               "types" : [ "administrative_area_level_2", "political" ]
            },
            {
               "long_name" : "Valencian Community",
               "short_name" : "Valencian Community",
               "types" : [ "administrative_area_level_1", "political" ]
            },
            {
               "long_name" : "Spain",
               "short_name" : "ES",
               "types" : [ "country", "political" ]
            }
         ],
         "formatted_address" : "03207 Elche, Alicante, Spain",
         "geometry" : {
            "bounds" : {
               "northeast" : {
                  "lat" : 38.3002184,
                  "lng" : -0.6547851
               },
               "southwest" : {
                  "lat" : 38.2728885,
                  "lng" : -0.7059394
               }
            },
            "location" : {
               "lat" : 38.2882985,
               "lng" : -0.6725609
            },
            "location_type" : "APPROXIMATE",
            "viewport" : {
               "northeast" : {
                  "lat" : 38.3002184,
                  "lng" : -0.6547851
               },
               "southwest" : {
                  "lat" : 38.2728885,
                  "lng" : -0.7059394
               }
            }
         },
         "place_id" : "ChIJvdtiEwu2Yw0RoOQUPnKvAhw",
         "types" : [ "postal_code" ]
      },
      {
         "address_components" : [
            {
               "long_name" : "Elche",
               "short_name" : "Elche",
               "types" : [ "locality", "political" ]
            },
            {
               "long_name" : "Alicante",
               "short_name" : "A",
               "types" : [ "administrative_area_level_2", "political" ]
            },
            {
               "long_name" : "Valencian Community",
               "short_name" : "Valencian Community",
               "types" : [ "administrative_area_level_1", "political" ]
            },
            {
               "long_name" : "Spain",
               "short_name" : "ES",
               "types" : [ "country", "political" ]
            }
         ],
         "formatted_address" : "Elche, Alicante, Spain",
         "geometry" : {
            "bounds" : {
               "northeast" : {
                  "lat" : 38.2823109,
                  "lng" : -0.6536157
               },
               "southwest" : {
                  "lat" : 38.2507469,
                  "lng" : -0.7257486
               }
            },
            "location" : {
               "lat" : 38.2699329,
               "lng" : -0.7125608
            },
            "location_type" : "APPROXIMATE",
            "viewport" : {
               "northeast" : {
                  "lat" : 38.2823109,
                  "lng" : -0.6536157
               },
               "southwest" : {
                  "lat" : 38.2507469,
                  "lng" : -0.7257486
               }
            }
         },
         "place_id" : "ChIJo1fOTiy0Yw0R3STna3zepdk",
         "types" : [ "locality", "political" ]
      },
      {
         "address_components" : [
            {
               "long_name" : "Elche",
               "short_name" : "Elche",
               "types" : [ "administrative_area_level_4", "political" ]
            },
            {
               "long_name" : "Alicante",
               "short_name" : "A",
               "types" : [ "administrative_area_level_2", "political" ]
            },
            {
               "long_name" : "Valencian Community",
               "short_name" : "Valencian Community",
               "types" : [ "administrative_area_level_1", "political" ]
            },
            {
               "long_name" : "Spain",
               "short_name" : "ES",
               "types" : [ "country", "political" ]
            }
         ],
         "formatted_address" : "Elche, Alicante, Spain",
         "geometry" : {
            "bounds" : {
               "northeast" : {
                  "lat" : 38.3447961,
                  "lng" : -0.5102987
               },
               "southwest" : {
                  "lat" : 38.1281556,
                  "lng" : -0.7818075
               }
            },
            "location" : {
               "lat" : 38.2699475,
               "lng" : -0.711896
            },
            "location_type" : "APPROXIMATE",
            "viewport" : {
               "northeast" : {
                  "lat" : 38.3447961,
                  "lng" : -0.5102987
               },
               "southwest" : {
                  "lat" : 38.1281556,
                  "lng" : -0.7818075
               }
            }
         },
         "place_id" : "ChIJtS1U0nu0Yw0R8Ngh126vAgQ",
         "types" : [ "administrative_area_level_4", "political" ]
      },
      {
         "address_components" : [
            {
               "long_name" : "Baix Vinalopó",
               "short_name" : "Baix Vinalopó",
               "types" : [ "administrative_area_level_3", "political" ]
            },
            {
               "long_name" : "Alicante",
               "short_name" : "A",
               "types" : [ "administrative_area_level_2", "political" ]
            },
            {
               "long_name" : "Valencian Community",
               "short_name" : "Valencian Community",
               "types" : [ "administrative_area_level_1", "political" ]
            },
            {
               "long_name" : "Spain",
               "short_name" : "ES",
               "types" : [ "country", "political" ]
            }
         ],
         "formatted_address" : "Baix Vinalopó, Alicante, Spain",
         "geometry" : {
            "bounds" : {
               "northeast" : {
                  "lat" : 38.3447962,
                  "lng" : -0.507068
               },
               "southwest" : {
                  "lat" : 38.1281556,
                  "lng" : -0.8959418
               }
            },
            "location" : {
               "lat" : 38.2726661,
               "lng" : -0.6393702
            },
            "location_type" : "APPROXIMATE",
            "viewport" : {
               "northeast" : {
                  "lat" : 38.3447962,
                  "lng" : -0.507068
               },
               "southwest" : {
                  "lat" : 38.1281556,
                  "lng" : -0.8959418
               }
            }
         },
         "place_id" : "ChIJ46cZt862Yw0R847UuLK0mgs",
         "types" : [ "administrative_area_level_3", "political" ]
      },
      {
         "address_components" : [
            {
               "long_name" : "Alicante",
               "short_name" : "Alicante",
               "types" : [ "administrative_area_level_2", "political" ]
            },
            {
               "long_name" : "Valencian Community",
               "short_name" : "Valencian Community",
               "types" : [ "administrative_area_level_1", "political" ]
            },
            {
               "long_name" : "Spain",
               "short_name" : "ES",
               "types" : [ "country", "political" ]
            }
         ],
         "formatted_address" : "Alicante, Spain",
         "geometry" : {
            "bounds" : {
               "northeast" : {
                  "lat" : 38.8873914,
                  "lng" : 0.2342112
               },
               "southwest" : {
                  "lat" : 37.8438987,
                  "lng" : -1.0941624
               }
            },
            "location" : {
               "lat" : 38.3460627,
               "lng" : -0.4907945
            },
            "location_type" : "APPROXIMATE",
            "viewport" : {
               "northeast" : {
                  "lat" : 38.8873914,
                  "lng" : 0.2342112
               },
               "southwest" : {
                  "lat" : 37.8438987,
                  "lng" : -1.0941624
               }
            }
         },
         "place_id" : "ChIJfdrHtbc5Yg0RYMkh126vAgM",
         "types" : [ "administrative_area_level_2", "political" ]
      },
      {
         "address_components" : [
            {
               "long_name" : "Valencian Community",
               "short_name" : "Valencian Community",
               "types" : [ "administrative_area_level_1", "political" ]
            },
            {
               "long_name" : "Spain",
               "short_name" : "ES",
               "types" : [ "country", "political" ]
            }
         ],
         "formatted_address" : "Valencian Community, Spain",
         "geometry" : {
            "bounds" : {
               "northeast" : {
                  "lat" : 40.7886312,
                  "lng" : 0.6912275999999999
               },
               "southwest" : {
                  "lat" : 37.8438987,
                  "lng" : -1.5289447
               }
            },
            "location" : {
               "lat" : 39.4840108,
               "lng" : -0.7532808999999999
            },
            "location_type" : "APPROXIMATE",
            "viewport" : {
               "northeast" : {
                  "lat" : 40.7886312,
                  "lng" : 0.6912275999999999
               },
               "southwest" : {
                  "lat" : 37.8438987,
                  "lng" : -1.5289447
               }
            }
         },
         "place_id" : "ChIJDTGOzUD8XQ0RXQsxGLjLQF8",
         "types" : [ "administrative_area_level_1", "political" ]
      },
      {
         "address_components" : [
            {
               "long_name" : "Spain",
               "short_name" : "ES",
               "types" : [ "country", "political" ]
            }
         ],
         "formatted_address" : "Spain",
         "geometry" : {
            "bounds" : {
               "northeast" : {
                  "lat" : 43.8504,
                  "lng" : 4.6362
               },
               "southwest" : {
                  "lat" : 27.4985,
                  "lng" : -18.2648001
               }
            },
            "location" : {
               "lat" : 40.46366700000001,
               "lng" : -3.74922
            },
            "location_type" : "APPROXIMATE",
            "viewport" : {
               "northeast" : {
                  "lat" : 43.8504,
                  "lng" : 4.6362
               },
               "southwest" : {
                  "lat" : 27.4985,
                  "lng" : -18.2648001
               }
            }
         },
         "place_id" : "ChIJi7xhMnjjQgwR7KNoB5Qs7KY",
         "types" : [ "country", "political" ]
      }
   ],
   "status" : "OK"
}
