{
   "plus_code" : {
      "compound_code" : "PMFW+8G Vitoria, Vitória - State of Espírito Santo, Brazil",
      "global_code" : "58FXPMFW+8G"
   },
   "results" : [
      {
         "address_components" : [
            {
               "long_name" : "514",
               "short_name" : "514",
               "types" : [ "street_number" ]
            },
            {
               "long_name" : "Avenida Fernando Ferrari",
               "short_name" : "Av. Fernando Ferrari",
               "types" : [ "route" ]
            },
            {
               "long_name" : "Goiabeiras",
               "short_name" : "Goiabeiras",
               "types" : [ "political", "sublocality", "sublocality_level_1" ]
            },
            {
               "long_name" : "Vitória",
               "short_name" : "Vitória",
               "types" : [ "administrative_area_level_2", "political" ]
            },
            {
               "long_name" : "Espírito Santo",
               "short_name" : "ES",
               "types" : [ "administrative_area_level_1", "political" ]
            },
            {
               "long_name" : "Brazil",
               "short_name" : "BR",
               "types" : [ "country", "political" ]
            },
            {
               "long_name" : "29075-910",
               "short_name" : "29075-910",
               "types" : [ "postal_code" ]
            }
         ],
         "formatted_address" : "Av. Fernando Ferrari, 514 - Goiabeiras, Vitória - ES, 29075-910, Brazil",
         "geometry" : {
            "location" : {
               "lat" : -20.2766256,
               "lng" : -40.3036766
            },
            "location_type" : "ROOFTOP",
            "viewport" : {
               "northeast" : {
                  "lat" : -20.2752766197085,
                  "lng" : -40.3023276197085
               },
               "southwest" : {
                  "lat" : -20.2779745802915,
                  "lng" : -40.3050255802915
               }
            }
         },
         "place_id" : "ChIJHS6S9_sXuAAR7UTfYdo0Oo4",
         "plus_code" : {
            "compound_code" : "PMFW+8G Vitoria, Vitória - State of Espírito Santo, Brazil",
            "global_code" : "58FXPMFW+8G"
         },
         "types" : [ "establishment", "point_of_interest", "university" ]
      },
      {
         "address_components" : [
            {
               "long_name" : "Unnamed Road",
               "short_name" : "Unnamed Road",
               "types" : [ "route" ]
            },
            {
               "long_name" : "Goiabeiras",
               "short_name" : "Goiabeiras",
               "types" : [ "political", "sublocality", "sublocality_level_1" ]
            },
            {
               "long_name" : "Vitória",
               "short_name" : "Vitória",
               "types" : [ "administrative_area_level_2", "political" ]
            },
            {
               "long_name" : "Espírito Santo",
               "short_name" : "ES",
               "types" : [ "administrative_area_level_1", "political" ]
            },
            {
               "long_name" : "Brazil",
               "short_name" : "BR",
               "types" : [ "country", "political" ]
            },
            {
               "long_name" : "29075-010",
               "short_name" : "29075-010",
               "types" : [ "postal_code" ]
            }
         ],
         "formatted_address" : "Unnamed Road - Goiabeiras, Vitória - ES, 29075-010, Brazil",
         "geometry" : {
            "bounds" : {
               "northeast" : {
                  "lat" : -20.276367,
                  "lng" : -40.3038385
               },
               "southwest" : {
                  "lat" : -20.2768727,
                  "lng" : -40.303851
               }
            },
            "location" : {
               "lat" : -20.2766199,
               "lng" : -40.30384480000001
            },
            "location_type" : "GEOMETRIC_CENTER",
            "viewport" : {
               "northeast" : {
                  "lat" : -20.2752708697085,
                  "lng" : -40.30249576970851
               },
               "southwest" : {
                  "lat" : -20.2779688302915,
                  "lng" : -40.30519373029151
               }
            }
         },
         "place_id" : "ChIJ3UJcXwEYuAARhi5Fbewg-CY",
         "types" : [ "route" ]
      },
      {
         "address_components" : [
            {
               "long_name" : "Vitória",
               "short_name" : "Vitória",
               "types" : [ "administrative_area_level_2", "political" ]
            },
            {
               "long_name" : "State of Espírito Santo",
               "short_name" : "ES",
               "types" : [ "administrative_area_level_1", "political" ]
            },
            {
               "long_name" : "Brazil",
               "short_name" : "BR",
               "types" : [ "country", "political" ]
            },
            {
               "long_name" : "29075-053",
               "short_name" : "29075-053",
               "types" : [ "postal_code" ]
            }
         ],
         "formatted_address" : "Vitória - State of Espírito Santo, Brazil",
         "geometry" : {
            "bounds" : {
               "northeast" : {
                  "lat" : -20.2708738,
                  "lng" : -40.2900708
               },
               "southwest" : {
                  "lat" : -20.279666,
                  "lng" : -40.3076421
               }
            },
            "location" : {
               "lat" : -20.2761617,
               "lng" : -40.2973749
            },
            "location_type" : "APPROXIMATE",
            "viewport" : {
               "northeast" : {
                  "lat" : -20.2708738,
                  "lng" : -40.2900708
               },
               "southwest" : {
                  "lat" : -20.279666,
                  "lng" : -40.3076421
               }
            }
         },
         "place_id" : "ChIJf5WxzQQYuAAR8IoDrQ1PKL8",
         "types" : [ "postal_code", "postal_code_prefix" ]
      },
      {
         "address_components" : [
            {
               "long_name" : "29075-010",
               "short_name" : "29075-010",
               "types" : [ "postal_code" ]
            },
            {
               "long_name" : "Goiabeiras",
               "short_name" : "Goiabeiras",
               "types" : [ "political", "sublocality", "sublocality_level_1" ]
            },
            {
               "long_name" : "Vitória",
               "short_name" : "Vitória",
               "types" : [ "administrative_area_level_2", "political" ]
            },
            {
               "long_name" : "Espírito Santo",
               "short_name" : "ES",
               "types" : [ "administrative_area_level_1", "political" ]
            },
            {
               "long_name" : "Brazil",
               "short_name" : "BR",
               "types" : [ "country", "political" ]
            }
         ],
         "formatted_address" : "Goiabeiras, Vitória - ES, 29075-010, Brazil",
         "geometry" : {
            "bounds" : {
               "northeast" : {
                  "lat" : -20.2546399,
                  "lng" : -40.2884386
               },
               "southwest" : {
                  "lat" : -20.2870065,
                  "lng" : -40.3075864
               }
            },
            "location" : {
               "lat" : -20.2750052,
               "lng" : -40.3009218
            },
            "location_type" : "APPROXIMATE",
            "viewport" : {
               "northeast" : {
                  "lat" : -20.2546399,
                  "lng" : -40.2884386
               },
               "southwest" : {
                  "lat" : -20.2870065,
                  "lng" : -40.3075864
               }
            }
         },
         "place_id" : "ChIJlRYVPxAYuAARYPnidJWOh6A",
         "types" : [ "postal_code" ]
      },
      {
         "address_components" : [
            {
               "long_name" : "Goiabeiras",
               "short_name" : "Goiabeiras",
               "types" : [ "political", "sublocality", "sublocality_level_1" ]
            },
            {
               "long_name" : "Vitória",
               "short_name" : "Vitória",
               "types" : [ "administrative_area_level_2", "political" ]
            },
            {
               "long_name" : "Espírito Santo",
               "short_name" : "ES",
               "types" : [ "administrative_area_level_1", "political" ]
            },
            {
               "long_name" : "Brazil",
               "short_name" : "BR",
               "types" : [ "country", "political" ]
            }
         ],
         "formatted_address" : "Goiabeiras, Vitória - ES, Brazil",
         "geometry" : {
            "bounds" : {
               "northeast" : {
                  "lat" : -20.260424,
                  "lng" : -40.2959246
               },
               "southwest" : {
                  "lat" : -20.2865387,
                  "lng" : -40.3153098
               }
            },
            "location" : {
               "lat" : -20.2724733,
               "lng" : -40.30631
            },
            "location_type" : "APPROXIMATE",
            "viewport" : {
               "northeast" : {
                  "lat" : -20.260424,
                  "lng" : -40.2959246
               },
               "southwest" : {
                  "lat" : -20.2865387,
                  "lng" : -40.3153098
               }
            }
         },
         "place_id" : "ChIJLe7jyg0YuAAR7H5axp-l28M",
         "types" : [ "political", "sublocality", "sublocality_level_1" ]
      },
      {
         "address_components" : [
            {
               "long_name" : "Vitoria",
               "short_name" : "Vitoria",
               "types" : [ "locality", "political" ]
            },
            {
               "long_name" : "Vitória",
               "short_name" : "Vitória",
               "types" : [ "administrative_area_level_2", "political" ]
            },
            {
               "long_name" : "State of Espírito Santo",
               "short_name" : "ES",
               "types" : [ "administrative_area_level_1", "political" ]
            },
            {
               "long_name" : "Brazil",
               "short_name" : "BR",
               "types" : [ "country", "political" ]
            }
         ],
         "formatted_address" : "Vitoria, Vitória - State of Espírito Santo, Brazil",
         "geometry" : {
            "bounds" : {
               "northeast" : {
                  "lat" : -20.2397943,
                  "lng" : -40.2123278
               },
               "southwest" : {
                  "lat" : -20.3245888,
                  "lng" : -40.3590796
               }
            },
            "location" : {
               "lat" : -20.2976178,
               "lng" : -40.2957768
            },
            "location_type" : "APPROXIMATE",
            "viewport" : {
               "northeast" : {
                  "lat" : -20.2397943,
                  "lng" : -40.2123278
               },
               "southwest" : {
                  "lat" : -20.3245888,
                  "lng" : -40.3590796
               }
            }
         },
         "place_id" : "ChIJ6U43hV09uAARCdgOp35eWZc",
         "types" : [ "locality", "political" ]
      },
      {
         "address_components" : [
            {
               "long_name" : "Vitória",
               "short_name" : "Vitória",
               "types" : [ "administrative_area_level_2", "political" ]
            },
            {
               "long_name" : "State of Espírito Santo",
               "short_name" : "ES",
               "types" : [ "administrative_area_level_1", "political" ]
            },
            {
               "long_name" : "Brazil",
               "short_name" : "BR",
               "types" : [ "country", "political" ]
            }
         ],
         "formatted_address" : "Vitória - State of Espírito Santo, Brazil",
         "geometry" : {
            "bounds" : {
               "northeast" : {
                  "lat" : -20.2397943,
                  "lng" : -28.8359374
               },
               "southwest" : {
                  "lat" : -20.528013,
                  "lng" : -40.3590796
               }
            },
            "location" : {
               "lat" : -20.2976391,
               "lng" : -40.2958452
            },
            "location_type" : "APPROXIMATE",
            "viewport" : {
               "northeast" : {
                  "lat" : -20.2397943,
                  "lng" : -28.8359374
               },
               "southwest" : {
                  "lat" : -20.528013,
                  "lng" : -40.3590796
               }
            }
         },
         "place_id" : "ChIJU7YxcYIE1gAR3hWKj_3t_gw",
         "types" : [ "administrative_area_level_2", "political" ]
      },
      {
         "address_components" : [
            {
               "long_name" : "State of Espírito Santo",
               "short_name" : "State of Espírito Santo",
               "types" : [ "administrative_area_level_1", "political" ]
            },
            {
               "long_name" : "Brazil",
               "short_name" : "BR",
               "types" : [ "country", "political" ]
            }
         ],
         "formatted_address" : "State of Espírito Santo, Brazil",
         "geometry" : {
            "bounds" : {
               "northeast" : {
                  "lat" : -17.891947,
                  "lng" : -28.8359374
               },
               "southwest" : {
                  "lat" : -21.3096583,
                  "lng" : -41.8797894
               }
            },
            "location" : {
               "lat" : -19.1834229,
               "lng" : -40.3088626
            },
            "location_type" : "APPROXIMATE",
            "viewport" : {
               "northeast" : {
                  "lat" : -17.891947,
                  "lng" : -28.8359374
               },
               "southwest" : {
                  "lat" : -21.3096583,
                  "lng" : -41.8797894
               }
            }
         },
         "place_id" : "ChIJWWNkeZUGtwARmfdQPCTVG04",
         "types" : [ "administrative_area_level_1", "political" ]
      },
      {
         "address_components" : [
            {
               "long_name" : "Brazil",
               "short_name" : "BR",
               "types" : [ "country", "political" ]
            }
         ],
         "formatted_address" : "Brazil",
         "geometry" : {
            "bounds" : {
               "northeast" : {
                  "lat" : 5.2717863,
                  "lng" : -28.650543
               },
               "southwest" : {
                  "lat" : -34.0891,
                  "lng" : -73.9828169
               }
            },
            "location" : {
               "lat" : -14.235004,
               "lng" : -51.92528
            },
            "location_type" : "APPROXIMATE",
            "viewport" : {
               "northeast" : {
                  "lat" : 5.2717863,
                  "lng" : -28.650543
               },
               "southwest" : {
                  "lat" : -34.0891,
                  "lng" : -73.9828169
               }
            }
         },
         "place_id" : "ChIJzyjM68dZnAARYz4p8gYVWik",
         "types" : [ "country", "political" ]
      }
   ],
   "status" : "OK"
}
