{
   "plus_code" : {
      "compound_code" : "F6HH+67 Milan, Metropolitan City of Milan, Italy",
      "global_code" : "8FQFF6HH+67"
   },
   "results" : [
      {
         "address_components" : [
            {
               "long_name" : "32",
               "short_name" : "32",
               "types" : [ "street_number" ]
            },
            {
               "long_name" : "Piazza Leonardo da Vinci",
               "short_name" : "Piazza Leonardo da Vinci",
               "types" : [ "route" ]
            },
            {
               "long_name" : "Milano",
               "short_name" : "Milano",
               "types" : [ "locality", "political" ]
            },
            {
               "long_name" : "Milano",
               "short_name" : "Milano",
               "types" : [ "administrative_area_level_3", "political" ]
            },
            {
               "long_name" : "Città Metropolitana di Milano",
               "short_name" : "MI",
               "types" : [ "administrative_area_level_2", "political" ]
            },
            {
               "long_name" : "Lombardia",
               "short_name" : "Lombardia",
               "types" : [ "administrative_area_level_1", "political" ]
            },
            {
               "long_name" : "Italy",
               "short_name" : "IT",
               "types" : [ "country", "political" ]
            },
            {
               "long_name" : "20133",
               "short_name" : "20133",
               "types" : [ "postal_code" ]
            }
         ],
         "formatted_address" : "Piazza Leonardo da Vinci, 32, 20133 Milano MI, Italy",
         "geometry" : {
            "location" : {
               "lat" : 45.47809059999999,
               "lng" : 9.228237699999999
            },
            "location_type" : "ROOFTOP",
            "viewport" : {
               "northeast" : {
                  "lat" : 45.47943958029149,
                  "lng" : 9.229586680291503
               },
               "southwest" : {
                  "lat" : 45.47674161970849,
                  "lng" : 9.226888719708498
               }
            }
         },
         "place_id" : "ChIJUxfRffbGhkcRdzNKd-H6MI4",
         "plus_code" : {
            "compound_code" : "F6HH+67 Milan, Metropolitan City of Milan, Italy",
            "global_code" : "8FQFF6HH+67"
         },
         "types" : [ "establishment", "point_of_interest", "university" ]
      },
      {
         "address_components" : [
            {
               "long_name" : "32",
               "short_name" : "32",
               "types" : [ "street_number" ]
            },
            {
               "long_name" : "Piazza Leonardo da Vinci",
               "short_name" : "Piazza Leonardo da Vinci",
               "types" : [ "route" ]
            },
            {
               "long_name" : "Milano",
               "short_name" : "Milano",
               "types" : [ "locality", "political" ]
            },
            {
               "long_name" : "Milano",
               "short_name" : "Milano",
               "types" : [ "administrative_area_level_3", "political" ]
            },
            {
               "long_name" : "Città Metropolitana di Milano",
               "short_name" : "MI",
               "types" : [ "administrative_area_level_2", "political" ]
            },
            {
               "long_name" : "Lombardia",
               "short_name" : "Lombardia",
               "types" : [ "administrative_area_level_1", "political" ]
            },
            {
               "long_name" : "Italy",
               "short_name" : "IT",
               "types" : [ "country", "political" ]
            },
            {
               "long_name" : "20133",
               "short_name" : "20133",
               "types" : [ "postal_code" ]
            }
         ],
         "formatted_address" : "Piazza Leonardo da Vinci, 32, 20133 Milano MI, Italy",
         "geometry" : {
            "location" : {
               "lat" : 45.4779135,
               "lng" : 9.2282081
            },
            "location_type" : "ROOFTOP",
            "viewport" : {
               "northeast" : {
                  "lat" : 45.4792624802915,
                  "lng" : 9.229557080291503
               },
               "southwest" : {
                  "lat" : 45.4765645197085,
                  "lng" : 9.226859119708498
               }
            }
         },
         "place_id" : "ChIJXX18uPPGhkcR4hPnQgVYhcc",
         "plus_code" : {
            "compound_code" : "F6HH+57 Milan, Metropolitan City of Milan, Italy",
            "global_code" : "8FQFF6HH+57"
         },
         "types" : [ "street_address" ]
      },
      {
         "address_components" : [
            {
               "long_name" : "45",
               "short_name" : "45",
               "types" : [ "street_number" ]
            },
            {
               "long_name" : "Piazza Leonardo da Vinci",
               "short_name" : "Piazza Leonardo da Vinci",
               "types" : [ "route" ]
            },
            {
               "long_name" : "Milano",
               "short_name" : "Milano",
               "types" : [ "locality", "political" ]
            },
            {
               "long_name" : "Milano",
               "short_name" : "Milano",
               "types" : [ "administrative_area_level_3", "political" ]
            },
            {
               "long_name" : "Città Metropolitana di Milano",
               "short_name" : "MI",
               "types" : [ "administrative_area_level_2", "political" ]
            },
            {
               "long_name" : "Italy",
               "short_name" : "IT",
               "types" : [ "country", "political" ]
            },
            {
               "long_name" : "20133",
               "short_name" : "20133",
               "types" : [ "postal_code" ]
            }
         ],
         "formatted_address" : "Piazza Leonardo da Vinci, 45, 20133 Milano MI, Italy",
         "geometry" : {
            "location" : {
               "lat" : 45.4781041,
               "lng" : 9.228021399999999
            },
            "location_type" : "RANGE_INTERPOLATED",
            "viewport" : {
               "northeast" : {
                  "lat" : 45.47945308029149,
                  "lng" : 9.229370380291503
               },
               "southwest" : {
                  "lat" : 45.4767551197085,
                  "lng" : 9.226672419708498
               }
            }
         },
         "place_id" : "EjVQaWF6emEgTGVvbmFyZG8gZGEgVmluY2ksIDQ1LCAyMDEzMyBNaWxhbm8gTUksIEl0YWxpYSIaEhgKFAoSCb34mOXzxoZHEb_XWOV2FvywEC0",
         "types" : [ "street_address" ]
      },
      {
         "address_components" : [
            {
               "long_name" : "Città Studi",
               "short_name" : "Città Studi",
               "types" : [ "neighborhood", "political" ]
            },
            {
               "long_name" : "Milan",
               "short_name" : "Milan",
               "types" : [ "locality", "political" ]
            },
            {
               "long_name" : "Milan",
               "short_name" : "Milan",
               "types" : [ "administrative_area_level_3", "political" ]
            },
            {
               "long_name" : "Metropolitan City of Milan",
               "short_name" : "MI",
               "types" : [ "administrative_area_level_2", "political" ]
            },
            {
               "long_name" : "Lombardy",
               "short_name" : "Lombardy",
               "types" : [ "administrative_area_level_1", "political" ]
            },
            {
               "long_name" : "Italy",
               "short_name" : "IT",
               "types" : [ "country", "political" ]
            }
         ],
         "formatted_address" : "Città Studi, Milan, Metropolitan City of Milan, Italy",
         "geometry" : {
            "bounds" : {
               "northeast" : {
                  "lat" : 45.4846953,
                  "lng" : 9.2344057
               },
               "southwest" : {
                  "lat" : 45.4709019,
                  "lng" : 9.212272199999999
               }
            },
            "location" : {
               "lat" : 45.4769811,
               "lng" : 9.225647700000001
            },
            "location_type" : "APPROXIMATE",
            "viewport" : {
               "northeast" : {
                  "lat" : 45.4846953,
                  "lng" : 9.2344057
               },
               "southwest" : {
                  "lat" : 45.4709019,
                  "lng" : 9.212272199999999
               }
            }
         },
         "place_id" : "ChIJS0wEQfLGhkcRgZ8w4pMOuvA",
         "types" : [ "neighborhood", "political" ]
      },
      {
         "address_components" : [
            {
               "long_name" : "20133",
               "short_name" : "20133",
               "types" : [ "postal_code" ]
            },
            {
               "long_name" : "Milan",
               "short_name" : "Milan",
               "types" : [ "locality", "political" ]
            },
            {
               "long_name" : "Milan",
               "short_name" : "Milan",
               "types" : [ "administrative_area_level_3", "political" ]
            },
            {
               "long_name" : "Metropolitan City of Milan",
               "short_name" : "MI",
               "types" : [ "administrative_area_level_2", "political" ]
            },
            {
               "long_name" : "Lombardy",
               "short_name" : "Lombardy",
               "types" : [ "administrative_area_level_1", "political" ]
            },
            {
               "long_name" : "Italy",
               "short_name" : "IT",
               "types" : [ "country", "political" ]
            }
         ],
         "formatted_address" : "20133 Milan, Metropolitan City of Milan, Italy",
         "geometry" : {
            "bounds" : {
               "northeast" : {
                  "lat" : 45.486109,
                  "lng" : 9.238623100000002
               },
               "southwest" : {
                  "lat" : 45.46205,
                  "lng" : 9.217046
               }
            },
            "location" : {
               "lat" : 45.47137,
               "lng" : 9.2296929
            },
            "location_type" : "APPROXIMATE",
            "viewport" : {
               "northeast" : {
                  "lat" : 45.486109,
                  "lng" : 9.238623100000002
               },
               "southwest" : {
                  "lat" : 45.46205,
                  "lng" : 9.217046
               }
            }
         },
         "place_id" : "ChIJJ-_7qvTGhkcRELDhegV4Bhw",
         "types" : [ "postal_code" ]
      },
      {
         "address_components" : [
            {
               "long_name" : "Milan",
               "short_name" : "Milan",
               "types" : [ "locality", "political" ]
            },
            {
               "long_name" : "Metropolitan City of Milan",
               "short_name" : "MI",
               "types" : [ "administrative_area_level_2", "political" ]
            },
            {
               "long_name" : "Lombardy",
               "short_name" : "Lombardy",
               "types" : [ "administrative_area_level_1", "political" ]
            },
            {
               "long_name" : "Italy",
               "short_name" : "IT",
               "types" : [ "country", "political" ]
            }
         ],
         "formatted_address" : "Milan, Metropolitan City of Milan, Italy",
         "geometry" : {
            "bounds" : {
               "northeast" : {
                  "lat" : 45.535689,
                  "lng" : 9.2903463
               },
               "southwest" : {
                  "lat" : 45.3897787,
                  "lng" : 9.065118199999999
               }
            },
            "location" : {
               "lat" : 45.4642035,
               "lng" : 9.189982000000001
            },
            "location_type" : "APPROXIMATE",
            "viewport" : {
               "northeast" : {
                  "lat" : 45.535689,
                  "lng" : 9.2903463
               },
               "southwest" : {
                  "lat" : 45.3897787,
                  "lng" : 9.065118199999999
               }
            }
         },
         "place_id" : "ChIJ53USP0nBhkcRjQ50xhPN_zw",
         "types" : [ "locality", "political" ]
      },
      {
         "address_components" : [
            {
               "long_name" : "Milan",
               "short_name" : "Milan",
               "types" : [ "administrative_area_level_3", "political" ]
            },
            {
               "long_name" : "Metropolitan City of Milan",
               "short_name" : "MI",
               "types" : [ "administrative_area_level_2", "political" ]
            },
            {
               "long_name" : "Lombardy",
               "short_name" : "Lombardy",
               "types" : [ "administrative_area_level_1", "political" ]
            },
            {
               "long_name" : "Italy",
               "short_name" : "IT",
               "types" : [ "country", "political" ]
            }
         ],
         "formatted_address" : "Milan, Metropolitan City of Milan, Italy",
         "geometry" : {
            "bounds" : {
               "northeast" : {
                  "lat" : 45.5359728,
                  "lng" : 9.2779153
               },
               "southwest" : {
                  "lat" : 45.3871019,
                  "lng" : 9.0410965
               }
            },
            "location" : {
               "lat" : 45.4789687,
               "lng" : 9.165156099999999
            },
            "location_type" : "APPROXIMATE",
            "viewport" : {
               "northeast" : {
                  "lat" : 45.5359728,
                  "lng" : 9.2779153
               },
               "southwest" : {
                  "lat" : 45.3871019,
                  "lng" : 9.0410965
               }
            }
         },
         "place_id" : "ChIJPaOhy0zBhkcRkBp7bVbeMKY",
         "types" : [ "administrative_area_level_3", "political" ]
      },
      {
         "address_components" : [
            {
               "long_name" : "Metropolitan City of Milan",
               "short_name" : "Metropolitan City of Milan",
               "types" : [ "administrative_area_level_2", "political" ]
            },
            {
               "long_name" : "Lombardy",
               "short_name" : "Lombardy",
               "types" : [ "administrative_area_level_1", "political" ]
            },
            {
               "long_name" : "Italy",
               "short_name" : "IT",
               "types" : [ "country", "political" ]
            }
         ],
         "formatted_address" : "Metropolitan City of Milan, Italy",
         "geometry" : {
            "bounds" : {
               "northeast" : {
                  "lat" : 45.6426684,
                  "lng" : 9.551578599999999
               },
               "southwest" : {
                  "lat" : 45.161534,
                  "lng" : 8.7061099
               }
            },
            "location" : {
               "lat" : 45.458626,
               "lng" : 9.181873
            },
            "location_type" : "APPROXIMATE",
            "viewport" : {
               "northeast" : {
                  "lat" : 45.6426684,
                  "lng" : 9.551578599999999
               },
               "southwest" : {
                  "lat" : 45.161534,
                  "lng" : 8.7061099
               }
            }
         },
         "place_id" : "ChIJlduiODLChkcRUH5mLgJ4BgM",
         "types" : [ "administrative_area_level_2", "political" ]
      },
      {
         "address_components" : [
            {
               "long_name" : "Lombardy",
               "short_name" : "Lombardy",
               "types" : [ "administrative_area_level_1", "political" ]
            },
            {
               "long_name" : "Italy",
               "short_name" : "IT",
               "types" : [ "country", "political" ]
            }
         ],
         "formatted_address" : "Lombardy, Italy",
         "geometry" : {
            "bounds" : {
               "northeast" : {
                  "lat" : 46.6351853,
                  "lng" : 11.4276993
               },
               "southwest" : {
                  "lat" : 44.6796491,
                  "lng" : 8.4978605
               }
            },
            "location" : {
               "lat" : 45.47906709999999,
               "lng" : 9.8452433
            },
            "location_type" : "APPROXIMATE",
            "viewport" : {
               "northeast" : {
                  "lat" : 46.6351853,
                  "lng" : 11.4276993
               },
               "southwest" : {
                  "lat" : 44.6796491,
                  "lng" : 8.4978605
               }
            }
         },
         "place_id" : "ChIJf4M-GsNEgUcR1JMVKCIm8qY",
         "types" : [ "administrative_area_level_1", "political" ]
      },
      {
         "address_components" : [
            {
               "long_name" : "Italy",
               "short_name" : "IT",
               "types" : [ "country", "political" ]
            }
         ],
         "formatted_address" : "Italy",
         "geometry" : {
            "bounds" : {
               "northeast" : {
                  "lat" : 47.092,
                  "lng" : 18.7975999
               },
               "southwest" : {
                  "lat" : 35.4897,
                  "lng" : 6.6267201
               }
            },
            "location" : {
               "lat" : 41.87194,
               "lng" : 12.56738
            },
            "location_type" : "APPROXIMATE",
            "viewport" : {
               "northeast" : {
                  "lat" : 47.092,
                  "lng" : 18.7975999
               },
               "southwest" : {
                  "lat" : 35.4897,
                  "lng" : 6.6267201
               }
            }
         },
         "place_id" : "ChIJA9KNRIL-1BIRb15jJFz1LOI",
         "types" : [ "country", "political" ]
      }
   ],
   "status" : "OK"
}
