{
   "results" : [
      {
         "address_components" : [
            {
               "long_name" : "University House",
               "short_name" : "University House",
               "types" : [ "premise" ]
            },
            {
               "long_name" : "Bailrigg",
               "short_name" : "Bailrigg",
               "types" : [ "locality", "political" ]
            },
            {
               "long_name" : "Lancaster",
               "short_name" : "Lancaster",
               "types" : [ "postal_town" ]
            },
            {
               "long_name" : "Lancashire",
               "short_name" : "Lancashire",
               "types" : [ "administrative_area_level_2", "political" ]
            },
            {
               "long_name" : "England",
               "short_name" : "England",
               "types" : [ "administrative_area_level_1", "political" ]
            },
            {
               "long_name" : "United Kingdom",
               "short_name" : "GB",
               "types" : [ "country", "political" ]
            },
            {
               "long_name" : "LA1 4YW",
               "short_name" : "LA1 4YW",
               "types" : [ "postal_code" ]
            },
            {
               "long_name" : "LA1",
               "short_name" : "LA1",
               "types" : [ "postal_code", "postal_code_prefix" ]
            }
         ],
         "formatted_address" : "University House, Bailrigg, Lancaster LA1 4YW, UK",
         "geometry" : {
            "location" : {
               "lat" : 54.0104647,
               "lng" : -2.7871618
            },
            "location_type" : "ROOFTOP",
            "viewport" : {
               "northeast" : {
                  "lat" : 54.0118136802915,
                  "lng" : -2.785812819708498
               },
               "southwest" : {
                  "lat" : 54.0091157197085,
                  "lng" : -2.788510780291502
               }
            }
         },
         "place_id" : "ChIJwctvdf5ie0gRKK2cWAilrB8",
         "types" : [ "premise" ]
      },
      {
         "address_components" : [
            {
               "long_name" : "North West Drive",
               "short_name" : "N W Dr",
               "types" : [ "route" ]
            },
            {
               "long_name" : "Bailrigg",
               "short_name" : "Bailrigg",
               "types" : [ "locality", "political" ]
            },
            {
               "long_name" : "Lancaster",
               "short_name" : "Lancaster",
               "types" : [ "postal_town" ]
            },
            {
               "long_name" : "Lancashire",
               "short_name" : "Lancashire",
               "types" : [ "administrative_area_level_2", "political" ]
            },
            {
               "long_name" : "England",
               "short_name" : "England",
               "types" : [ "administrative_area_level_1", "political" ]
            },
            {
               "long_name" : "United Kingdom",
               "short_name" : "GB",
               "types" : [ "country", "political" ]
            },
            {
               "long_name" : "LA1 4YB",
               "short_name" : "LA1 4YB",
               "types" : [ "postal_code" ]
            }
         ],
         "formatted_address" : "N W Dr, Bailrigg, Lancaster LA1 4YB, UK",
         "geometry" : {
            "bounds" : {
               "northeast" : {
                  "lat" : 54.0109183,
                  "lng" : -2.7878192
               },
               "southwest" : {
                  "lat" : 54.0103732,
                  "lng" : -2.7882796
               }
            },
            "location" : {
               "lat" : 54.0106458,
               "lng" : -2.7880494
            },
            "location_type" : "GEOMETRIC_CENTER",
            "viewport" : {
               "northeast" : {
                  "lat" : 54.0119947302915,
                  "lng" : -2.786700419708498
               },
               "southwest" : {
                  "lat" : 54.00929676970851,
                  "lng" : -2.789398380291502
               }
            }
         },
         "place_id" : "ChIJW2gjbP5ie0gRawzxhhCe8OE",
         "types" : [ "route" ]
      },
      {
         "address_components" : [
            {
               "long_name" : "Bailrigg",
               "short_name" : "Bailrigg",
               "types" : [ "locality", "political" ]
            },
            {
               "long_name" : "Lancaster",
               "short_name" : "Lancaster",
               "types" : [ "postal_town" ]
            },
            {
               "long_name" : "Lancaster District",
               "short_name" : "Lancaster District",
               "types" : [ "administrative_area_level_3", "political" ]
            },
            {
               "long_name" : "Lancashire",
               "short_name" : "Lancashire",
               "types" : [ "administrative_area_level_2", "political" ]
            },
            {
               "long_name" : "England",
               "short_name" : "England",
               "types" : [ "administrative_area_level_1", "political" ]
            },
            {
               "long_name" : "United Kingdom",
               "short_name" : "GB",
               "types" : [ "country", "political" ]
            }
         ],
         "formatted_address" : "Bailrigg, Lancaster, UK",
         "geometry" : {
            "bounds" : {
               "northeast" : {
                  "lat" : 54.01866690000001,
                  "lng" : -2.7804838
               },
               "southwest" : {
                  "lat" : 54.00495400000001,
                  "lng" : -2.7968176
               }
            },
            "location" : {
               "lat" : 54.0114056,
               "lng" : -2.7873429
            },
            "location_type" : "APPROXIMATE",
            "viewport" : {
               "northeast" : {
                  "lat" : 54.01866690000001,
                  "lng" : -2.7804838
               },
               "southwest" : {
                  "lat" : 54.00495400000001,
                  "lng" : -2.7968176
               }
            }
         },
         "place_id" : "ChIJo7QBr_5ie0gRrgD7l0PRUKI",
         "types" : [ "locality", "political" ]
      },
      {
         "address_components" : [
            {
               "long_name" : "LA1 4YB",
               "short_name" : "LA1 4YB",
               "types" : [ "postal_code" ]
            },
            {
               "long_name" : "Bailrigg",
               "short_name" : "Bailrigg",
               "types" : [ "locality", "political" ]
            },
            {
               "long_name" : "Lancaster",
               "short_name" : "Lancaster",
               "types" : [ "postal_town" ]
            },
            {
               "long_name" : "Lancashire",
               "short_name" : "Lancashire",
               "types" : [ "administrative_area_level_2", "political" ]
            },
            {
               "long_name" : "England",
               "short_name" : "England",
               "types" : [ "administrative_area_level_1", "political" ]
            },
            {
               "long_name" : "United Kingdom",
               "short_name" : "GB",
               "types" : [ "country", "political" ]
            }
         ],
         "formatted_address" : "Bailrigg, Lancaster LA1 4YB, UK",
         "geometry" : {
            "bounds" : {
               "northeast" : {
                  "lat" : 54.0127513,
                  "lng" : -2.7862737
               },
               "southwest" : {
                  "lat" : 54.0095101,
                  "lng" : -2.7910138
               }
            },
            "location" : {
               "lat" : 54.0106718,
               "lng" : -2.7874322
            },
            "location_type" : "APPROXIMATE",
            "viewport" : {
               "northeast" : {
                  "lat" : 54.0127513,
                  "lng" : -2.7862737
               },
               "southwest" : {
                  "lat" : 54.0095101,
                  "lng" : -2.7910138
               }
            }
         },
         "place_id" : "ChIJr6Tic_5ie0gR88lGLgxl2Jg",
         "types" : [ "postal_code" ]
      },
      {
         "address_components" : [
            {
               "long_name" : "LA1",
               "short_name" : "LA1",
               "types" : [ "postal_code", "postal_code_prefix" ]
            },
            {
               "long_name" : "Lancaster",
               "short_name" : "Lancaster",
               "types" : [ "postal_town" ]
            },
            {
               "long_name" : "Lancashire",
               "short_name" : "Lancashire",
               "types" : [ "administrative_area_level_2", "political" ]
            },
            {
               "long_name" : "England",
               "short_name" : "England",
               "types" : [ "administrative_area_level_1", "political" ]
            },
            {
               "long_name" : "United Kingdom",
               "short_name" : "GB",
               "types" : [ "country", "political" ]
            }
         ],
         "formatted_address" : "Lancaster LA1, UK",
         "geometry" : {
            "bounds" : {
               "northeast" : {
                  "lat" : 54.0741795,
                  "lng" : -2.7518752
               },
               "southwest" : {
                  "lat" : 54.0018849,
                  "lng" : -2.8439343
               }
            },
            "location" : {
               "lat" : 54.0470372,
               "lng" : -2.7906972
            },
            "location_type" : "APPROXIMATE",
            "viewport" : {
               "northeast" : {
                  "lat" : 54.0741795,
                  "lng" : -2.7518752
               },
               "southwest" : {
                  "lat" : 54.0018849,
                  "lng" : -2.8439343
               }
            }
         },
         "place_id" : "ChIJIwABqQtie0gRYAy_9W00Ses",
         "types" : [ "postal_code", "postal_code_prefix" ]
      },
      {
         "address_components" : [
            {
               "long_name" : "Lancaster",
               "short_name" : "Lancaster",
               "types" : [ "postal_town" ]
            },
            {
               "long_name" : "England",
               "short_name" : "England",
               "types" : [ "administrative_area_level_1", "political" ]
            },
            {
               "long_name" : "United Kingdom",
               "short_name" : "GB",
               "types" : [ "country", "political" ]
            }
         ],
         "formatted_address" : "Lancaster, UK",
         "geometry" : {
            "bounds" : {
               "northeast" : {
                  "lat" : 54.167988,
                  "lng" : -2.2966812
               },
               "southwest" : {
                  "lat" : 53.9281461,
                  "lng" : -2.8888039
               }
            },
            "location" : {
               "lat" : 54.01128809999999,
               "lng" : -2.685728
            },
            "location_type" : "APPROXIMATE",
            "viewport" : {
               "northeast" : {
                  "lat" : 54.167988,
                  "lng" : -2.2966812
               },
               "southwest" : {
                  "lat" : 53.9281461,
                  "lng" : -2.8888039
               }
            }
         },
         "place_id" : "ChIJOZtVoy9-e0gRU04zQthZaRY",
         "types" : [ "postal_town" ]
      },
      {
         "address_components" : [
            {
               "long_name" : "Lancaster District",
               "short_name" : "Lancaster District",
               "types" : [ "administrative_area_level_3", "political" ]
            },
            {
               "long_name" : "Lancashire",
               "short_name" : "Lancashire",
               "types" : [ "administrative_area_level_2", "political" ]
            },
            {
               "long_name" : "England",
               "short_name" : "England",
               "types" : [ "administrative_area_level_1", "political" ]
            },
            {
               "long_name" : "United Kingdom",
               "short_name" : "GB",
               "types" : [ "country", "political" ]
            }
         ],
         "formatted_address" : "Lancaster District, UK",
         "geometry" : {
            "bounds" : {
               "northeast" : {
                  "lat" : 54.2395574,
                  "lng" : -2.4587349
               },
               "southwest" : {
                  "lat" : 53.9180662,
                  "lng" : -2.9836471
               }
            },
            "location" : {
               "lat" : 54.0982893,
               "lng" : -2.6943295
            },
            "location_type" : "APPROXIMATE",
            "viewport" : {
               "northeast" : {
                  "lat" : 54.2395574,
                  "lng" : -2.4587349
               },
               "southwest" : {
                  "lat" : 53.9180662,
                  "lng" : -2.9836471
               }
            }
         },
         "place_id" : "ChIJ02uPtcGCfEgRADVpWLxiEAQ",
         "types" : [ "administrative_area_level_3", "political" ]
      },
      {
         "address_components" : [
            {
               "long_name" : "Lancashire",
               "short_name" : "Lancashire",
               "types" : [ "administrative_area_level_2", "locality", "political" ]
            },
            {
               "long_name" : "England",
               "short_name" : "England",
               "types" : [ "administrative_area_level_1", "political" ]
            },
            {
               "long_name" : "United Kingdom",
               "short_name" : "GB",
               "types" : [ "country", "political" ]
            }
         ],
         "formatted_address" : "Lancashire, UK",
         "geometry" : {
            "bounds" : {
               "northeast" : {
                  "lat" : 54.2395574,
                  "lng" : -2.0450727
               },
               "southwest" : {
                  "lat" : 53.48276569999999,
                  "lng" : -3.084548
               }
            },
            "location" : {
               "lat" : 53.7632254,
               "lng" : -2.7044052
            },
            "location_type" : "APPROXIMATE",
            "viewport" : {
               "northeast" : {
                  "lat" : 54.2395574,
                  "lng" : -2.0450727
               },
               "southwest" : {
                  "lat" : 53.48276569999999,
                  "lng" : -3.084548
               }
            }
         },
         "place_id" : "ChIJ2_UmUkxNekgRZRtGDNF9SbU",
         "types" : [ "administrative_area_level_2", "locality", "political" ]
      },
      {
         "address_components" : [
            {
               "long_name" : "North West",
               "short_name" : "North West",
               "types" : [ "political" ]
            },
            {
               "long_name" : "England",
               "short_name" : "England",
               "types" : [ "administrative_area_level_1", "political" ]
            },
            {
               "long_name" : "United Kingdom",
               "short_name" : "GB",
               "types" : [ "country", "political" ]
            }
         ],
         "formatted_address" : "North West, UK",
         "geometry" : {
            "bounds" : {
               "northeast" : {
                  "lat" : 55.1890096,
                  "lng" : -1.9096258
               },
               "southwest" : {
                  "lat" : 52.9471311,
                  "lng" : -3.6406551
               }
            },
            "location" : {
               "lat" : 53.5333255,
               "lng" : -2.6921759
            },
            "location_type" : "APPROXIMATE",
            "viewport" : {
               "northeast" : {
                  "lat" : 55.1890096,
                  "lng" : -1.9096258
               },
               "southwest" : {
                  "lat" : 52.9471311,
                  "lng" : -3.6406551
               }
            }
         },
         "place_id" : "ChIJuQ1j99hve0gRonNEBEld3pE",
         "types" : [ "political" ]
      },
      {
         "address_components" : [
            {
               "long_name" : "England",
               "short_name" : "England",
               "types" : [ "administrative_area_level_1", "political" ]
            },
            {
               "long_name" : "United Kingdom",
               "short_name" : "GB",
               "types" : [ "country", "political" ]
            }
         ],
         "formatted_address" : "England, UK",
         "geometry" : {
            "bounds" : {
               "northeast" : {
                  "lat" : 55.81165979999999,
                  "lng" : 1.7629159
               },
               "southwest" : {
                  "lat" : 49.8647411,
                  "lng" : -6.4185458
               }
            },
            "location" : {
               "lat" : 52.3555177,
               "lng" : -1.1743197
            },
            "location_type" : "APPROXIMATE",
            "viewport" : {
               "northeast" : {
                  "lat" : 55.81165979999999,
                  "lng" : 1.7629159
               },
               "southwest" : {
                  "lat" : 49.8647411,
                  "lng" : -6.4185458
               }
            }
         },
         "place_id" : "ChIJ39UebIqp0EcRqI4tMyWV4fQ",
         "types" : [ "administrative_area_level_1", "political" ]
      },
      {
         "address_components" : [
            {
               "long_name" : "United Kingdom",
               "short_name" : "GB",
               "types" : [ "country", "political" ]
            }
         ],
         "formatted_address" : "United Kingdom",
         "geometry" : {
            "bounds" : {
               "northeast" : {
                  "lat" : 60.91569999999999,
                  "lng" : 33.9165549
               },
               "southwest" : {
                  "lat" : 34.5614,
                  "lng" : -8.8988999
               }
            },
            "location" : {
               "lat" : 55.378051,
               "lng" : -3.435973
            },
            "location_type" : "APPROXIMATE",
            "viewport" : {
               "northeast" : {
                  "lat" : 60.91569999999999,
                  "lng" : 33.9165549
               },
               "southwest" : {
                  "lat" : 34.5614,
                  "lng" : -8.8988999
               }
            }
         },
         "place_id" : "ChIJqZHHQhE7WgIReiWIMkOg-MQ",
         "types" : [ "country", "political" ]
      }
   ],
   "status" : "OK"
}
