{
   "plus_code" : {
      "compound_code" : "P932+FJ Tehran, Tehran Province, Iran",
      "global_code" : "8H7HP932+FJ"
   },
   "results" : [
      {
         "address_components" : [
            {
               "long_name" : "Iran",
               "short_name" : "IR",
               "types" : [ "country", "political" ]
            }
         ],
         "formatted_address" : "خیابان آزادی، تهران بزرگ،، Iran",
         "geometry" : {
            "location" : {
               "lat" : 35.7036366,
               "lng" : 51.351593
            },
            "location_type" : "GEOMETRIC_CENTER",
            "viewport" : {
               "northeast" : {
                  "lat" : 35.70498558029149,
                  "lng" : 51.3529419802915
               },
               "southwest" : {
                  "lat" : 35.70228761970849,
                  "lng" : 51.3502440197085
               }
            }
         },
         "place_id" : "ChIJY34avKgAjj8RAYWHm5BaGgY",
         "plus_code" : {
            "compound_code" : "P932+FJ Tehran, Tehran Province, Iran",
            "global_code" : "8H7HP932+FJ"
         },
         "types" : [ "establishment", "point_of_interest", "university" ]
      },
      {
         "address_components" : [
            {
               "long_name" : "شریف",
               "short_name" : "شریف",
               "types" : [ "route" ]
            },
            {
               "long_name" : "تهران",
               "short_name" : "تهران",
               "types" : [ "locality", "political" ]
            },
            {
               "long_name" : "تهران",
               "short_name" : "تهران",
               "types" : [ "administrative_area_level_2", "political" ]
            },
            {
               "long_name" : "استان تهران",
               "short_name" : "استان تهران",
               "types" : [ "administrative_area_level_1", "political" ]
            },
            {
               "long_name" : "Iran",
               "short_name" : "IR",
               "types" : [ "country", "political" ]
            }
         ],
         "formatted_address" : "استان تهران، تهران، شریف، Iran",
         "geometry" : {
            "bounds" : {
               "northeast" : {
                  "lat" : 35.7040869,
                  "lng" : 51.35154190000001
               },
               "southwest" : {
                  "lat" : 35.703623,
                  "lng" : 51.3514361
               }
            },
            "location" : {
               "lat" : 35.703855,
               "lng" : 51.351489
            },
            "location_type" : "GEOMETRIC_CENTER",
            "viewport" : {
               "northeast" : {
                  "lat" : 35.7052039302915,
                  "lng" : 51.35283798029151
               },
               "southwest" : {
                  "lat" : 35.7025059697085,
                  "lng" : 51.35014001970851
               }
            }
         },
         "place_id" : "ChIJG6B2uagAjj8RbEpCMhF5ou8",
         "types" : [ "route" ]
      },
      {
         "address_components" : [
            {
               "long_name" : "Tarasht",
               "short_name" : "Tarasht",
               "types" : [ "neighborhood", "political" ]
            },
            {
               "long_name" : "District 2",
               "short_name" : "District 2",
               "types" : [ "political", "sublocality", "sublocality_level_1" ]
            },
            {
               "long_name" : "Tehran",
               "short_name" : "Tehran",
               "types" : [ "locality", "political" ]
            },
            {
               "long_name" : "Tehran",
               "short_name" : "Tehran",
               "types" : [ "administrative_area_level_2", "political" ]
            },
            {
               "long_name" : "Tehran Province",
               "short_name" : "Tehran Province",
               "types" : [ "administrative_area_level_1", "political" ]
            },
            {
               "long_name" : "Iran",
               "short_name" : "IR",
               "types" : [ "country", "political" ]
            }
         ],
         "formatted_address" : "Tarasht, District 2, Tehran, Tehran Province, Iran",
         "geometry" : {
            "bounds" : {
               "northeast" : {
                  "lat" : 35.7145028,
                  "lng" : 51.3596741
               },
               "southwest" : {
                  "lat" : 35.699756,
                  "lng" : 51.3363494
               }
            },
            "location" : {
               "lat" : 35.7045767,
               "lng" : 51.3496375
            },
            "location_type" : "APPROXIMATE",
            "viewport" : {
               "northeast" : {
                  "lat" : 35.7145028,
                  "lng" : 51.3596741
               },
               "southwest" : {
                  "lat" : 35.699756,
                  "lng" : 51.3363494
               }
            }
         },
         "place_id" : "ChIJ36ahMKEAjj8RbO1SAHSGuUQ",
         "types" : [ "neighborhood", "political" ]
      },
      {
         "address_components" : [
            {
               "long_name" : "District 2",
               "short_name" : "District 2",
               "types" : [ "political", "sublocality", "sublocality_level_1" ]
            },
            {
               "long_name" : "Tehran",
               "short_name" : "Tehran",
               "types" : [ "locality", "political" ]
            },
            {
               "long_name" : "Tehran",
               "short_name" : "Tehran",
               "types" : [ "administrative_area_level_2", "political" ]
            },
            {
               "long_name" : "Tehran Province",
               "short_name" : "Tehran Province",
               "types" : [ "administrative_area_level_1", "political" ]
            },
            {
               "long_name" : "Iran",
               "short_name" : "IR",
               "types" : [ "country", "political" ]
            }
         ],
         "formatted_address" : "District 2, Tehran, Tehran Province, Iran",
         "geometry" : {
            "bounds" : {
               "northeast" : {
                  "lat" : 35.8124017,
                  "lng" : 51.3931632
               },
               "southwest" : {
                  "lat" : 35.6997386,
                  "lng" : 51.331687
               }
            },
            "location" : {
               "lat" : 35.7424758,
               "lng" : 51.3575028
            },
            "location_type" : "APPROXIMATE",
            "viewport" : {
               "northeast" : {
                  "lat" : 35.8124017,
                  "lng" : 51.3931632
               },
               "southwest" : {
                  "lat" : 35.6997386,
                  "lng" : 51.331687
               }
            }
         },
         "place_id" : "ChIJcV9mQ3YHjj8R8U7K-91ORwE",
         "types" : [ "political", "sublocality", "sublocality_level_1" ]
      },
      {
         "address_components" : [
            {
               "long_name" : "Tehran",
               "short_name" : "Tehran",
               "types" : [ "locality", "political" ]
            },
            {
               "long_name" : "Tehran",
               "short_name" : "Tehran",
               "types" : [ "administrative_area_level_2", "political" ]
            },
            {
               "long_name" : "Tehran Province",
               "short_name" : "Tehran Province",
               "types" : [ "administrative_area_level_1", "political" ]
            },
            {
               "long_name" : "Iran",
               "short_name" : "IR",
               "types" : [ "country", "political" ]
            }
         ],
         "formatted_address" : "Tehran, Tehran Province, Iran",
         "geometry" : {
            "bounds" : {
               "northeast" : {
                  "lat" : 35.8345498,
                  "lng" : 51.6062163
               },
               "southwest" : {
                  "lat" : 35.5590784,
                  "lng" : 51.0934209
               }
            },
            "location" : {
               "lat" : 35.6891975,
               "lng" : 51.3889736
            },
            "location_type" : "APPROXIMATE",
            "viewport" : {
               "northeast" : {
                  "lat" : 35.8345498,
                  "lng" : 51.6062163
               },
               "southwest" : {
                  "lat" : 35.5590784,
                  "lng" : 51.0934209
               }
            }
         },
         "place_id" : "ChIJ2dzzH0kAjj8RvCRwVnxps_A",
         "types" : [ "locality", "political" ]
      },
      {
         "address_components" : [
            {
               "long_name" : "Tehran",
               "short_name" : "Tehran",
               "types" : [ "administrative_area_level_2", "political" ]
            },
            {
               "long_name" : "Tehran Province",
               "short_name" : "Tehran Province",
               "types" : [ "administrative_area_level_1", "political" ]
            },
            {
               "long_name" : "Iran",
               "short_name" : "IR",
               "types" : [ "country", "political" ]
            }
         ],
         "formatted_address" : "Tehran, Tehran Province, Iran",
         "geometry" : {
            "bounds" : {
               "northeast" : {
                  "lat" : 35.895169,
                  "lng" : 51.884308
               },
               "southwest" : {
                  "lat" : 35.5392108,
                  "lng" : 51.1176682
               }
            },
            "location" : {
               "lat" : 35.7209396,
               "lng" : 51.4729695
            },
            "location_type" : "APPROXIMATE",
            "viewport" : {
               "northeast" : {
                  "lat" : 35.895169,
                  "lng" : 51.884308
               },
               "southwest" : {
                  "lat" : 35.5392108,
                  "lng" : 51.1176682
               }
            }
         },
         "place_id" : "ChIJOZCRm8YCjj8RKFksd3lkwhc",
         "types" : [ "administrative_area_level_2", "political" ]
      },
      {
         "address_components" : [
            {
               "long_name" : "Tehran Province",
               "short_name" : "Tehran Province",
               "types" : [ "administrative_area_level_1", "political" ]
            },
            {
               "long_name" : "Iran",
               "short_name" : "IR",
               "types" : [ "country", "political" ]
            }
         ],
         "formatted_address" : "Tehran Province, Iran",
         "geometry" : {
            "bounds" : {
               "northeast" : {
                  "lat" : 36.07789210000001,
                  "lng" : 53.216228
               },
               "southwest" : {
                  "lat" : 34.909543,
                  "lng" : 50.3186971
               }
            },
            "location" : {
               "lat" : 35.7248416,
               "lng" : 51.381653
            },
            "location_type" : "APPROXIMATE",
            "viewport" : {
               "northeast" : {
                  "lat" : 36.07789210000001,
                  "lng" : 53.216228
               },
               "southwest" : {
                  "lat" : 34.909543,
                  "lng" : 50.3186971
               }
            }
         },
         "place_id" : "ChIJf5Us9YQBjj8R0OohvHQms1U",
         "types" : [ "administrative_area_level_1", "political" ]
      },
      {
         "address_components" : [
            {
               "long_name" : "Iran",
               "short_name" : "IR",
               "types" : [ "country", "political" ]
            }
         ],
         "formatted_address" : "Iran",
         "geometry" : {
            "bounds" : {
               "northeast" : {
                  "lat" : 39.782056,
                  "lng" : 63.3333366
               },
               "southwest" : {
                  "lat" : 24.8066999,
                  "lng" : 44.0326949
               }
            },
            "location" : {
               "lat" : 32.427908,
               "lng" : 53.688046
            },
            "location_type" : "APPROXIMATE",
            "viewport" : {
               "northeast" : {
                  "lat" : 39.782056,
                  "lng" : 63.3333366
               },
               "southwest" : {
                  "lat" : 24.8066999,
                  "lng" : 44.0326949
               }
            }
         },
         "place_id" : "ChIJ8R1rwS7s9z4RzvpRntOVsEA",
         "types" : [ "country", "political" ]
      }
   ],
   "status" : "OK"
}
