{
   "plus_code" : {
      "compound_code" : "22XR+45 Highett VIC, Australia",
      "global_code" : "4RJ722XR+45"
   },
   "results" : [
      {
         "address_components" : [
            {
               "long_name" : "37",
               "short_name" : "37",
               "types" : [ "street_number" ]
            },
            {
               "long_name" : "Graham Road",
               "short_name" : "Graham Rd",
               "types" : [ "route" ]
            },
            {
               "long_name" : "Highett",
               "short_name" : "Highett",
               "types" : [ "locality", "political" ]
            },
            {
               "long_name" : "Bayside City",
               "short_name" : "Bayside",
               "types" : [ "administrative_area_level_2", "political" ]
            },
            {
               "long_name" : "Victoria",
               "short_name" : "VIC",
               "types" : [ "administrative_area_level_1", "political" ]
            },
            {
               "long_name" : "Australia",
               "short_name" : "AU",
               "types" : [ "country", "political" ]
            },
            {
               "long_name" : "3190",
               "short_name" : "3190",
               "types" : [ "postal_code" ]
            }
         ],
         "formatted_address" : "37 Graham Rd, Highett VIC 3190, Australia",
         "geometry" : {
            "location" : {
               "lat" : -37.95220800000001,
               "lng" : 145.040396
            },
            "location_type" : "ROOFTOP",
            "viewport" : {
               "northeast" : {
                  "lat" : -37.95085901970851,
                  "lng" : 145.0417449802915
               },
               "southwest" : {
                  "lat" : -37.95355698029151,
                  "lng" : 145.0390470197085
               }
            }
         },
         "place_id" : "ChIJFb_NXJhu1moReih28NJcmj8",
         "plus_code" : {
            "compound_code" : "22XR+45 Highett, Victoria, Australia",
            "global_code" : "4RJ722XR+45"
         },
         "types" : [ "street_address" ]
      },
      {
         "address_components" : [
            {
               "long_name" : "42",
               "short_name" : "42",
               "types" : [ "street_number" ]
            },
            {
               "long_name" : "Middleton Street",
               "short_name" : "Middleton St",
               "types" : [ "route" ]
            },
            {
               "long_name" : "Highett",
               "short_name" : "Highett",
               "types" : [ "locality", "political" ]
            },
            {
               "long_name" : "Bayside City",
               "short_name" : "Bayside",
               "types" : [ "administrative_area_level_2", "political" ]
            },
            {
               "long_name" : "Victoria",
               "short_name" : "VIC",
               "types" : [ "administrative_area_level_1", "political" ]
            },
            {
               "long_name" : "Australia",
               "short_name" : "AU",
               "types" : [ "country", "political" ]
            },
            {
               "long_name" : "3190",
               "short_name" : "3190",
               "types" : [ "postal_code" ]
            }
         ],
         "formatted_address" : "42 Middleton St, Highett VIC 3190, Australia",
         "geometry" : {
            "location" : {
               "lat" : -37.95262,
               "lng" : 145.039233
            },
            "location_type" : "ROOFTOP",
            "viewport" : {
               "northeast" : {
                  "lat" : -37.9512710197085,
                  "lng" : 145.0405819802915
               },
               "southwest" : {
                  "lat" : -37.9539689802915,
                  "lng" : 145.0378840197085
               }
            }
         },
         "place_id" : "ChIJ916kM5hu1moR7m2-EBABNwY",
         "plus_code" : {
            "compound_code" : "22WQ+XM Highett, Victoria, Australia",
            "global_code" : "4RJ722WQ+XM"
         },
         "types" : [ "establishment", "point_of_interest" ]
      },
      {
         "address_components" : [
            {
               "long_name" : "37",
               "short_name" : "37",
               "types" : [ "street_number" ]
            },
            {
               "long_name" : "Graham Road",
               "short_name" : "Graham Rd",
               "types" : [ "route" ]
            },
            {
               "long_name" : "Highett",
               "short_name" : "Highett",
               "types" : [ "locality", "political" ]
            },
            {
               "long_name" : "Victoria",
               "short_name" : "VIC",
               "types" : [ "administrative_area_level_1", "political" ]
            },
            {
               "long_name" : "Australia",
               "short_name" : "AU",
               "types" : [ "country", "political" ]
            },
            {
               "long_name" : "3190",
               "short_name" : "3190",
               "types" : [ "postal_code" ]
            }
         ],
         "formatted_address" : "37 Graham Rd, Highett VIC 3190, Australia",
         "geometry" : {
            "location" : {
               "lat" : -37.9518784,
               "lng" : 145.041426
            },
            "location_type" : "RANGE_INTERPOLATED",
            "viewport" : {
               "northeast" : {
                  "lat" : -37.9505294197085,
                  "lng" : 145.0427749802915
               },
               "southwest" : {
                  "lat" : -37.9532273802915,
                  "lng" : 145.0400770197085
               }
            }
         },
         "place_id" : "EikzNyBHcmFoYW0gUmQsIEhpZ2hldHQgVklDIDMxOTAsIEF1c3RyYWxpYSIaEhgKFAoSCQFSf4KYbtZqEWCwBux0VgQTECU",
         "types" : [ "street_address" ]
      },
      {
         "address_components" : [
            {
               "long_name" : "Highett",
               "short_name" : "Highett",
               "types" : [ "locality", "political" ]
            },
            {
               "long_name" : "Victoria",
               "short_name" : "VIC",
               "types" : [ "administrative_area_level_1", "political" ]
            },
            {
               "long_name" : "Australia",
               "short_name" : "AU",
               "types" : [ "country", "political" ]
            },
            {
               "long_name" : "3190",
               "short_name" : "3190",
               "types" : [ "postal_code" ]
            }
         ],
         "formatted_address" : "Highett VIC 3190, Australia",
         "geometry" : {
            "bounds" : {
               "northeast" : {
                  "lat" : -37.9432476,
                  "lng" : 145.0590969
               },
               "southwest" : {
                  "lat" : -37.957994,
                  "lng" : 145.02104
               }
            },
            "location" : {
               "lat" : -37.95,
               "lng" : 145.05
            },
            "location_type" : "APPROXIMATE",
            "viewport" : {
               "northeast" : {
                  "lat" : -37.9432476,
                  "lng" : 145.0590969
               },
               "southwest" : {
                  "lat" : -37.957994,
                  "lng" : 145.02104
               }
            }
         },
         "place_id" : "ChIJjVCZwkhp1moR4N6MIXVWBAU",
         "types" : [ "locality", "political" ]
      },
      {
         "address_components" : [
            {
               "long_name" : "3190",
               "short_name" : "3190",
               "types" : [ "postal_code" ]
            },
            {
               "long_name" : "Highett",
               "short_name" : "Highett",
               "types" : [ "locality", "political" ]
            },
            {
               "long_name" : "Victoria",
               "short_name" : "VIC",
               "types" : [ "administrative_area_level_1", "political" ]
            },
            {
               "long_name" : "Australia",
               "short_name" : "AU",
               "types" : [ "country", "political" ]
            }
         ],
         "formatted_address" : "Highett VIC 3190, Australia",
         "geometry" : {
            "bounds" : {
               "northeast" : {
                  "lat" : -37.9432476,
                  "lng" : 145.0590969
               },
               "southwest" : {
                  "lat" : -37.957994,
                  "lng" : 145.02104
               }
            },
            "location" : {
               "lat" : -37.9487497,
               "lng" : 145.0410692
            },
            "location_type" : "APPROXIMATE",
            "viewport" : {
               "northeast" : {
                  "lat" : -37.9432476,
                  "lng" : 145.0590969
               },
               "southwest" : {
                  "lat" : -37.957994,
                  "lng" : 145.02104
               }
            }
         },
         "place_id" : "ChIJjVCZwkhp1moRED4uRnhWBBw",
         "types" : [ "postal_code" ]
      },
      {
         "address_components" : [
            {
               "long_name" : "Bayside City",
               "short_name" : "Bayside",
               "types" : [ "administrative_area_level_2", "political" ]
            },
            {
               "long_name" : "Victoria",
               "short_name" : "VIC",
               "types" : [ "administrative_area_level_1", "political" ]
            },
            {
               "long_name" : "Australia",
               "short_name" : "AU",
               "types" : [ "country", "political" ]
            }
         ],
         "formatted_address" : "Bayside, VIC, Australia",
         "geometry" : {
            "bounds" : {
               "northeast" : {
                  "lat" : -37.8832734,
                  "lng" : 145.055264
               },
               "southwest" : {
                  "lat" : -37.9964748,
                  "lng" : 144.980034
               }
            },
            "location" : {
               "lat" : -37.9333402,
               "lng" : 145.016269
            },
            "location_type" : "APPROXIMATE",
            "viewport" : {
               "northeast" : {
                  "lat" : -37.8832734,
                  "lng" : 145.055264
               },
               "southwest" : {
                  "lat" : -37.9964748,
                  "lng" : 144.980034
               }
            }
         },
         "place_id" : "ChIJy_H1FcNu1moROrd8SGaB1I4",
         "types" : [ "administrative_area_level_2", "political" ]
      },
      {
         "address_components" : [
            {
               "long_name" : "Melbourne",
               "short_name" : "Melbourne",
               "types" : [ "colloquial_area", "locality", "political" ]
            },
            {
               "long_name" : "Victoria",
               "short_name" : "VIC",
               "types" : [ "administrative_area_level_1", "political" ]
            },
            {
               "long_name" : "Australia",
               "short_name" : "AU",
               "types" : [ "country", "political" ]
            }
         ],
         "formatted_address" : "Melbourne VIC, Australia",
         "geometry" : {
            "bounds" : {
               "northeast" : {
                  "lat" : -37.5112737,
                  "lng" : 145.5125288
               },
               "southwest" : {
                  "lat" : -38.4338593,
                  "lng" : 144.5937418
               }
            },
            "location" : {
               "lat" : -37.8136276,
               "lng" : 144.9630576
            },
            "location_type" : "APPROXIMATE",
            "viewport" : {
               "northeast" : {
                  "lat" : -37.5112737,
                  "lng" : 145.5125288
               },
               "southwest" : {
                  "lat" : -38.4338593,
                  "lng" : 144.5937418
               }
            }
         },
         "place_id" : "ChIJ90260rVG1moRkM2MIXVWBAQ",
         "types" : [ "colloquial_area", "locality", "political" ]
      },
      {
         "address_components" : [
            {
               "long_name" : "Victoria",
               "short_name" : "Victoria",
               "types" : [ "administrative_area_level_1", "political" ]
            },
            {
               "long_name" : "Australia",
               "short_name" : "AU",
               "types" : [ "country", "political" ]
            }
         ],
         "formatted_address" : "Victoria, Australia",
         "geometry" : {
            "bounds" : {
               "northeast" : {
                  "lat" : -33.9806474,
                  "lng" : 150.0169685
               },
               "southwest" : {
                  "lat" : -39.18316069999999,
                  "lng" : 140.9616819
               }
            },
            "location" : {
               "lat" : -37.4713077,
               "lng" : 144.7851531
            },
            "location_type" : "APPROXIMATE",
            "viewport" : {
               "northeast" : {
                  "lat" : -33.9806474,
                  "lng" : 150.0169685
               },
               "southwest" : {
                  "lat" : -39.18316069999999,
                  "lng" : 140.9616819
               }
            }
         },
         "place_id" : "ChIJT5UYfksx1GoRNJWCvuL8Tlo",
         "types" : [ "administrative_area_level_1", "political" ]
      },
      {
         "address_components" : [
            {
               "long_name" : "Australia",
               "short_name" : "AU",
               "types" : [ "country", "political" ]
            }
         ],
         "formatted_address" : "Australia",
         "geometry" : {
            "bounds" : {
               "northeast" : {
                  "lat" : -9.187026399999999,
                  "lng" : 159.2872223
               },
               "southwest" : {
                  "lat" : -54.83376579999999,
                  "lng" : 110.9510339
               }
            },
            "location" : {
               "lat" : -25.274398,
               "lng" : 133.775136
            },
            "location_type" : "APPROXIMATE",
            "viewport" : {
               "northeast" : {
                  "lat" : -9.187026399999999,
                  "lng" : 159.2872223
               },
               "southwest" : {
                  "lat" : -54.83376579999999,
                  "lng" : 110.9510339
               }
            }
         },
         "place_id" : "ChIJ38WHZwf9KysRUhNblaFnglM",
         "types" : [ "country", "political" ]
      }
   ],
   "status" : "OK"
}
