{
   "plus_code" : {
      "compound_code" : "7Q29+M9 Nishihara, Okinawa Prefecture, Japan",
      "global_code" : "7QR97Q29+M9"
   },
   "results" : [
      {
         "address_components" : [
            {
               "long_name" : "番地",
               "short_name" : "番地",
               "types" : [ "premise" ]
            },
            {
               "long_name" : "1",
               "short_name" : "1",
               "types" : [ "political", "sublocality", "sublocality_level_4" ]
            },
            {
               "long_name" : "Senbaru",
               "short_name" : "Senbaru",
               "types" : [ "political", "sublocality", "sublocality_level_2" ]
            },
            {
               "long_name" : "Nishihara",
               "short_name" : "Nishihara",
               "types" : [ "locality", "political" ]
            },
            {
               "long_name" : "Nakagami District",
               "short_name" : "Nakagami District",
               "types" : [ "administrative_area_level_2", "political" ]
            },
            {
               "long_name" : "Okinawa Prefecture",
               "short_name" : "Okinawa Prefecture",
               "types" : [ "administrative_area_level_1", "political" ]
            },
            {
               "long_name" : "Japan",
               "short_name" : "JP",
               "types" : [ "country", "political" ]
            },
            {
               "long_name" : "903-0213",
               "short_name" : "903-0213",
               "types" : [ "postal_code" ]
            }
         ],
         "formatted_address" : "Japan, 〒903-0213 Okinawa Prefecture, Nakagami District, Nishihara, Senbaru, 1−番地 字",
         "geometry" : {
            "location" : {
               "lat" : 26.2516868,
               "lng" : 127.7684078
            },
            "location_type" : "ROOFTOP",
            "viewport" : {
               "northeast" : {
                  "lat" : 26.2530357802915,
                  "lng" : 127.7697567802915
               },
               "southwest" : {
                  "lat" : 26.25033781970849,
                  "lng" : 127.7670588197085
               }
            }
         },
         "place_id" : "ChIJRYvAYB1t5TQRdzVU7aNM4X8",
         "plus_code" : {
            "compound_code" : "7Q29+M9 Nishihara, Okinawa Prefecture, Japan",
            "global_code" : "7QR97Q29+M9"
         },
         "types" : [ "establishment", "gym", "health", "point_of_interest" ]
      },
      {
         "address_components" : [
            {
               "long_name" : "Unnamed Road",
               "short_name" : "Unnamed Road",
               "types" : [ "route" ]
            },
            {
               "long_name" : "Senbaru",
               "short_name" : "Senbaru",
               "types" : [ "political", "sublocality", "sublocality_level_2" ]
            },
            {
               "long_name" : "Nishihara-chō",
               "short_name" : "Nishihara-chō",
               "types" : [ "locality", "political" ]
            },
            {
               "long_name" : "Nakagami-gun",
               "short_name" : "Nakagami-gun",
               "types" : [ "administrative_area_level_2", "political" ]
            },
            {
               "long_name" : "Okinawa-ken",
               "short_name" : "Okinawa-ken",
               "types" : [ "administrative_area_level_1", "political" ]
            },
            {
               "long_name" : "Japan",
               "short_name" : "JP",
               "types" : [ "country", "political" ]
            },
            {
               "long_name" : "903-0129",
               "short_name" : "903-0129",
               "types" : [ "postal_code" ]
            }
         ],
         "formatted_address" : "Unnamed Road, Senbaru, Nishihara-chō, Nakagami-gun, Okinawa-ken 903-0129, Japan",
         "geometry" : {
            "bounds" : {
               "northeast" : {
                  "lat" : 26.2539192,
                  "lng" : 127.7679745
               },
               "southwest" : {
                  "lat" : 26.2515766,
                  "lng" : 127.7666223
               }
            },
            "location" : {
               "lat" : 26.2527479,
               "lng" : 127.7672984
            },
            "location_type" : "GEOMETRIC_CENTER",
            "viewport" : {
               "northeast" : {
                  "lat" : 26.2540968802915,
                  "lng" : 127.7686473802915
               },
               "southwest" : {
                  "lat" : 26.2513989197085,
                  "lng" : 127.7659494197085
               }
            }
         },
         "place_id" : "ChIJn4IcbB1t5TQR9n0mv6t6tLg",
         "types" : [ "route" ]
      },
      {
         "address_components" : [
            {
               "long_name" : "903-0129",
               "short_name" : "903-0129",
               "types" : [ "postal_code" ]
            },
            {
               "long_name" : "Senbaru",
               "short_name" : "Senbaru",
               "types" : [ "political", "sublocality", "sublocality_level_2" ]
            },
            {
               "long_name" : "Nishihara",
               "short_name" : "Nishihara",
               "types" : [ "locality", "political" ]
            },
            {
               "long_name" : "Nakagami District",
               "short_name" : "Nakagami District",
               "types" : [ "administrative_area_level_2", "political" ]
            },
            {
               "long_name" : "Okinawa Prefecture",
               "short_name" : "Okinawa Prefecture",
               "types" : [ "administrative_area_level_1", "political" ]
            },
            {
               "long_name" : "Japan",
               "short_name" : "JP",
               "types" : [ "country", "political" ]
            }
         ],
         "formatted_address" : "903-0129, Japan",
         "geometry" : {
            "bounds" : {
               "northeast" : {
                  "lat" : 26.2571871,
                  "lng" : 127.7694515
               },
               "southwest" : {
                  "lat" : 26.2429387,
                  "lng" : 127.7575207
               }
            },
            "location" : {
               "lat" : 26.2488997,
               "lng" : 127.7622971
            },
            "location_type" : "APPROXIMATE",
            "viewport" : {
               "northeast" : {
                  "lat" : 26.2571871,
                  "lng" : 127.7694515
               },
               "southwest" : {
                  "lat" : 26.2429387,
                  "lng" : 127.7575207
               }
            }
         },
         "place_id" : "ChIJk2-MZ_ts5TQRKFSu4696GQo",
         "types" : [ "postal_code" ]
      },
      {
         "address_components" : [
            {
               "long_name" : "Senbaru",
               "short_name" : "Senbaru",
               "types" : [ "political", "sublocality", "sublocality_level_2" ]
            },
            {
               "long_name" : "Nishihara",
               "short_name" : "Nishihara",
               "types" : [ "locality", "political" ]
            },
            {
               "long_name" : "Nakagami District",
               "short_name" : "Nakagami District",
               "types" : [ "administrative_area_level_2", "political" ]
            },
            {
               "long_name" : "Okinawa Prefecture",
               "short_name" : "Okinawa Prefecture",
               "types" : [ "administrative_area_level_1", "political" ]
            },
            {
               "long_name" : "Japan",
               "short_name" : "JP",
               "types" : [ "country", "political" ]
            },
            {
               "long_name" : "903-0129",
               "short_name" : "903-0129",
               "types" : [ "postal_code" ]
            }
         ],
         "formatted_address" : "Senbaru, Nishihara, Nakagami District, Okinawa Prefecture 903-0129, Japan",
         "geometry" : {
            "bounds" : {
               "northeast" : {
                  "lat" : 26.2571871,
                  "lng" : 127.7694515
               },
               "southwest" : {
                  "lat" : 26.2429387,
                  "lng" : 127.7575207
               }
            },
            "location" : {
               "lat" : 26.2521804,
               "lng" : 127.7601843
            },
            "location_type" : "APPROXIMATE",
            "viewport" : {
               "northeast" : {
                  "lat" : 26.2571871,
                  "lng" : 127.7694515
               },
               "southwest" : {
                  "lat" : 26.2429387,
                  "lng" : 127.7575207
               }
            }
         },
         "place_id" : "ChIJlZVd_vxs5TQROS0usJyrk_o",
         "types" : [ "political", "sublocality", "sublocality_level_2" ]
      },
      {
         "address_components" : [
            {
               "long_name" : "Nishihara",
               "short_name" : "Nishihara",
               "types" : [ "locality", "political" ]
            },
            {
               "long_name" : "Nakagami District",
               "short_name" : "Nakagami District",
               "types" : [ "administrative_area_level_2", "political" ]
            },
            {
               "long_name" : "Okinawa Prefecture",
               "short_name" : "Okinawa Prefecture",
               "types" : [ "administrative_area_level_1", "political" ]
            },
            {
               "long_name" : "Japan",
               "short_name" : "JP",
               "types" : [ "country", "political" ]
            }
         ],
         "formatted_address" : "Nishihara, Nakagami District, Okinawa Prefecture, Japan",
         "geometry" : {
            "bounds" : {
               "northeast" : {
                  "lat" : 26.2571868,
                  "lng" : 127.7942456
               },
               "southwest" : {
                  "lat" : 26.2077026,
                  "lng" : 127.7328522
               }
            },
            "location" : {
               "lat" : 26.2228445,
               "lng" : 127.7588107
            },
            "location_type" : "APPROXIMATE",
            "viewport" : {
               "northeast" : {
                  "lat" : 26.2571868,
                  "lng" : 127.7942456
               },
               "southwest" : {
                  "lat" : 26.2077026,
                  "lng" : 127.7328522
               }
            }
         },
         "place_id" : "ChIJ2zC_YlJs5TQRwpx8Axn9ZWs",
         "types" : [ "locality", "political" ]
      },
      {
         "address_components" : [
            {
               "long_name" : "Nakagami District",
               "short_name" : "Nakagami District",
               "types" : [ "administrative_area_level_2", "political" ]
            },
            {
               "long_name" : "Okinawa Prefecture",
               "short_name" : "Okinawa Prefecture",
               "types" : [ "administrative_area_level_1", "political" ]
            },
            {
               "long_name" : "Japan",
               "short_name" : "JP",
               "types" : [ "country", "political" ]
            }
         ],
         "formatted_address" : "Nakagami District, Okinawa Prefecture, Japan",
         "geometry" : {
            "bounds" : {
               "northeast" : {
                  "lat" : 26.4416779,
                  "lng" : 127.8287387
               },
               "southwest" : {
                  "lat" : 26.2077026,
                  "lng" : 127.7113225
               }
            },
            "location" : {
               "lat" : 26.3752782,
               "lng" : 127.7556556
            },
            "location_type" : "APPROXIMATE",
            "viewport" : {
               "northeast" : {
                  "lat" : 26.4416779,
                  "lng" : 127.8287387
               },
               "southwest" : {
                  "lat" : 26.2077026,
                  "lng" : 127.7113225
               }
            }
         },
         "place_id" : "ChIJA6dLclQS5TQRf97nFGLAAXo",
         "types" : [ "administrative_area_level_2", "political" ]
      },
      {
         "address_components" : [
            {
               "long_name" : "Okinawa Prefecture",
               "short_name" : "Okinawa Prefecture",
               "types" : [ "administrative_area_level_1", "political" ]
            },
            {
               "long_name" : "Japan",
               "short_name" : "JP",
               "types" : [ "country", "political" ]
            }
         ],
         "formatted_address" : "Okinawa Prefecture, Japan",
         "geometry" : {
            "bounds" : {
               "northeast" : {
                  "lat" : 27.8855436,
                  "lng" : 131.3320377
               },
               "southwest" : {
                  "lat" : 24.045766,
                  "lng" : 122.9337845
               }
            },
            "location" : {
               "lat" : 26.2124013,
               "lng" : 127.6809317
            },
            "location_type" : "APPROXIMATE",
            "viewport" : {
               "northeast" : {
                  "lat" : 27.8855436,
                  "lng" : 131.3320377
               },
               "southwest" : {
                  "lat" : 24.045766,
                  "lng" : 122.9337845
               }
            }
         },
         "place_id" : "ChIJ51ur7mJw9TQR79H9hnJhuzU",
         "types" : [ "administrative_area_level_1", "political" ]
      },
      {
         "address_components" : [
            {
               "long_name" : "Japan",
               "short_name" : "JP",
               "types" : [ "country", "political" ]
            }
         ],
         "formatted_address" : "Japan",
         "geometry" : {
            "bounds" : {
               "northeast" : {
                  "lat" : 45.6412626,
                  "lng" : 154.0031455
               },
               "southwest" : {
                  "lat" : 20.3585295,
                  "lng" : 122.8554688
               }
            },
            "location" : {
               "lat" : 36.204824,
               "lng" : 138.252924
            },
            "location_type" : "APPROXIMATE",
            "viewport" : {
               "northeast" : {
                  "lat" : 45.6412626,
                  "lng" : 154.0031455
               },
               "southwest" : {
                  "lat" : 20.3585295,
                  "lng" : 122.8554688
               }
            }
         },
         "place_id" : "ChIJLxl_1w9OZzQRRFJmfNR1QvU",
         "types" : [ "country", "political" ]
      }
   ],
   "status" : "OK"
}
