{
   "plus_code" : {
      "compound_code" : "5WWW+CF Campinas, State of São Paulo, Brazil",
      "global_code" : "589J5WWW+CF"
   },
   "results" : [
      {
         "address_components" : [
            {
               "long_name" : "Campinas",
               "short_name" : "Campinas",
               "types" : [ "administrative_area_level_2", "political" ]
            },
            {
               "long_name" : "São Paulo",
               "short_name" : "SP",
               "types" : [ "administrative_area_level_1", "political" ]
            },
            {
               "long_name" : "Brazil",
               "short_name" : "BR",
               "types" : [ "country", "political" ]
            },
            {
               "long_name" : "13083-100",
               "short_name" : "13083-100",
               "types" : [ "postal_code" ]
            }
         ],
         "formatted_address" : "Rua Giuseppe Máximo Scolfaro, 10000 - Guará, Campinas - SP, 13083-100, Brazil",
         "geometry" : {
            "location" : {
               "lat" : -22.8039728,
               "lng" : -47.0538166
            },
            "location_type" : "GEOMETRIC_CENTER",
            "viewport" : {
               "northeast" : {
                  "lat" : -22.8026238197085,
                  "lng" : -47.0524676197085
               },
               "southwest" : {
                  "lat" : -22.8053217802915,
                  "lng" : -47.0551655802915
               }
            }
         },
         "place_id" : "ChIJAY4Ug_zDyJQRS3F0OWbJMCw",
         "plus_code" : {
            "compound_code" : "5WWW+CF Campinas, State of São Paulo, Brazil",
            "global_code" : "589J5WWW+CF"
         },
         "types" : [ "establishment", "point_of_interest" ]
      },
      {
         "address_components" : [
            {
               "long_name" : "Rua Giuseppe Máximo Scolfaro",
               "short_name" : "R. Giuseppe Máximo Scolfaro",
               "types" : [ "route" ]
            },
            {
               "long_name" : "Bosque das Palmeiras",
               "short_name" : "Bosque das Palmeiras",
               "types" : [ "political", "sublocality", "sublocality_level_1" ]
            },
            {
               "long_name" : "Campinas",
               "short_name" : "Campinas",
               "types" : [ "administrative_area_level_2", "political" ]
            },
            {
               "long_name" : "São Paulo",
               "short_name" : "SP",
               "types" : [ "administrative_area_level_1", "political" ]
            },
            {
               "long_name" : "Brazil",
               "short_name" : "BR",
               "types" : [ "country", "political" ]
            },
            {
               "long_name" : "13083-100",
               "short_name" : "13083-100",
               "types" : [ "postal_code" ]
            }
         ],
         "formatted_address" : "R. Giuseppe Máximo Scolfaro - Bosque das Palmeiras, Campinas - SP, 13083-100, Brazil",
         "geometry" : {
            "bounds" : {
               "northeast" : {
                  "lat" : -22.8035419,
                  "lng" : -47.05337249999999
               },
               "southwest" : {
                  "lat" : -22.8044271,
                  "lng" : -47.0543328
               }
            },
            "location" : {
               "lat" : -22.8039728,
               "lng" : -47.0538166
            },
            "location_type" : "ROOFTOP",
            "viewport" : {
               "northeast" : {
                  "lat" : -22.8026355197085,
                  "lng" : -47.0525036697085
               },
               "southwest" : {
                  "lat" : -22.80533348029151,
                  "lng" : -47.0552016302915
               }
            }
         },
         "place_id" : "ChIJuafChPzDyJQRc0GPVqYd3Pk",
         "types" : [ "premise" ]
      },
      {
         "address_components" : [
            {
               "long_name" : "10,000",
               "short_name" : "10,000",
               "types" : [ "street_number" ]
            },
            {
               "long_name" : "Rua Giuseppe Máximo Scolfaro",
               "short_name" : "R. Giuseppe Máximo Scolfaro",
               "types" : [ "route" ]
            },
            {
               "long_name" : "Bosque das Palmeiras",
               "short_name" : "Bosque das Palmeiras",
               "types" : [ "political", "sublocality", "sublocality_level_1" ]
            },
            {
               "long_name" : "Campinas",
               "short_name" : "Campinas",
               "types" : [ "administrative_area_level_2", "political" ]
            },
            {
               "long_name" : "São Paulo",
               "short_name" : "SP",
               "types" : [ "administrative_area_level_1", "political" ]
            },
            {
               "long_name" : "Brazil",
               "short_name" : "BR",
               "types" : [ "country", "political" ]
            },
            {
               "long_name" : "13083-100",
               "short_name" : "13083-100",
               "types" : [ "postal_code" ]
            }
         ],
         "formatted_address" : "R. Giuseppe Máximo Scolfaro, 10,000 - Bosque das Palmeiras, Campinas - SP, 13083-100, Brazil",
         "geometry" : {
            "location" : {
               "lat" : -22.8039351,
               "lng" : -47.0536574
            },
            "location_type" : "ROOFTOP",
            "viewport" : {
               "northeast" : {
                  "lat" : -22.8025861197085,
                  "lng" : -47.0523084197085
               },
               "southwest" : {
                  "lat" : -22.8052840802915,
                  "lng" : -47.05500638029149
               }
            }
         },
         "place_id" : "ChIJAY4Ug_zDyJQRkn4iHMHauUM",
         "plus_code" : {
            "compound_code" : "5WWW+CG Campinas, State of São Paulo, Brazil",
            "global_code" : "589J5WWW+CG"
         },
         "types" : [ "street_address" ]
      },
      {
         "address_components" : [
            {
               "long_name" : "2481",
               "short_name" : "2481",
               "types" : [ "street_number" ]
            },
            {
               "long_name" : "Rua Giuseppe Máximo Scolfaro",
               "short_name" : "R. Giuseppe Máximo Scolfaro",
               "types" : [ "route" ]
            },
            {
               "long_name" : "Cidade Universitária",
               "short_name" : "Cidade Universitária",
               "types" : [ "political", "sublocality", "sublocality_level_1" ]
            },
            {
               "long_name" : "Campinas",
               "short_name" : "Campinas",
               "types" : [ "administrative_area_level_2", "political" ]
            },
            {
               "long_name" : "São Paulo",
               "short_name" : "SP",
               "types" : [ "administrative_area_level_1", "political" ]
            },
            {
               "long_name" : "Brazil",
               "short_name" : "BR",
               "types" : [ "country", "political" ]
            }
         ],
         "formatted_address" : "R. Giuseppe Máximo Scolfaro, 2481 - Cidade Universitária, Campinas - SP, Brazil",
         "geometry" : {
            "location" : {
               "lat" : -22.8022208,
               "lng" : -47.0536695
            },
            "location_type" : "RANGE_INTERPOLATED",
            "viewport" : {
               "northeast" : {
                  "lat" : -22.8008718197085,
                  "lng" : -47.0523205197085
               },
               "southwest" : {
                  "lat" : -22.8035697802915,
                  "lng" : -47.0550184802915
               }
            }
         },
         "place_id" : "ElFSLiBHaXVzZXBwZSBNw6F4aW1vIFNjb2xmYXJvLCAyNDgxIC0gQ2lkYWRlIFVuaXZlcnNpdMOhcmlhLCBDYW1waW5hcyAtIFNQLCBCcmFzaWwiGxIZChQKEglVTplM48PIlBHVaZ2wUSgj-hCxEw",
         "types" : [ "street_address" ]
      },
      {
         "address_components" : [
            {
               "long_name" : "13083-100",
               "short_name" : "13083-100",
               "types" : [ "postal_code" ]
            },
            {
               "long_name" : "Bosque das Palmeiras",
               "short_name" : "Bosque das Palmeiras",
               "types" : [ "political", "sublocality", "sublocality_level_1" ]
            },
            {
               "long_name" : "Campinas",
               "short_name" : "Campinas",
               "types" : [ "administrative_area_level_2", "political" ]
            },
            {
               "long_name" : "State of São Paulo",
               "short_name" : "SP",
               "types" : [ "administrative_area_level_1", "political" ]
            },
            {
               "long_name" : "Brazil",
               "short_name" : "BR",
               "types" : [ "country", "political" ]
            }
         ],
         "formatted_address" : "Bosque das Palmeiras, Campinas - State of São Paulo, 13083-100, Brazil",
         "geometry" : {
            "bounds" : {
               "northeast" : {
                  "lat" : -22.798453,
                  "lng" : -47.0437071
               },
               "southwest" : {
                  "lat" : -22.8047743,
                  "lng" : -47.0765515
               }
            },
            "location" : {
               "lat" : -22.8005533,
               "lng" : -47.0661744
            },
            "location_type" : "APPROXIMATE",
            "viewport" : {
               "northeast" : {
                  "lat" : -22.798453,
                  "lng" : -47.0437071
               },
               "southwest" : {
                  "lat" : -22.8047743,
                  "lng" : -47.0765515
               }
            }
         },
         "place_id" : "ChIJbe_lFFnByJQRBDPPKmC-lvs",
         "types" : [ "postal_code" ]
      },
      {
         "address_components" : [
            {
               "long_name" : "Bosque das Palmeiras",
               "short_name" : "Bosque das Palmeiras",
               "types" : [ "political", "sublocality", "sublocality_level_1" ]
            },
            {
               "long_name" : "Campinas",
               "short_name" : "Campinas",
               "types" : [ "administrative_area_level_2", "political" ]
            },
            {
               "long_name" : "State of São Paulo",
               "short_name" : "SP",
               "types" : [ "administrative_area_level_1", "political" ]
            },
            {
               "long_name" : "Brazil",
               "short_name" : "BR",
               "types" : [ "country", "political" ]
            }
         ],
         "formatted_address" : "Bosque das Palmeiras, Campinas - State of São Paulo, Brazil",
         "geometry" : {
            "bounds" : {
               "northeast" : {
                  "lat" : -22.7363677,
                  "lng" : -47.0172635
               },
               "southwest" : {
                  "lat" : -22.8366765,
                  "lng" : -47.0721945
               }
            },
            "location" : {
               "lat" : -22.7897751,
               "lng" : -47.0415159
            },
            "location_type" : "APPROXIMATE",
            "viewport" : {
               "northeast" : {
                  "lat" : -22.7363677,
                  "lng" : -47.0172635
               },
               "southwest" : {
                  "lat" : -22.8366765,
                  "lng" : -47.0721945
               }
            }
         },
         "place_id" : "ChIJ10OdyMPDyJQRrdFyAZpQOrg",
         "types" : [ "political", "sublocality", "sublocality_level_1" ]
      },
      {
         "address_components" : [
            {
               "long_name" : "Campinas",
               "short_name" : "Campinas",
               "types" : [ "locality", "political" ]
            },
            {
               "long_name" : "Campinas",
               "short_name" : "Campinas",
               "types" : [ "administrative_area_level_2", "political" ]
            },
            {
               "long_name" : "State of São Paulo",
               "short_name" : "SP",
               "types" : [ "administrative_area_level_1", "political" ]
            },
            {
               "long_name" : "Brazil",
               "short_name" : "BR",
               "types" : [ "country", "political" ]
            }
         ],
         "formatted_address" : "Campinas, State of São Paulo, Brazil",
         "geometry" : {
            "bounds" : {
               "northeast" : {
                  "lat" : -22.7333357,
                  "lng" : -46.935494
               },
               "southwest" : {
                  "lat" : -23.0534185,
                  "lng" : -47.209686
               }
            },
            "location" : {
               "lat" : -22.9099384,
               "lng" : -47.0626332
            },
            "location_type" : "APPROXIMATE",
            "viewport" : {
               "northeast" : {
                  "lat" : -22.7333357,
                  "lng" : -46.935494
               },
               "southwest" : {
                  "lat" : -23.0534185,
                  "lng" : -47.209686
               }
            }
         },
         "place_id" : "ChIJJWNL5x3GyJQRKsJ4IWo65Rc",
         "types" : [ "locality", "political" ]
      },
      {
         "address_components" : [
            {
               "long_name" : "Campinas",
               "short_name" : "Campinas",
               "types" : [ "administrative_area_level_2", "political" ]
            },
            {
               "long_name" : "State of São Paulo",
               "short_name" : "SP",
               "types" : [ "administrative_area_level_1", "political" ]
            },
            {
               "long_name" : "Brazil",
               "short_name" : "BR",
               "types" : [ "country", "political" ]
            }
         ],
         "formatted_address" : "Campinas - State of São Paulo, Brazil",
         "geometry" : {
            "bounds" : {
               "northeast" : {
                  "lat" : -22.729225,
                  "lng" : -46.81530189999999
               },
               "southwest" : {
                  "lat" : -23.061219,
                  "lng" : -47.2467669
               }
            },
            "location" : {
               "lat" : -22.9329252,
               "lng" : -47.073845
            },
            "location_type" : "APPROXIMATE",
            "viewport" : {
               "northeast" : {
                  "lat" : -22.729225,
                  "lng" : -46.81530189999999
               },
               "southwest" : {
                  "lat" : -23.061219,
                  "lng" : -47.2467669
               }
            }
         },
         "place_id" : "ChIJSSZVovbIyJQRNjUEWBwAdXQ",
         "types" : [ "administrative_area_level_2", "political" ]
      },
      {
         "address_components" : [
            {
               "long_name" : "State of São Paulo",
               "short_name" : "State of São Paulo",
               "types" : [ "administrative_area_level_1", "political" ]
            },
            {
               "long_name" : "Brazil",
               "short_name" : "BR",
               "types" : [ "country", "political" ]
            }
         ],
         "formatted_address" : "State of São Paulo, Brazil",
         "geometry" : {
            "bounds" : {
               "northeast" : {
                  "lat" : -19.7796583,
                  "lng" : -44.1613651
               },
               "southwest" : {
                  "lat" : -25.3126231,
                  "lng" : -53.1101046
               }
            },
            "location" : {
               "lat" : -23.5431786,
               "lng" : -46.6291845
            },
            "location_type" : "APPROXIMATE",
            "viewport" : {
               "northeast" : {
                  "lat" : -19.7796583,
                  "lng" : -44.1613651
               },
               "southwest" : {
                  "lat" : -25.3126231,
                  "lng" : -53.1101046
               }
            }
         },
         "place_id" : "ChIJrVgvRn1ZzpQRF3x74eJBUh4",
         "types" : [ "administrative_area_level_1", "political" ]
      },
      {
         "address_components" : [
            {
               "long_name" : "Brazil",
               "short_name" : "BR",
               "types" : [ "country", "political" ]
            }
         ],
         "formatted_address" : "Brazil",
         "geometry" : {
            "bounds" : {
               "northeast" : {
                  "lat" : 5.2717863,
                  "lng" : -28.650543
               },
               "southwest" : {
                  "lat" : -34.0891,
                  "lng" : -73.9828169
               }
            },
            "location" : {
               "lat" : -14.235004,
               "lng" : -51.92528
            },
            "location_type" : "APPROXIMATE",
            "viewport" : {
               "northeast" : {
                  "lat" : 5.2717863,
                  "lng" : -28.650543
               },
               "southwest" : {
                  "lat" : -34.0891,
                  "lng" : -73.9828169
               }
            }
         },
         "place_id" : "ChIJzyjM68dZnAARYz4p8gYVWik",
         "types" : [ "country", "political" ]
      }
   ],
   "status" : "OK"
}
