{
   "plus_code" : {
      "compound_code" : "RJQW+PR Uppsala, Sweden",
      "global_code" : "9FFVRJQW+PR"
   },
   "results" : [
      {
         "address_components" : [
            {
               "long_name" : "1",
               "short_name" : "1",
               "types" : [ "street_number" ]
            },
            {
               "long_name" : "Lägerhyddsvägen",
               "short_name" : "Lägerhyddsvägen",
               "types" : [ "route" ]
            },
            {
               "long_name" : "Ulleråker",
               "short_name" : "Ulleråker",
               "types" : [ "political", "sublocality", "sublocality_level_1" ]
            },
            {
               "long_name" : "Uppsala",
               "short_name" : "Uppsala",
               "types" : [ "postal_town" ]
            },
            {
               "long_name" : "Uppsala län",
               "short_name" : "Uppsala län",
               "types" : [ "administrative_area_level_1", "political" ]
            },
            {
               "long_name" : "Sweden",
               "short_name" : "SE",
               "types" : [ "country", "political" ]
            },
            {
               "long_name" : "752 37",
               "short_name" : "752 37",
               "types" : [ "postal_code" ]
            }
         ],
         "formatted_address" : "Lägerhyddsvägen 1, 752 37 Uppsala, Sweden",
         "geometry" : {
            "location" : {
               "lat" : 59.8392565,
               "lng" : 17.6470745
            },
            "location_type" : "ROOFTOP",
            "viewport" : {
               "northeast" : {
                  "lat" : 59.84060548029151,
                  "lng" : 17.6484234802915
               },
               "southwest" : {
                  "lat" : 59.8379075197085,
                  "lng" : 17.6457255197085
               }
            }
         },
         "place_id" : "ChIJAziNBODLX0YRe6Xw-rIYeBM",
         "types" : [ "establishment", "point_of_interest" ]
      },
      {
         "address_components" : [
            {
               "long_name" : "1",
               "short_name" : "1",
               "types" : [ "street_number" ]
            },
            {
               "long_name" : "Lägerhyddsvägen",
               "short_name" : "Lägerhyddsvägen",
               "types" : [ "route" ]
            },
            {
               "long_name" : "Ulleråker",
               "short_name" : "Ulleråker",
               "types" : [ "political", "sublocality", "sublocality_level_1" ]
            },
            {
               "long_name" : "Uppsala",
               "short_name" : "Uppsala",
               "types" : [ "postal_town" ]
            },
            {
               "long_name" : "Uppsala län",
               "short_name" : "Uppsala län",
               "types" : [ "administrative_area_level_1", "political" ]
            },
            {
               "long_name" : "Sweden",
               "short_name" : "SE",
               "types" : [ "country", "political" ]
            },
            {
               "long_name" : "752 37",
               "short_name" : "752 37",
               "types" : [ "postal_code" ]
            }
         ],
         "formatted_address" : "Lägerhyddsvägen 1, 752 37 Uppsala, Sweden",
         "geometry" : {
            "location" : {
               "lat" : 59.8392565,
               "lng" : 17.6470745
            },
            "location_type" : "ROOFTOP",
            "viewport" : {
               "northeast" : {
                  "lat" : 59.84060548029151,
                  "lng" : 17.6484234802915
               },
               "southwest" : {
                  "lat" : 59.8379075197085,
                  "lng" : 17.6457255197085
               }
            }
         },
         "place_id" : "ChIJAziNBODLX0YRhj3cXfzjZCQ",
         "types" : [ "street_address" ]
      },
      {
         "address_components" : [
            {
               "long_name" : "1",
               "short_name" : "1",
               "types" : [ "street_number" ]
            },
            {
               "long_name" : "Lägerhyddsvägen",
               "short_name" : "Lägerhyddsvägen",
               "types" : [ "route" ]
            },
            {
               "long_name" : "Uppsala",
               "short_name" : "Uppsala",
               "types" : [ "postal_town" ]
            },
            {
               "long_name" : "Sweden",
               "short_name" : "SE",
               "types" : [ "country", "political" ]
            },
            {
               "long_name" : "752 37",
               "short_name" : "752 37",
               "types" : [ "postal_code" ]
            }
         ],
         "formatted_address" : "Lägerhyddsvägen 1, 752 37 Uppsala, Sweden",
         "geometry" : {
            "location" : {
               "lat" : 59.8397145,
               "lng" : 17.6480208
            },
            "location_type" : "RANGE_INTERPOLATED",
            "viewport" : {
               "northeast" : {
                  "lat" : 59.8410634802915,
                  "lng" : 17.6493697802915
               },
               "southwest" : {
                  "lat" : 59.83836551970849,
                  "lng" : 17.64667181970849
               }
            }
         },
         "place_id" : "EixMw6RnZXJoeWRkc3bDpGdlbiAxLCA3NTIgMzcgVXBwc2FsYSwgU3ZlcmlnZSIaEhgKFAoSCX_AaiLgy19GEVPMbwyLkjtWEAE",
         "types" : [ "street_address" ]
      },
      {
         "address_components" : [
            {
               "long_name" : "752 37",
               "short_name" : "752 37",
               "types" : [ "postal_code" ]
            },
            {
               "long_name" : "Uppsala",
               "short_name" : "Uppsala",
               "types" : [ "postal_town" ]
            },
            {
               "long_name" : "Uppsala County",
               "short_name" : "Uppsala County",
               "types" : [ "administrative_area_level_1", "political" ]
            },
            {
               "long_name" : "Sweden",
               "short_name" : "SE",
               "types" : [ "country", "political" ]
            }
         ],
         "formatted_address" : "752 37 Uppsala, Sweden",
         "geometry" : {
            "bounds" : {
               "northeast" : {
                  "lat" : 59.8557009,
                  "lng" : 17.653318
               },
               "southwest" : {
                  "lat" : 59.82820100000001,
                  "lng" : 17.6235771
               }
            },
            "location" : {
               "lat" : 59.8419727,
               "lng" : 17.6446666
            },
            "location_type" : "APPROXIMATE",
            "viewport" : {
               "northeast" : {
                  "lat" : 59.8557009,
                  "lng" : 17.653318
               },
               "southwest" : {
                  "lat" : 59.82820100000001,
                  "lng" : 17.6235771
               }
            }
         },
         "place_id" : "ChIJTaAOfr_JX0YRsx0wF_P-AAs",
         "types" : [ "postal_code" ]
      },
      {
         "address_components" : [
            {
               "long_name" : "Ulleråker",
               "short_name" : "Ulleråker",
               "types" : [ "political", "sublocality", "sublocality_level_1" ]
            },
            {
               "long_name" : "Uppsala",
               "short_name" : "Uppsala",
               "types" : [ "locality", "political" ]
            },
            {
               "long_name" : "Uppsala County",
               "short_name" : "Uppsala County",
               "types" : [ "administrative_area_level_1", "political" ]
            },
            {
               "long_name" : "Sweden",
               "short_name" : "SE",
               "types" : [ "country", "political" ]
            }
         ],
         "formatted_address" : "Ulleråker, Uppsala, Sweden",
         "geometry" : {
            "bounds" : {
               "northeast" : {
                  "lat" : 59.8401239,
                  "lng" : 17.6738909
               },
               "southwest" : {
                  "lat" : 59.821526,
                  "lng" : 17.6363399
               }
            },
            "location" : {
               "lat" : 59.8318254,
               "lng" : 17.650528
            },
            "location_type" : "APPROXIMATE",
            "viewport" : {
               "northeast" : {
                  "lat" : 59.8401239,
                  "lng" : 17.6738909
               },
               "southwest" : {
                  "lat" : 59.821526,
                  "lng" : 17.6363399
               }
            }
         },
         "place_id" : "ChIJ97RkMF7JX0YRvoo5FEeOKDI",
         "types" : [ "political", "sublocality", "sublocality_level_1" ]
      },
      {
         "address_components" : [
            {
               "long_name" : "Uppsala",
               "short_name" : "Uppsala",
               "types" : [ "locality", "political" ]
            },
            {
               "long_name" : "Uppsala County",
               "short_name" : "Uppsala County",
               "types" : [ "administrative_area_level_1", "political" ]
            },
            {
               "long_name" : "Sweden",
               "short_name" : "SE",
               "types" : [ "country", "political" ]
            }
         ],
         "formatted_address" : "Uppsala, Sweden",
         "geometry" : {
            "bounds" : {
               "northeast" : {
                  "lat" : 59.904146,
                  "lng" : 17.7709899
               },
               "southwest" : {
                  "lat" : 59.7624129,
                  "lng" : 17.5459042
               }
            },
            "location" : {
               "lat" : 59.85856380000001,
               "lng" : 17.6389267
            },
            "location_type" : "APPROXIMATE",
            "viewport" : {
               "northeast" : {
                  "lat" : 59.904146,
                  "lng" : 17.7709899
               },
               "southwest" : {
                  "lat" : 59.7624129,
                  "lng" : 17.5459042
               }
            }
         },
         "place_id" : "ChIJjasyhfvLX0YRBwiChQrpT6o",
         "types" : [ "locality", "political" ]
      },
      {
         "address_components" : [
            {
               "long_name" : "Uppsala",
               "short_name" : "Uppsala",
               "types" : [ "postal_town" ]
            },
            {
               "long_name" : "Uppsala län",
               "short_name" : "Uppsala län",
               "types" : [ "administrative_area_level_1", "political" ]
            },
            {
               "long_name" : "Sweden",
               "short_name" : "SE",
               "types" : [ "country", "political" ]
            }
         ],
         "formatted_address" : "Uppsala, Sweden",
         "geometry" : {
            "bounds" : {
               "northeast" : {
                  "lat" : 60.037176,
                  "lng" : 18.024324
               },
               "southwest" : {
                  "lat" : 59.7121311,
                  "lng" : 17.3151231
               }
            },
            "location" : {
               "lat" : 59.8333782,
               "lng" : 17.6852217
            },
            "location_type" : "APPROXIMATE",
            "viewport" : {
               "northeast" : {
                  "lat" : 60.037176,
                  "lng" : 18.024324
               },
               "southwest" : {
                  "lat" : 59.7121311,
                  "lng" : 17.3151231
               }
            }
         },
         "place_id" : "ChIJj7dVYlEtXkYRGARo4Vvsw30",
         "types" : [ "postal_town" ]
      },
      {
         "address_components" : [
            {
               "long_name" : "Uppsala",
               "short_name" : "Uppsala",
               "types" : [ "administrative_area_level_2", "political" ]
            },
            {
               "long_name" : "Uppsala County",
               "short_name" : "Uppsala County",
               "types" : [ "administrative_area_level_1", "political" ]
            },
            {
               "long_name" : "Sweden",
               "short_name" : "SE",
               "types" : [ "country", "political" ]
            }
         ],
         "formatted_address" : "Uppsala, Sweden",
         "geometry" : {
            "bounds" : {
               "northeast" : {
                  "lat" : 60.179428,
                  "lng" : 18.4731669
               },
               "southwest" : {
                  "lat" : 59.72629509999999,
                  "lng" : 17.096596
               }
            },
            "location" : {
               "lat" : 59.9141078,
               "lng" : 17.6193256
            },
            "location_type" : "APPROXIMATE",
            "viewport" : {
               "northeast" : {
                  "lat" : 60.179428,
                  "lng" : 18.4731669
               },
               "southwest" : {
                  "lat" : 59.72629509999999,
                  "lng" : 17.096596
               }
            }
         },
         "place_id" : "ChIJydAVmsTRX0YR-vhTBDgpkCE",
         "types" : [ "administrative_area_level_2", "political" ]
      },
      {
         "address_components" : [
            {
               "long_name" : "Uppsala County",
               "short_name" : "Uppsala County",
               "types" : [ "administrative_area_level_1", "political" ]
            },
            {
               "long_name" : "Sweden",
               "short_name" : "SE",
               "types" : [ "country", "political" ]
            }
         ],
         "formatted_address" : "Uppsala County, Sweden",
         "geometry" : {
            "bounds" : {
               "northeast" : {
                  "lat" : 60.73211800000001,
                  "lng" : 18.7728361
               },
               "southwest" : {
                  "lat" : 59.4050129,
                  "lng" : 16.6783359
               }
            },
            "location" : {
               "lat" : 60.00922619999999,
               "lng" : 17.2714588
            },
            "location_type" : "APPROXIMATE",
            "viewport" : {
               "northeast" : {
                  "lat" : 60.73211800000001,
                  "lng" : 18.7728361
               },
               "southwest" : {
                  "lat" : 59.4050129,
                  "lng" : 16.6783359
               }
            }
         },
         "place_id" : "ChIJ7zcyuFgQXkYRoceQrKI9PuQ",
         "types" : [ "administrative_area_level_1", "political" ]
      },
      {
         "address_components" : [
            {
               "long_name" : "Sweden",
               "short_name" : "SE",
               "types" : [ "country", "political" ]
            }
         ],
         "formatted_address" : "Sweden",
         "geometry" : {
            "bounds" : {
               "northeast" : {
                  "lat" : 69.0599709,
                  "lng" : 24.1773101
               },
               "southwest" : {
                  "lat" : 55.0059799,
                  "lng" : 10.5798
               }
            },
            "location" : {
               "lat" : 60.12816100000001,
               "lng" : 18.643501
            },
            "location_type" : "APPROXIMATE",
            "viewport" : {
               "northeast" : {
                  "lat" : 69.0599709,
                  "lng" : 24.1773101
               },
               "southwest" : {
                  "lat" : 55.0059799,
                  "lng" : 10.5798
               }
            }
         },
         "place_id" : "ChIJ8fA1bTmyXEYRYm-tjaLruCI",
         "types" : [ "country", "political" ]
      }
   ],
   "status" : "OK"
}
