{
   "plus_code" : {
      "compound_code" : "6CR5+VQ Guildford, UK",
      "global_code" : "9C3X6CR5+VQ"
   },
   "results" : [
      {
         "address_components" : [
            {
               "long_name" : "388",
               "short_name" : "388",
               "types" : [ "street_number" ]
            },
            {
               "long_name" : "Stag Hill",
               "short_name" : "Stag Hill",
               "types" : [ "route" ]
            },
            {
               "long_name" : "Guildford",
               "short_name" : "Guildford",
               "types" : [ "postal_town" ]
            },
            {
               "long_name" : "Surrey",
               "short_name" : "Surrey",
               "types" : [ "administrative_area_level_2", "political" ]
            },
            {
               "long_name" : "England",
               "short_name" : "England",
               "types" : [ "administrative_area_level_1", "political" ]
            },
            {
               "long_name" : "United Kingdom",
               "short_name" : "GB",
               "types" : [ "country", "political" ]
            },
            {
               "long_name" : "GU2 7XH",
               "short_name" : "GU2 7XH",
               "types" : [ "postal_code" ]
            }
         ],
         "formatted_address" : "388 Stag Hill, Guildford GU2 7XH, UK",
         "geometry" : {
            "location" : {
               "lat" : 51.2421839,
               "lng" : -0.5905421
            },
            "location_type" : "ROOFTOP",
            "viewport" : {
               "northeast" : {
                  "lat" : 51.2435328802915,
                  "lng" : -0.589193119708498
               },
               "southwest" : {
                  "lat" : 51.2408349197085,
                  "lng" : -0.5918910802915021
               }
            }
         },
         "place_id" : "ChIJOwhDSMLQdUgRoRNC7SrlnSk",
         "plus_code" : {
            "compound_code" : "6CR5+VQ Guildford, United Kingdom",
            "global_code" : "9C3X6CR5+VQ"
         },
         "types" : [ "establishment", "point_of_interest", "university" ]
      },
      {
         "address_components" : [
            {
               "long_name" : "University Of Surrey",
               "short_name" : "University Of Surrey",
               "types" : [ "premise" ]
            },
            {
               "long_name" : "Alexander Fleming Road",
               "short_name" : "Alexander Fleming Rd",
               "types" : [ "route" ]
            },
            {
               "long_name" : "Guildford",
               "short_name" : "Guildford",
               "types" : [ "postal_town" ]
            },
            {
               "long_name" : "Surrey",
               "short_name" : "Surrey",
               "types" : [ "administrative_area_level_2", "political" ]
            },
            {
               "long_name" : "England",
               "short_name" : "England",
               "types" : [ "administrative_area_level_1", "political" ]
            },
            {
               "long_name" : "United Kingdom",
               "short_name" : "GB",
               "types" : [ "country", "political" ]
            },
            {
               "long_name" : "GU2 7JL",
               "short_name" : "GU2 7JL",
               "types" : [ "postal_code" ]
            }
         ],
         "formatted_address" : "University Of Surrey, Alexander Fleming Rd, Guildford GU2 7JL, UK",
         "geometry" : {
            "location" : {
               "lat" : 51.2423009,
               "lng" : -0.5904827
            },
            "location_type" : "ROOFTOP",
            "viewport" : {
               "northeast" : {
                  "lat" : 51.2436498802915,
                  "lng" : -0.5891337197084979
               },
               "southwest" : {
                  "lat" : 51.2409519197085,
                  "lng" : -0.591831680291502
               }
            }
         },
         "place_id" : "ChIJibCWOcLQdUgRShMkNOkMC0E",
         "types" : [ "premise" ]
      },
      {
         "address_components" : [
            {
               "long_name" : "Unnamed Road",
               "short_name" : "Unnamed Road",
               "types" : [ "route" ]
            },
            {
               "long_name" : "Guildford",
               "short_name" : "Guildford",
               "types" : [ "postal_town" ]
            },
            {
               "long_name" : "Surrey",
               "short_name" : "Surrey",
               "types" : [ "administrative_area_level_2", "political" ]
            },
            {
               "long_name" : "England",
               "short_name" : "England",
               "types" : [ "administrative_area_level_1", "political" ]
            },
            {
               "long_name" : "United Kingdom",
               "short_name" : "GB",
               "types" : [ "country", "political" ]
            },
            {
               "long_name" : "GU2",
               "short_name" : "GU2",
               "types" : [ "postal_code", "postal_code_prefix" ]
            }
         ],
         "formatted_address" : "Unnamed Road, Guildford GU2, UK",
         "geometry" : {
            "bounds" : {
               "northeast" : {
                  "lat" : 51.2423357,
                  "lng" : -0.5906118
               },
               "southwest" : {
                  "lat" : 51.242045,
                  "lng" : -0.5909487000000001
               }
            },
            "location" : {
               "lat" : 51.2421904,
               "lng" : -0.5907802
            },
            "location_type" : "GEOMETRIC_CENTER",
            "viewport" : {
               "northeast" : {
                  "lat" : 51.2435393302915,
                  "lng" : -0.589431269708498
               },
               "southwest" : {
                  "lat" : 51.2408413697085,
                  "lng" : -0.5921292302915021
               }
            }
         },
         "place_id" : "ChIJpQTCIsLQdUgR2PXYTJH3d_o",
         "types" : [ "route" ]
      },
      {
         "address_components" : [
            {
               "long_name" : "GU2 7JQ",
               "short_name" : "GU2 7JQ",
               "types" : [ "postal_code" ]
            },
            {
               "long_name" : "Wells",
               "short_name" : "Wells",
               "types" : [ "route" ]
            },
            {
               "long_name" : "Guildford",
               "short_name" : "Guildford",
               "types" : [ "postal_town" ]
            },
            {
               "long_name" : "Surrey",
               "short_name" : "Surrey",
               "types" : [ "administrative_area_level_2", "political" ]
            },
            {
               "long_name" : "England",
               "short_name" : "England",
               "types" : [ "administrative_area_level_1", "political" ]
            },
            {
               "long_name" : "United Kingdom",
               "short_name" : "GB",
               "types" : [ "country", "political" ]
            }
         ],
         "formatted_address" : "Wells, Guildford GU2 7JQ, UK",
         "geometry" : {
            "bounds" : {
               "northeast" : {
                  "lat" : 51.2440261,
                  "lng" : -0.5883705
               },
               "southwest" : {
                  "lat" : 51.2411183,
                  "lng" : -0.5906914
               }
            },
            "location" : {
               "lat" : 51.2421208,
               "lng" : -0.5893206999999999
            },
            "location_type" : "APPROXIMATE",
            "viewport" : {
               "northeast" : {
                  "lat" : 51.2440261,
                  "lng" : -0.5881819697084979
               },
               "southwest" : {
                  "lat" : 51.2411183,
                  "lng" : -0.590879930291502
               }
            }
         },
         "place_id" : "ChIJpWvV7MHQdUgRAqqSgVAZncI",
         "types" : [ "postal_code" ]
      },
      {
         "address_components" : [
            {
               "long_name" : "GU2",
               "short_name" : "GU2",
               "types" : [ "postal_code", "postal_code_prefix" ]
            },
            {
               "long_name" : "Guildford",
               "short_name" : "Guildford",
               "types" : [ "postal_town" ]
            },
            {
               "long_name" : "Surrey",
               "short_name" : "Surrey",
               "types" : [ "administrative_area_level_2", "political" ]
            },
            {
               "long_name" : "England",
               "short_name" : "England",
               "types" : [ "administrative_area_level_1", "political" ]
            },
            {
               "long_name" : "United Kingdom",
               "short_name" : "GB",
               "types" : [ "country", "political" ]
            }
         ],
         "formatted_address" : "Guildford GU2, UK",
         "geometry" : {
            "bounds" : {
               "northeast" : {
                  "lat" : 51.2710142,
                  "lng" : -0.5733784
               },
               "southwest" : {
                  "lat" : 51.2244094,
                  "lng" : -0.6196763
               }
            },
            "location" : {
               "lat" : 51.2459898,
               "lng" : -0.5903183
            },
            "location_type" : "APPROXIMATE",
            "viewport" : {
               "northeast" : {
                  "lat" : 51.2710142,
                  "lng" : -0.5733784
               },
               "southwest" : {
                  "lat" : 51.2244094,
                  "lng" : -0.6196763
               }
            }
         },
         "place_id" : "ChIJUTCv-IvQdUgR19Jj_RmZE-w",
         "types" : [ "postal_code", "postal_code_prefix" ]
      },
      {
         "address_components" : [
            {
               "long_name" : "Guildford",
               "short_name" : "Guildford",
               "types" : [ "locality", "political" ]
            },
            {
               "long_name" : "Guildford",
               "short_name" : "Guildford",
               "types" : [ "postal_town" ]
            },
            {
               "long_name" : "Surrey",
               "short_name" : "Surrey",
               "types" : [ "administrative_area_level_2", "political" ]
            },
            {
               "long_name" : "England",
               "short_name" : "England",
               "types" : [ "administrative_area_level_1", "political" ]
            },
            {
               "long_name" : "United Kingdom",
               "short_name" : "GB",
               "types" : [ "country", "political" ]
            }
         ],
         "formatted_address" : "Guildford, UK",
         "geometry" : {
            "bounds" : {
               "northeast" : {
                  "lat" : 51.2711197,
                  "lng" : -0.5084325
               },
               "southwest" : {
                  "lat" : 51.211911,
                  "lng" : -0.6224141
               }
            },
            "location" : {
               "lat" : 51.23622,
               "lng" : -0.5704090000000001
            },
            "location_type" : "APPROXIMATE",
            "viewport" : {
               "northeast" : {
                  "lat" : 51.2711197,
                  "lng" : -0.5084325
               },
               "southwest" : {
                  "lat" : 51.211911,
                  "lng" : -0.6224141
               }
            }
         },
         "place_id" : "ChIJ31mWt6_EdUgRoajr-bKZZpQ",
         "types" : [ "locality", "political" ]
      },
      {
         "address_components" : [
            {
               "long_name" : "Guildford",
               "short_name" : "Guildford",
               "types" : [ "postal_town" ]
            },
            {
               "long_name" : "Surrey",
               "short_name" : "Surrey",
               "types" : [ "administrative_area_level_2", "political" ]
            },
            {
               "long_name" : "England",
               "short_name" : "England",
               "types" : [ "administrative_area_level_1", "political" ]
            },
            {
               "long_name" : "United Kingdom",
               "short_name" : "GB",
               "types" : [ "country", "political" ]
            }
         ],
         "formatted_address" : "Guildford, UK",
         "geometry" : {
            "bounds" : {
               "northeast" : {
                  "lat" : 51.2957596,
                  "lng" : -0.4215127
               },
               "southwest" : {
                  "lat" : 51.1465602,
                  "lng" : -0.7011795
               }
            },
            "location" : {
               "lat" : 51.2410095,
               "lng" : -0.5373247999999999
            },
            "location_type" : "APPROXIMATE",
            "viewport" : {
               "northeast" : {
                  "lat" : 51.2957596,
                  "lng" : -0.4215127
               },
               "southwest" : {
                  "lat" : 51.1465602,
                  "lng" : -0.7011795
               }
            }
         },
         "place_id" : "ChIJD9BMFoDQdUgRKXDhTdMxw2E",
         "types" : [ "postal_town" ]
      },
      {
         "address_components" : [
            {
               "long_name" : "Borough of Guildford",
               "short_name" : "Borough of Guildford",
               "types" : [ "administrative_area_level_3", "political" ]
            },
            {
               "long_name" : "Surrey",
               "short_name" : "Surrey",
               "types" : [ "administrative_area_level_2", "political" ]
            },
            {
               "long_name" : "England",
               "short_name" : "England",
               "types" : [ "administrative_area_level_1", "political" ]
            },
            {
               "long_name" : "United Kingdom",
               "short_name" : "GB",
               "types" : [ "country", "political" ]
            }
         ],
         "formatted_address" : "Borough of Guildford, UK",
         "geometry" : {
            "bounds" : {
               "northeast" : {
                  "lat" : 51.3315072,
                  "lng" : -0.3871651
               },
               "southwest" : {
                  "lat" : 51.1731853,
                  "lng" : -0.7483535
               }
            },
            "location" : {
               "lat" : 51.24078489999999,
               "lng" : -0.5843292
            },
            "location_type" : "APPROXIMATE",
            "viewport" : {
               "northeast" : {
                  "lat" : 51.3315072,
                  "lng" : -0.3871651
               },
               "southwest" : {
                  "lat" : 51.1731853,
                  "lng" : -0.7483535
               }
            }
         },
         "place_id" : "ChIJEaciRq_QdUgRcGrsoi2uDgQ",
         "types" : [ "administrative_area_level_3", "political" ]
      },
      {
         "address_components" : [
            {
               "long_name" : "Surrey",
               "short_name" : "Surrey",
               "types" : [ "administrative_area_level_2", "political" ]
            },
            {
               "long_name" : "England",
               "short_name" : "England",
               "types" : [ "administrative_area_level_1", "political" ]
            },
            {
               "long_name" : "United Kingdom",
               "short_name" : "GB",
               "types" : [ "country", "political" ]
            }
         ],
         "formatted_address" : "Surrey, UK",
         "geometry" : {
            "bounds" : {
               "northeast" : {
                  "lat" : 51.4715328,
                  "lng" : 0.05821630000000001
               },
               "southwest" : {
                  "lat" : 51.0714964,
                  "lng" : -0.8489291
               }
            },
            "location" : {
               "lat" : 51.31475930000001,
               "lng" : -0.5599501
            },
            "location_type" : "APPROXIMATE",
            "viewport" : {
               "northeast" : {
                  "lat" : 51.4715328,
                  "lng" : 0.05821630000000001
               },
               "southwest" : {
                  "lat" : 51.0714964,
                  "lng" : -0.8489291
               }
            }
         },
         "place_id" : "ChIJgSUS1VpV30cRd0IDXESDUtU",
         "types" : [ "administrative_area_level_2", "political" ]
      },
      {
         "address_components" : [
            {
               "long_name" : "England",
               "short_name" : "England",
               "types" : [ "administrative_area_level_1", "political" ]
            },
            {
               "long_name" : "United Kingdom",
               "short_name" : "GB",
               "types" : [ "country", "political" ]
            }
         ],
         "formatted_address" : "England, UK",
         "geometry" : {
            "bounds" : {
               "northeast" : {
                  "lat" : 55.81165979999999,
                  "lng" : 1.7629159
               },
               "southwest" : {
                  "lat" : 49.8647411,
                  "lng" : -6.4185458
               }
            },
            "location" : {
               "lat" : 52.3555177,
               "lng" : -1.1743197
            },
            "location_type" : "APPROXIMATE",
            "viewport" : {
               "northeast" : {
                  "lat" : 55.81165979999999,
                  "lng" : 1.7629159
               },
               "southwest" : {
                  "lat" : 49.8647411,
                  "lng" : -6.4185458
               }
            }
         },
         "place_id" : "ChIJ39UebIqp0EcRqI4tMyWV4fQ",
         "types" : [ "administrative_area_level_1", "political" ]
      },
      {
         "address_components" : [
            {
               "long_name" : "United Kingdom",
               "short_name" : "GB",
               "types" : [ "country", "political" ]
            }
         ],
         "formatted_address" : "United Kingdom",
         "geometry" : {
            "bounds" : {
               "northeast" : {
                  "lat" : 60.91569999999999,
                  "lng" : 33.9165549
               },
               "southwest" : {
                  "lat" : 34.5614,
                  "lng" : -8.8988999
               }
            },
            "location" : {
               "lat" : 55.378051,
               "lng" : -3.435973
            },
            "location_type" : "APPROXIMATE",
            "viewport" : {
               "northeast" : {
                  "lat" : 60.91569999999999,
                  "lng" : 33.9165549
               },
               "southwest" : {
                  "lat" : 34.5614,
                  "lng" : -8.8988999
               }
            }
         },
         "place_id" : "ChIJqZHHQhE7WgIReiWIMkOg-MQ",
         "types" : [ "country", "political" ]
      }
   ],
   "status" : "OK"
}
