{
   "plus_code" : {
      "compound_code" : "5QQV+GR Düsseldorf, Germany",
      "global_code" : "9F385QQV+GR"
   },
   "results" : [
      {
         "address_components" : [
            {
               "long_name" : "1",
               "short_name" : "1",
               "types" : [ "street_number" ]
            },
            {
               "long_name" : "Universitätsstraße",
               "short_name" : "Universitätsstraße",
               "types" : [ "route" ]
            },
            {
               "long_name" : "Stadtbezirk 3",
               "short_name" : "Stadtbezirk 3",
               "types" : [ "political", "sublocality", "sublocality_level_1" ]
            },
            {
               "long_name" : "Düsseldorf",
               "short_name" : "Düsseldorf",
               "types" : [ "locality", "political" ]
            },
            {
               "long_name" : "Düsseldorf",
               "short_name" : "Düsseldorf",
               "types" : [ "administrative_area_level_2", "political" ]
            },
            {
               "long_name" : "Nordrhein-Westfalen",
               "short_name" : "NRW",
               "types" : [ "administrative_area_level_1", "political" ]
            },
            {
               "long_name" : "Germany",
               "short_name" : "DE",
               "types" : [ "country", "political" ]
            },
            {
               "long_name" : "40225",
               "short_name" : "40225",
               "types" : [ "postal_code" ]
            }
         ],
         "formatted_address" : "Universitätsstraße 1, 40225 Düsseldorf, Germany",
         "geometry" : {
            "location" : {
               "lat" : 51.1888113,
               "lng" : 6.794503
            },
            "location_type" : "ROOFTOP",
            "viewport" : {
               "northeast" : {
                  "lat" : 51.19016028029149,
                  "lng" : 6.795851980291502
               },
               "southwest" : {
                  "lat" : 51.18746231970849,
                  "lng" : 6.793154019708497
               }
            }
         },
         "place_id" : "ChIJ6w5K1gHLuEcR4hcon34Xehk",
         "plus_code" : {
            "compound_code" : "5QQV+GR Düsseldorf, Germany",
            "global_code" : "9F385QQV+GR"
         },
         "types" : [ "establishment", "point_of_interest" ]
      },
      {
         "address_components" : [
            {
               "long_name" : "Oeconomicum",
               "short_name" : "Oeconomicum",
               "types" : [ "premise" ]
            },
            {
               "long_name" : "Universitätsstraße",
               "short_name" : "Universitätsstraße",
               "types" : [ "route" ]
            },
            {
               "long_name" : "Stadtbezirk 3",
               "short_name" : "Stadtbezirk 3",
               "types" : [ "political", "sublocality", "sublocality_level_1" ]
            },
            {
               "long_name" : "Düsseldorf",
               "short_name" : "Düsseldorf",
               "types" : [ "locality", "political" ]
            },
            {
               "long_name" : "Düsseldorf",
               "short_name" : "Düsseldorf",
               "types" : [ "administrative_area_level_2", "political" ]
            },
            {
               "long_name" : "Nordrhein-Westfalen",
               "short_name" : "NRW",
               "types" : [ "administrative_area_level_1", "political" ]
            },
            {
               "long_name" : "Germany",
               "short_name" : "DE",
               "types" : [ "country", "political" ]
            },
            {
               "long_name" : "40225",
               "short_name" : "40225",
               "types" : [ "postal_code" ]
            }
         ],
         "formatted_address" : "Oeconomicum, Universitätsstraße, 40225 Düsseldorf, Germany",
         "geometry" : {
            "bounds" : {
               "northeast" : {
                  "lat" : 51.18903050000001,
                  "lng" : 6.7943037
               },
               "southwest" : {
                  "lat" : 51.1887279,
                  "lng" : 6.792807
               }
            },
            "location" : {
               "lat" : 51.1889724,
               "lng" : 6.793557799999999
            },
            "location_type" : "ROOFTOP",
            "viewport" : {
               "northeast" : {
                  "lat" : 51.1902281802915,
                  "lng" : 6.794904330291502
               },
               "southwest" : {
                  "lat" : 51.1875302197085,
                  "lng" : 6.792206369708497
               }
            }
         },
         "place_id" : "ChIJFw_bMf7KuEcRONGPFrTuqmQ",
         "types" : [ "premise" ]
      },
      {
         "address_components" : [
            {
               "long_name" : "2",
               "short_name" : "2",
               "types" : [ "street_number" ]
            },
            {
               "long_name" : "Universitätsstraße",
               "short_name" : "Universitätsstraße",
               "types" : [ "route" ]
            },
            {
               "long_name" : "Stadtbezirk 3",
               "short_name" : "Stadtbezirk 3",
               "types" : [ "political", "sublocality", "sublocality_level_1" ]
            },
            {
               "long_name" : "Düsseldorf",
               "short_name" : "Düsseldorf",
               "types" : [ "locality", "political" ]
            },
            {
               "long_name" : "Düsseldorf",
               "short_name" : "Düsseldorf",
               "types" : [ "administrative_area_level_2", "political" ]
            },
            {
               "long_name" : "Nordrhein-Westfalen",
               "short_name" : "NRW",
               "types" : [ "administrative_area_level_1", "political" ]
            },
            {
               "long_name" : "Germany",
               "short_name" : "DE",
               "types" : [ "country", "political" ]
            },
            {
               "long_name" : "40225",
               "short_name" : "40225",
               "types" : [ "postal_code" ]
            }
         ],
         "formatted_address" : "Universitätsstraße 2, 40225 Düsseldorf, Germany",
         "geometry" : {
            "location" : {
               "lat" : 51.1895939,
               "lng" : 6.795563599999999
            },
            "location_type" : "ROOFTOP",
            "viewport" : {
               "northeast" : {
                  "lat" : 51.19094288029149,
                  "lng" : 6.796912580291502
               },
               "southwest" : {
                  "lat" : 51.1882449197085,
                  "lng" : 6.794214619708498
               }
            }
         },
         "place_id" : "ChIJ_d6PMQDLuEcRAjrX3bPw190",
         "plus_code" : {
            "compound_code" : "5QQW+R6 Düsseldorf, Germany",
            "global_code" : "9F385QQW+R6"
         },
         "types" : [ "street_address" ]
      },
      {
         "address_components" : [
            {
               "long_name" : "2",
               "short_name" : "2",
               "types" : [ "street_number" ]
            },
            {
               "long_name" : "Universitätsstraße",
               "short_name" : "Universitätsstraße",
               "types" : [ "route" ]
            },
            {
               "long_name" : "Stadtbezirk 3",
               "short_name" : "Stadtbezirk 3",
               "types" : [ "political", "sublocality", "sublocality_level_1" ]
            },
            {
               "long_name" : "Düsseldorf",
               "short_name" : "Düsseldorf",
               "types" : [ "locality", "political" ]
            },
            {
               "long_name" : "Germany",
               "short_name" : "DE",
               "types" : [ "country", "political" ]
            },
            {
               "long_name" : "40225",
               "short_name" : "40225",
               "types" : [ "postal_code" ]
            }
         ],
         "formatted_address" : "Universitätsstraße 2, 40225 Düsseldorf, Germany",
         "geometry" : {
            "location" : {
               "lat" : 51.1888609,
               "lng" : 6.794126899999999
            },
            "location_type" : "RANGE_INTERPOLATED",
            "viewport" : {
               "northeast" : {
                  "lat" : 51.1902098802915,
                  "lng" : 6.795475880291502
               },
               "southwest" : {
                  "lat" : 51.18751191970851,
                  "lng" : 6.792777919708497
               }
            }
         },
         "place_id" : "EjZVbml2ZXJzaXTDpHRzc3RyYcOfZSAyLCA0MDIyNSBEw7xzc2VsZG9yZiwgRGV1dHNjaGxhbmQiGhIYChQKEgkX1z0u_sq4RxFWM8fcmFHUdRAC",
         "types" : [ "street_address" ]
      },
      {
         "address_components" : [
            {
               "long_name" : "40225",
               "short_name" : "40225",
               "types" : [ "postal_code" ]
            },
            {
               "long_name" : "District 3",
               "short_name" : "District 3",
               "types" : [ "political", "sublocality", "sublocality_level_1" ]
            },
            {
               "long_name" : "Düsseldorf",
               "short_name" : "Düsseldorf",
               "types" : [ "locality", "political" ]
            },
            {
               "long_name" : "Düsseldorf",
               "short_name" : "Düsseldorf",
               "types" : [ "administrative_area_level_2", "political" ]
            },
            {
               "long_name" : "North Rhine-Westphalia",
               "short_name" : "NRW",
               "types" : [ "administrative_area_level_1", "political" ]
            },
            {
               "long_name" : "Germany",
               "short_name" : "DE",
               "types" : [ "country", "political" ]
            }
         ],
         "formatted_address" : "40225 Düsseldorf, Germany",
         "geometry" : {
            "bounds" : {
               "northeast" : {
                  "lat" : 51.20919800000001,
                  "lng" : 6.807941899999999
               },
               "southwest" : {
                  "lat" : 51.17991300000001,
                  "lng" : 6.772607
               }
            },
            "location" : {
               "lat" : 51.19743750000001,
               "lng" : 6.7898817
            },
            "location_type" : "APPROXIMATE",
            "viewport" : {
               "northeast" : {
                  "lat" : 51.20919800000001,
                  "lng" : 6.807941899999999
               },
               "southwest" : {
                  "lat" : 51.17991300000001,
                  "lng" : 6.772607
               }
            }
         },
         "place_id" : "ChIJ1_LZAVXKuEcRAIElq_9gJxw",
         "types" : [ "postal_code" ]
      },
      {
         "address_components" : [
            {
               "long_name" : "Düsseldorf-Bilk",
               "short_name" : "Düsseldorf-Bilk",
               "types" : [ "political", "sublocality", "sublocality_level_2" ]
            },
            {
               "long_name" : "District 3",
               "short_name" : "District 3",
               "types" : [ "political", "sublocality", "sublocality_level_1" ]
            },
            {
               "long_name" : "Düsseldorf",
               "short_name" : "Düsseldorf",
               "types" : [ "locality", "political" ]
            },
            {
               "long_name" : "Rhein-Kreis Neuss",
               "short_name" : "Rhein-Kreis Neuss",
               "types" : [ "administrative_area_level_3", "political" ]
            },
            {
               "long_name" : "Düsseldorf",
               "short_name" : "Düsseldorf",
               "types" : [ "administrative_area_level_2", "political" ]
            },
            {
               "long_name" : "North Rhine-Westphalia",
               "short_name" : "NRW",
               "types" : [ "administrative_area_level_1", "political" ]
            },
            {
               "long_name" : "Germany",
               "short_name" : "DE",
               "types" : [ "country", "political" ]
            }
         ],
         "formatted_address" : "Düsseldorf-Bilk, Düsseldorf, Germany",
         "geometry" : {
            "bounds" : {
               "northeast" : {
                  "lat" : 51.211178,
                  "lng" : 6.8159779
               },
               "southwest" : {
                  "lat" : 51.1806438,
                  "lng" : 6.7532811
               }
            },
            "location" : {
               "lat" : 51.2005972,
               "lng" : 6.7807214
            },
            "location_type" : "APPROXIMATE",
            "viewport" : {
               "northeast" : {
                  "lat" : 51.211178,
                  "lng" : 6.8159779
               },
               "southwest" : {
                  "lat" : 51.1806438,
                  "lng" : 6.7532811
               }
            }
         },
         "place_id" : "ChIJbTAoc1nKuEcR0MEtSvxgJwU",
         "types" : [ "political", "sublocality", "sublocality_level_2" ]
      },
      {
         "address_components" : [
            {
               "long_name" : "District 3",
               "short_name" : "District 3",
               "types" : [ "political", "sublocality", "sublocality_level_1" ]
            },
            {
               "long_name" : "Düsseldorf",
               "short_name" : "Düsseldorf",
               "types" : [ "locality", "political" ]
            },
            {
               "long_name" : "Rhein-Kreis Neuss",
               "short_name" : "Rhein-Kreis Neuss",
               "types" : [ "administrative_area_level_3", "political" ]
            },
            {
               "long_name" : "Düsseldorf",
               "short_name" : "Düsseldorf",
               "types" : [ "administrative_area_level_2", "political" ]
            },
            {
               "long_name" : "North Rhine-Westphalia",
               "short_name" : "NRW",
               "types" : [ "administrative_area_level_1", "political" ]
            },
            {
               "long_name" : "Germany",
               "short_name" : "DE",
               "types" : [ "country", "political" ]
            }
         ],
         "formatted_address" : "District 3, Düsseldorf, Germany",
         "geometry" : {
            "bounds" : {
               "northeast" : {
                  "lat" : 51.2288668,
                  "lng" : 6.8238409
               },
               "southwest" : {
                  "lat" : 51.1803569,
                  "lng" : 6.723011000000001
               }
            },
            "location" : {
               "lat" : 51.2045125,
               "lng" : 6.758507
            },
            "location_type" : "APPROXIMATE",
            "viewport" : {
               "northeast" : {
                  "lat" : 51.2288668,
                  "lng" : 6.8238409
               },
               "southwest" : {
                  "lat" : 51.1803569,
                  "lng" : 6.723011000000001
               }
            }
         },
         "place_id" : "ChIJhwZWx0LKuEcR63LKHRdrg5k",
         "types" : [ "political", "sublocality", "sublocality_level_1" ]
      },
      {
         "address_components" : [
            {
               "long_name" : "Düsseldorf",
               "short_name" : "Düsseldorf",
               "types" : [ "locality", "political" ]
            },
            {
               "long_name" : "Düsseldorf",
               "short_name" : "Düsseldorf",
               "types" : [ "administrative_area_level_2", "political" ]
            },
            {
               "long_name" : "North Rhine-Westphalia",
               "short_name" : "NRW",
               "types" : [ "administrative_area_level_1", "political" ]
            },
            {
               "long_name" : "Germany",
               "short_name" : "DE",
               "types" : [ "country", "political" ]
            }
         ],
         "formatted_address" : "Düsseldorf, Germany",
         "geometry" : {
            "bounds" : {
               "northeast" : {
                  "lat" : 51.35253429999999,
                  "lng" : 6.9399387
               },
               "southwest" : {
                  "lat" : 51.1243752,
                  "lng" : 6.6887617
               }
            },
            "location" : {
               "lat" : 51.2277411,
               "lng" : 6.7734556
            },
            "location_type" : "APPROXIMATE",
            "viewport" : {
               "northeast" : {
                  "lat" : 51.35253429999999,
                  "lng" : 6.9399387
               },
               "southwest" : {
                  "lat" : 51.1243752,
                  "lng" : 6.6887617
               }
            }
         },
         "place_id" : "ChIJB1lG8XvJuEcRsHMqSvxgJwQ",
         "types" : [ "locality", "political" ]
      },
      {
         "address_components" : [
            {
               "long_name" : "Düsseldorf",
               "short_name" : "Düsseldorf",
               "types" : [ "administrative_area_level_2", "political" ]
            },
            {
               "long_name" : "North Rhine-Westphalia",
               "short_name" : "NRW",
               "types" : [ "administrative_area_level_1", "political" ]
            },
            {
               "long_name" : "Germany",
               "short_name" : "DE",
               "types" : [ "country", "political" ]
            }
         ],
         "formatted_address" : "Düsseldorf, Germany",
         "geometry" : {
            "bounds" : {
               "northeast" : {
                  "lat" : 51.9052111,
                  "lng" : 7.3134358
               },
               "southwest" : {
                  "lat" : 51.0150091,
                  "lng" : 5.945045299999999
               }
            },
            "location" : {
               "lat" : 51.3313247,
               "lng" : 6.563787
            },
            "location_type" : "APPROXIMATE",
            "viewport" : {
               "northeast" : {
                  "lat" : 51.9052111,
                  "lng" : 7.3134358
               },
               "southwest" : {
                  "lat" : 51.0150091,
                  "lng" : 5.945045299999999
               }
            }
         },
         "place_id" : "ChIJWxG4khu9uEcRhe5D5OWJCts",
         "types" : [ "administrative_area_level_2", "political" ]
      },
      {
         "address_components" : [
            {
               "long_name" : "North Rhine-Westphalia",
               "short_name" : "North Rhine-Westphalia",
               "types" : [ "administrative_area_level_1", "political" ]
            },
            {
               "long_name" : "Germany",
               "short_name" : "DE",
               "types" : [ "country", "political" ]
            }
         ],
         "formatted_address" : "North Rhine-Westphalia, Germany",
         "geometry" : {
            "bounds" : {
               "northeast" : {
                  "lat" : 52.53146959999999,
                  "lng" : 9.461634900000002
               },
               "southwest" : {
                  "lat" : 50.322701,
                  "lng" : 5.8663425
               }
            },
            "location" : {
               "lat" : 51.43323669999999,
               "lng" : 7.661593799999999
            },
            "location_type" : "APPROXIMATE",
            "viewport" : {
               "northeast" : {
                  "lat" : 52.53146959999999,
                  "lng" : 9.461634900000002
               },
               "southwest" : {
                  "lat" : 50.322701,
                  "lng" : 5.8663425
               }
            }
         },
         "place_id" : "ChIJoUhCjnwWuUcRX4_XT34yTC8",
         "types" : [ "administrative_area_level_1", "political" ]
      },
      {
         "address_components" : [
            {
               "long_name" : "Germany",
               "short_name" : "DE",
               "types" : [ "country", "political" ]
            }
         ],
         "formatted_address" : "Germany",
         "geometry" : {
            "bounds" : {
               "northeast" : {
                  "lat" : 55.0815,
                  "lng" : 15.0418962
               },
               "southwest" : {
                  "lat" : 47.2701115,
                  "lng" : 5.8663425
               }
            },
            "location" : {
               "lat" : 51.165691,
               "lng" : 10.451526
            },
            "location_type" : "APPROXIMATE",
            "viewport" : {
               "northeast" : {
                  "lat" : 55.0815,
                  "lng" : 15.0418962
               },
               "southwest" : {
                  "lat" : 47.2701115,
                  "lng" : 5.8663425
               }
            }
         },
         "place_id" : "ChIJa76xwh5ymkcRW-WRjmtd6HU",
         "types" : [ "country", "political" ]
      }
   ],
   "status" : "OK"
}
