{
   "plus_code" : {
      "compound_code" : "4QRJ+2H Gaithersburg, MD, USA",
      "global_code" : "87F44QRJ+2H"
   },
   "results" : [
      {
         "address_components" : [
            {
               "long_name" : "100",
               "short_name" : "100",
               "types" : [ "street_number" ]
            },
            {
               "long_name" : "Bureau Drive",
               "short_name" : "Bureau Dr",
               "types" : [ "route" ]
            },
            {
               "long_name" : "Gaithersburg",
               "short_name" : "Gaithersburg",
               "types" : [ "locality", "political" ]
            },
            {
               "long_name" : "9",
               "short_name" : "9",
               "types" : [ "administrative_area_level_3", "political" ]
            },
            {
               "long_name" : "Montgomery County",
               "short_name" : "Montgomery County",
               "types" : [ "administrative_area_level_2", "political" ]
            },
            {
               "long_name" : "Maryland",
               "short_name" : "MD",
               "types" : [ "administrative_area_level_1", "political" ]
            },
            {
               "long_name" : "United States",
               "short_name" : "US",
               "types" : [ "country", "political" ]
            },
            {
               "long_name" : "20899",
               "short_name" : "20899",
               "types" : [ "postal_code" ]
            }
         ],
         "formatted_address" : "100 Bureau Dr, Gaithersburg, MD 20899, USA",
         "geometry" : {
            "location" : {
               "lat" : 39.14004,
               "lng" : -77.21850599999999
            },
            "location_type" : "ROOFTOP",
            "viewport" : {
               "northeast" : {
                  "lat" : 39.1413889802915,
                  "lng" : -77.21715701970848
               },
               "southwest" : {
                  "lat" : 39.1386910197085,
                  "lng" : -77.2198549802915
               }
            }
         },
         "place_id" : "ChIJ5ctx5BcttokRgvtl68CUwhM",
         "plus_code" : {
            "compound_code" : "4QRJ+2H Gaithersburg, 9, MD, United States",
            "global_code" : "87F44QRJ+2H"
         },
         "types" : [ "establishment", "point_of_interest" ]
      },
      {
         "address_components" : [
            {
               "long_name" : "100",
               "short_name" : "100",
               "types" : [ "street_number" ]
            },
            {
               "long_name" : "Bureau Drive",
               "short_name" : "Bureau Dr",
               "types" : [ "route" ]
            },
            {
               "long_name" : "Gaithersburg",
               "short_name" : "Gaithersburg",
               "types" : [ "locality", "political" ]
            },
            {
               "long_name" : "9",
               "short_name" : "9",
               "types" : [ "administrative_area_level_3", "political" ]
            },
            {
               "long_name" : "Montgomery County",
               "short_name" : "Montgomery County",
               "types" : [ "administrative_area_level_2", "political" ]
            },
            {
               "long_name" : "Maryland",
               "short_name" : "MD",
               "types" : [ "administrative_area_level_1", "political" ]
            },
            {
               "long_name" : "United States",
               "short_name" : "US",
               "types" : [ "country", "political" ]
            },
            {
               "long_name" : "20899",
               "short_name" : "20899",
               "types" : [ "postal_code" ]
            },
            {
               "long_name" : "8546",
               "short_name" : "8546",
               "types" : [ "postal_code_suffix" ]
            }
         ],
         "formatted_address" : "100 Bureau Dr, Gaithersburg, MD 20899, USA",
         "geometry" : {
            "location" : {
               "lat" : 39.1401495,
               "lng" : -77.2185016
            },
            "location_type" : "ROOFTOP",
            "viewport" : {
               "northeast" : {
                  "lat" : 39.1414984802915,
                  "lng" : -77.21715261970849
               },
               "southwest" : {
                  "lat" : 39.1388005197085,
                  "lng" : -77.21985058029151
               }
            }
         },
         "place_id" : "ChIJFzYZYiIttokRUzyKGILEFZ4",
         "plus_code" : {
            "compound_code" : "4QRJ+3H Gaithersburg, 9, MD, United States",
            "global_code" : "87F44QRJ+3H"
         },
         "types" : [ "street_address" ]
      },
      {
         "address_components" : [
            {
               "long_name" : "Bureau Drive",
               "short_name" : "Bureau Dr",
               "types" : [ "route" ]
            },
            {
               "long_name" : "Gaithersburg",
               "short_name" : "Gaithersburg",
               "types" : [ "locality", "political" ]
            },
            {
               "long_name" : "9",
               "short_name" : "9",
               "types" : [ "administrative_area_level_3", "political" ]
            },
            {
               "long_name" : "Montgomery County",
               "short_name" : "Montgomery County",
               "types" : [ "administrative_area_level_2", "political" ]
            },
            {
               "long_name" : "Maryland",
               "short_name" : "MD",
               "types" : [ "administrative_area_level_1", "political" ]
            },
            {
               "long_name" : "United States",
               "short_name" : "US",
               "types" : [ "country", "political" ]
            },
            {
               "long_name" : "20899",
               "short_name" : "20899",
               "types" : [ "postal_code" ]
            }
         ],
         "formatted_address" : "Bureau Dr, Gaithersburg, MD 20899, USA",
         "geometry" : {
            "bounds" : {
               "northeast" : {
                  "lat" : 39.1403171,
                  "lng" : -77.21834079999999
               },
               "southwest" : {
                  "lat" : 39.1398471,
                  "lng" : -77.2183551
               }
            },
            "location" : {
               "lat" : 39.1400821,
               "lng" : -77.21834799999999
            },
            "location_type" : "GEOMETRIC_CENTER",
            "viewport" : {
               "northeast" : {
                  "lat" : 39.1414310802915,
                  "lng" : -77.21699896970848
               },
               "southwest" : {
                  "lat" : 39.1387331197085,
                  "lng" : -77.21969693029149
               }
            }
         },
         "place_id" : "ChIJewySzxcttokRsLFlmFaKXXM",
         "types" : [ "route" ]
      },
      {
         "address_components" : [
            {
               "long_name" : "20878",
               "short_name" : "20878",
               "types" : [ "postal_code" ]
            },
            {
               "long_name" : "NO POTOMAC",
               "short_name" : "NO POTOMAC",
               "types" : [ "locality", "political" ]
            },
            {
               "long_name" : "Montgomery County",
               "short_name" : "Montgomery County",
               "types" : [ "administrative_area_level_2", "political" ]
            },
            {
               "long_name" : "Maryland",
               "short_name" : "MD",
               "types" : [ "administrative_area_level_1", "political" ]
            },
            {
               "long_name" : "United States",
               "short_name" : "US",
               "types" : [ "country", "political" ]
            }
         ],
         "formatted_address" : "NO POTOMAC, MD 20878, USA",
         "geometry" : {
            "bounds" : {
               "northeast" : {
                  "lat" : 39.16113989999999,
                  "lng" : -77.18617990000001
               },
               "southwest" : {
                  "lat" : 39.0607599,
                  "lng" : -77.30285599999999
               }
            },
            "location" : {
               "lat" : 39.10480320000001,
               "lng" : -77.25201009999999
            },
            "location_type" : "APPROXIMATE",
            "viewport" : {
               "northeast" : {
                  "lat" : 39.16113989999999,
                  "lng" : -77.18617990000001
               },
               "southwest" : {
                  "lat" : 39.0607599,
                  "lng" : -77.30285599999999
               }
            }
         },
         "place_id" : "ChIJdV_oeocttokRS9S_f0Pslts",
         "postcode_localities" : [ "Darnestown", "Gaithersburg", "NO POTOMAC", "North Potomac" ],
         "types" : [ "postal_code" ]
      },
      {
         "address_components" : [
            {
               "long_name" : "9",
               "short_name" : "9",
               "types" : [ "administrative_area_level_3", "political" ]
            },
            {
               "long_name" : "Montgomery County",
               "short_name" : "Montgomery County",
               "types" : [ "administrative_area_level_2", "political" ]
            },
            {
               "long_name" : "Maryland",
               "short_name" : "MD",
               "types" : [ "administrative_area_level_1", "political" ]
            },
            {
               "long_name" : "United States",
               "short_name" : "US",
               "types" : [ "country", "political" ]
            }
         ],
         "formatted_address" : "9, MD, USA",
         "geometry" : {
            "bounds" : {
               "northeast" : {
                  "lat" : 39.2101629,
                  "lng" : -77.1435539
               },
               "southwest" : {
                  "lat" : 39.0930899,
                  "lng" : -77.2814169
               }
            },
            "location" : {
               "lat" : 39.1726641,
               "lng" : -77.2175223
            },
            "location_type" : "APPROXIMATE",
            "viewport" : {
               "northeast" : {
                  "lat" : 39.2101629,
                  "lng" : -77.1435539
               },
               "southwest" : {
                  "lat" : 39.0930899,
                  "lng" : -77.2814169
               }
            }
         },
         "place_id" : "ChIJeQ-4U-kstokR6TY3BD_UWu8",
         "types" : [ "administrative_area_level_3", "political" ]
      },
      {
         "address_components" : [
            {
               "long_name" : "Montgomery County",
               "short_name" : "Montgomery County",
               "types" : [ "administrative_area_level_2", "political" ]
            },
            {
               "long_name" : "Maryland",
               "short_name" : "MD",
               "types" : [ "administrative_area_level_1", "political" ]
            },
            {
               "long_name" : "United States",
               "short_name" : "US",
               "types" : [ "country", "political" ]
            }
         ],
         "formatted_address" : "Montgomery County, MD, USA",
         "geometry" : {
            "bounds" : {
               "northeast" : {
                  "lat" : 39.3535021,
                  "lng" : -76.8885051
               },
               "southwest" : {
                  "lat" : 38.934343,
                  "lng" : -77.52768499999999
               }
            },
            "location" : {
               "lat" : 39.1547426,
               "lng" : -77.2405153
            },
            "location_type" : "APPROXIMATE",
            "viewport" : {
               "northeast" : {
                  "lat" : 39.3535021,
                  "lng" : -76.8885051
               },
               "southwest" : {
                  "lat" : 38.934343,
                  "lng" : -77.52768499999999
               }
            }
         },
         "place_id" : "ChIJh6O4gzUytokRc2ipdwYZC3g",
         "types" : [ "administrative_area_level_2", "political" ]
      },
      {
         "address_components" : [
            {
               "long_name" : "Maryland",
               "short_name" : "Maryland",
               "types" : [ "administrative_area_level_1", "political" ]
            },
            {
               "long_name" : "United States",
               "short_name" : "US",
               "types" : [ "country", "political" ]
            }
         ],
         "formatted_address" : "Maryland, USA",
         "geometry" : {
            "bounds" : {
               "northeast" : {
                  "lat" : 39.723037,
                  "lng" : -74.98628189999999
               },
               "southwest" : {
                  "lat" : 37.8866049,
                  "lng" : -79.48765109999999
               }
            },
            "location" : {
               "lat" : 39.0457549,
               "lng" : -76.64127119999999
            },
            "location_type" : "APPROXIMATE",
            "viewport" : {
               "northeast" : {
                  "lat" : 39.723037,
                  "lng" : -74.98628189999999
               },
               "southwest" : {
                  "lat" : 37.8866049,
                  "lng" : -79.48765109999999
               }
            }
         },
         "place_id" : "ChIJ35Dx6etNtokRsfZVdmU3r_I",
         "types" : [ "administrative_area_level_1", "political" ]
      },
      {
         "address_components" : [
            {
               "long_name" : "United States",
               "short_name" : "US",
               "types" : [ "country", "political" ]
            }
         ],
         "formatted_address" : "United States",
         "geometry" : {
            "bounds" : {
               "northeast" : {
                  "lat" : 71.5388001,
                  "lng" : -66.885417
               },
               "southwest" : {
                  "lat" : 18.7763,
                  "lng" : 170.5957
               }
            },
            "location" : {
               "lat" : 37.09024,
               "lng" : -95.712891
            },
            "location_type" : "APPROXIMATE",
            "viewport" : {
               "northeast" : {
                  "lat" : 71.5388001,
                  "lng" : -66.885417
               },
               "southwest" : {
                  "lat" : 18.7763,
                  "lng" : 170.5957
               }
            }
         },
         "place_id" : "ChIJCzYy5IS16lQRQrfeQ5K5Oxw",
         "types" : [ "country", "political" ]
      }
   ],
   "status" : "OK"
}
