{
   "plus_code" : {
      "compound_code" : "9W64+28 Cambridge, MA, USA",
      "global_code" : "87JC9W64+28"
   },
   "results" : [
      {
         "address_components" : [
            {
               "long_name" : "Cambridge",
               "short_name" : "Cambridge",
               "types" : [ "locality", "political" ]
            },
            {
               "long_name" : "Massachusetts",
               "short_name" : "MA",
               "types" : [ "administrative_area_level_1", "political" ]
            },
            {
               "long_name" : "United States",
               "short_name" : "US",
               "types" : [ "country", "political" ]
            },
            {
               "long_name" : "02139",
               "short_name" : "02139",
               "types" : [ "postal_code" ]
            }
         ],
         "formatted_address" : "MIT History Department, Cambridge, MA 02139, United States",
         "geometry" : {
            "location" : {
               "lat" : 42.360091,
               "lng" : -71.09416
            },
            "location_type" : "GEOMETRIC_CENTER",
            "viewport" : {
               "northeast" : {
                  "lat" : 42.36143998029149,
                  "lng" : -71.09281101970849
               },
               "southwest" : {
                  "lat" : 42.35874201970849,
                  "lng" : -71.09550898029151
               }
            }
         },
         "place_id" : "ChIJO7WqWapw44kRawCjRBrp95k",
         "plus_code" : {
            "compound_code" : "9W64+28 Cambridge, Massachusetts, United States",
            "global_code" : "87JC9W64+28"
         },
         "types" : [ "establishment", "point_of_interest" ]
      },
      {
         "address_components" : [
            {
               "long_name" : "123",
               "short_name" : "123",
               "types" : [ "street_number" ]
            },
            {
               "long_name" : "Massachusetts Avenue",
               "short_name" : "Massachusetts Ave",
               "types" : [ "route" ]
            },
            {
               "long_name" : "Area 2/MIT",
               "short_name" : "Area 2/MIT",
               "types" : [ "neighborhood", "political" ]
            },
            {
               "long_name" : "Cambridge",
               "short_name" : "Cambridge",
               "types" : [ "locality", "political" ]
            },
            {
               "long_name" : "Middlesex County",
               "short_name" : "Middlesex County",
               "types" : [ "administrative_area_level_2", "political" ]
            },
            {
               "long_name" : "Massachusetts",
               "short_name" : "MA",
               "types" : [ "administrative_area_level_1", "political" ]
            },
            {
               "long_name" : "United States",
               "short_name" : "US",
               "types" : [ "country", "political" ]
            },
            {
               "long_name" : "02142",
               "short_name" : "02142",
               "types" : [ "postal_code" ]
            }
         ],
         "formatted_address" : "123 Massachusetts Ave, Cambridge, MA 02142, USA",
         "geometry" : {
            "location" : {
               "lat" : 42.3602373,
               "lng" : -71.0942029
            },
            "location_type" : "ROOFTOP",
            "viewport" : {
               "northeast" : {
                  "lat" : 42.3615862802915,
                  "lng" : -71.09285391970849
               },
               "southwest" : {
                  "lat" : 42.3588883197085,
                  "lng" : -71.09555188029151
               }
            }
         },
         "place_id" : "ChIJaf-HV6pw44kRu1I2wbMIxrY",
         "plus_code" : {
            "compound_code" : "9W64+38 Cambridge, Massachusetts, United States",
            "global_code" : "87JC9W64+38"
         },
         "types" : [ "street_address" ]
      },
      {
         "address_components" : [
            {
               "long_name" : "96",
               "short_name" : "96",
               "types" : [ "street_number" ]
            },
            {
               "long_name" : "Massachusetts Avenue",
               "short_name" : "Massachusetts Avenue",
               "types" : [ "route" ]
            },
            {
               "long_name" : "Cambridge",
               "short_name" : "Cambridge",
               "types" : [ "locality", "political" ]
            },
            {
               "long_name" : "Massachusetts",
               "short_name" : "MA",
               "types" : [ "administrative_area_level_1", "political" ]
            },
            {
               "long_name" : "United States",
               "short_name" : "US",
               "types" : [ "country", "political" ]
            },
            {
               "long_name" : "02139",
               "short_name" : "02139",
               "types" : [ "postal_code" ]
            }
         ],
         "formatted_address" : "96 Massachusetts Avenue, Cambridge, MA 02139, USA",
         "geometry" : {
            "location" : {
               "lat" : 42.3598501,
               "lng" : -71.094431
            },
            "location_type" : "RANGE_INTERPOLATED",
            "viewport" : {
               "northeast" : {
                  "lat" : 42.36119908029149,
                  "lng" : -71.0930820197085
               },
               "southwest" : {
                  "lat" : 42.35850111970849,
                  "lng" : -71.09577998029151
               }
            }
         },
         "place_id" : "EjE5NiBNYXNzYWNodXNldHRzIEF2ZW51ZSwgQ2FtYnJpZGdlLCBNQSAwMjEzOSwgVVNBIhoSGAoUChIJi5y09apw44kRebiWlUZ0oeYQYA",
         "types" : [ "street_address" ]
      },
      {
         "address_components" : [
            {
               "long_name" : "Area 2/MIT",
               "short_name" : "Area 2/MIT",
               "types" : [ "neighborhood", "political" ]
            },
            {
               "long_name" : "Cambridge",
               "short_name" : "Cambridge",
               "types" : [ "locality", "political" ]
            },
            {
               "long_name" : "Middlesex County",
               "short_name" : "Middlesex County",
               "types" : [ "administrative_area_level_2", "political" ]
            },
            {
               "long_name" : "Massachusetts",
               "short_name" : "MA",
               "types" : [ "administrative_area_level_1", "political" ]
            },
            {
               "long_name" : "United States",
               "short_name" : "US",
               "types" : [ "country", "political" ]
            },
            {
               "long_name" : "02142",
               "short_name" : "02142",
               "types" : [ "postal_code" ]
            }
         ],
         "formatted_address" : "Area 2/MIT, Cambridge, MA 02142, USA",
         "geometry" : {
            "bounds" : {
               "northeast" : {
                  "lat" : 42.364897,
                  "lng" : -71.075795
               },
               "southwest" : {
                  "lat" : 42.3523971,
                  "lng" : -71.11069599999999
               }
            },
            "location" : {
               "lat" : 42.35704390000001,
               "lng" : -71.0928603
            },
            "location_type" : "APPROXIMATE",
            "viewport" : {
               "northeast" : {
                  "lat" : 42.364897,
                  "lng" : -71.075795
               },
               "southwest" : {
                  "lat" : 42.3523971,
                  "lng" : -71.11069599999999
               }
            }
         },
         "place_id" : "ChIJ9SRZcapw44kRiBW_a5dU0T8",
         "types" : [ "neighborhood", "political" ]
      },
      {
         "address_components" : [
            {
               "long_name" : "02142",
               "short_name" : "02142",
               "types" : [ "postal_code" ]
            },
            {
               "long_name" : "Cambridge",
               "short_name" : "Cambridge",
               "types" : [ "locality", "political" ]
            },
            {
               "long_name" : "Middlesex County",
               "short_name" : "Middlesex County",
               "types" : [ "administrative_area_level_2", "political" ]
            },
            {
               "long_name" : "Massachusetts",
               "short_name" : "MA",
               "types" : [ "administrative_area_level_1", "political" ]
            },
            {
               "long_name" : "United States",
               "short_name" : "US",
               "types" : [ "country", "political" ]
            }
         ],
         "formatted_address" : "Cambridge, MA 02142, USA",
         "geometry" : {
            "bounds" : {
               "northeast" : {
                  "lat" : 42.36871800000001,
                  "lng" : -71.0716279
               },
               "southwest" : {
                  "lat" : 42.3542331,
                  "lng" : -71.09485189999999
               }
            },
            "location" : {
               "lat" : 42.3635847,
               "lng" : -71.08246129999999
            },
            "location_type" : "APPROXIMATE",
            "viewport" : {
               "northeast" : {
                  "lat" : 42.36871800000001,
                  "lng" : -71.0716279
               },
               "southwest" : {
                  "lat" : 42.3542331,
                  "lng" : -71.09485189999999
               }
            }
         },
         "place_id" : "ChIJJw7VsqVw44kRHxSOjZJDYu4",
         "types" : [ "postal_code" ]
      },
      {
         "address_components" : [
            {
               "long_name" : "Cambridge",
               "short_name" : "Cambridge",
               "types" : [ "locality", "political" ]
            },
            {
               "long_name" : "Middlesex County",
               "short_name" : "Middlesex County",
               "types" : [ "administrative_area_level_2", "political" ]
            },
            {
               "long_name" : "Massachusetts",
               "short_name" : "MA",
               "types" : [ "administrative_area_level_1", "political" ]
            },
            {
               "long_name" : "United States",
               "short_name" : "US",
               "types" : [ "country", "political" ]
            }
         ],
         "formatted_address" : "Cambridge, MA, USA",
         "geometry" : {
            "bounds" : {
               "northeast" : {
                  "lat" : 42.4043839,
                  "lng" : -71.06548719999999
               },
               "southwest" : {
                  "lat" : 42.3523968,
                  "lng" : -71.16033209999999
               }
            },
            "location" : {
               "lat" : 42.3736158,
               "lng" : -71.10973349999999
            },
            "location_type" : "APPROXIMATE",
            "viewport" : {
               "northeast" : {
                  "lat" : 42.4043839,
                  "lng" : -71.06548719999999
               },
               "southwest" : {
                  "lat" : 42.3523968,
                  "lng" : -71.16033209999999
               }
            }
         },
         "place_id" : "ChIJX8wwy6Vw44kRh2xoiWSOOsU",
         "types" : [ "locality", "political" ]
      },
      {
         "address_components" : [
            {
               "long_name" : "Middlesex County",
               "short_name" : "Middlesex County",
               "types" : [ "administrative_area_level_2", "political" ]
            },
            {
               "long_name" : "Massachusetts",
               "short_name" : "MA",
               "types" : [ "administrative_area_level_1", "political" ]
            },
            {
               "long_name" : "United States",
               "short_name" : "US",
               "types" : [ "country", "political" ]
            }
         ],
         "formatted_address" : "Middlesex County, MA, USA",
         "geometry" : {
            "bounds" : {
               "northeast" : {
                  "lat" : 42.736102,
                  "lng" : -71.020095
               },
               "southwest" : {
                  "lat" : 42.15669,
                  "lng" : -71.8987159
               }
            },
            "location" : {
               "lat" : 42.467206,
               "lng" : -71.2874209
            },
            "location_type" : "APPROXIMATE",
            "viewport" : {
               "northeast" : {
                  "lat" : 42.736102,
                  "lng" : -71.020095
               },
               "southwest" : {
                  "lat" : 42.15669,
                  "lng" : -71.8987159
               }
            }
         },
         "place_id" : "ChIJmQwtQe4L5IkRCLDyk1MVcOI",
         "types" : [ "administrative_area_level_2", "political" ]
      },
      {
         "address_components" : [
            {
               "long_name" : "Massachusetts",
               "short_name" : "Massachusetts",
               "types" : [ "administrative_area_level_1", "political" ]
            },
            {
               "long_name" : "United States",
               "short_name" : "US",
               "types" : [ "country", "political" ]
            }
         ],
         "formatted_address" : "Massachusetts, USA",
         "geometry" : {
            "bounds" : {
               "northeast" : {
                  "lat" : 42.88679,
                  "lng" : -69.85886099999999
               },
               "southwest" : {
                  "lat" : 41.18705300000001,
                  "lng" : -73.5081419
               }
            },
            "location" : {
               "lat" : 42.4072107,
               "lng" : -71.3824374
            },
            "location_type" : "APPROXIMATE",
            "viewport" : {
               "northeast" : {
                  "lat" : 42.88679,
                  "lng" : -69.85886099999999
               },
               "southwest" : {
                  "lat" : 41.18705300000001,
                  "lng" : -73.5081419
               }
            }
         },
         "place_id" : "ChIJ_b9z6W1l44kRHA2DVTbQxkU",
         "types" : [ "administrative_area_level_1", "political" ]
      },
      {
         "address_components" : [
            {
               "long_name" : "United States",
               "short_name" : "US",
               "types" : [ "country", "political" ]
            }
         ],
         "formatted_address" : "United States",
         "geometry" : {
            "bounds" : {
               "northeast" : {
                  "lat" : 71.5388001,
                  "lng" : -66.885417
               },
               "southwest" : {
                  "lat" : 18.7763,
                  "lng" : 170.5957
               }
            },
            "location" : {
               "lat" : 37.09024,
               "lng" : -95.712891
            },
            "location_type" : "APPROXIMATE",
            "viewport" : {
               "northeast" : {
                  "lat" : 71.5388001,
                  "lng" : -66.885417
               },
               "southwest" : {
                  "lat" : 18.7763,
                  "lng" : 170.5957
               }
            }
         },
         "place_id" : "ChIJCzYy5IS16lQRQrfeQ5K5Oxw",
         "types" : [ "country", "political" ]
      }
   ],
   "status" : "OK"
}
