{
   "results" : [
      {
         "address_components" : [
            {
               "long_name" : "210",
               "short_name" : "210",
               "types" : [ "street_number" ]
            },
            {
               "long_name" : "Universitetsparken",
               "short_name" : "Universitetsparken",
               "types" : [ "route" ]
            },
            {
               "long_name" : "Aarhus C",
               "short_name" : "Aarhus C",
               "types" : [ "political", "sublocality", "sublocality_level_1" ]
            },
            {
               "long_name" : "Aarhus",
               "short_name" : "Aarhus",
               "types" : [ "locality", "political" ]
            },
            {
               "long_name" : "Aarhus Municipality",
               "short_name" : "Aarhus Municipality",
               "types" : [ "administrative_area_level_2", "political" ]
            },
            {
               "long_name" : "Denmark",
               "short_name" : "DK",
               "types" : [ "country", "political" ]
            },
            {
               "long_name" : "8000",
               "short_name" : "8000",
               "types" : [ "postal_code" ]
            }
         ],
         "formatted_address" : "Universitetsparken 210, 8000 Aarhus, Denmark",
         "geometry" : {
            "location" : {
               "lat" : 56.167643,
               "lng" : 10.202842
            },
            "location_type" : "ROOFTOP",
            "viewport" : {
               "northeast" : {
                  "lat" : 56.16899198029149,
                  "lng" : 10.2041909802915
               },
               "southwest" : {
                  "lat" : 56.1662940197085,
                  "lng" : 10.2014930197085
               }
            }
         },
         "place_id" : "ChIJt85np8A_TEYRuVAy3WsvU70",
         "types" : [ "street_address" ]
      },
      {
         "address_components" : [
            {
               "long_name" : "Midtbyen",
               "short_name" : "Midtbyen",
               "types" : [ "political", "sublocality", "sublocality_level_2" ]
            },
            {
               "long_name" : "Aarhus C",
               "short_name" : "Aarhus C",
               "types" : [ "political", "sublocality", "sublocality_level_1" ]
            },
            {
               "long_name" : "Aarhus",
               "short_name" : "Aarhus",
               "types" : [ "locality", "political" ]
            },
            {
               "long_name" : "Aarhus Municipality",
               "short_name" : "Aarhus Municipality",
               "types" : [ "administrative_area_level_2", "political" ]
            },
            {
               "long_name" : "Central Denmark Region",
               "short_name" : "Central Denmark Region",
               "types" : [ "administrative_area_level_1", "political" ]
            },
            {
               "long_name" : "Denmark",
               "short_name" : "DK",
               "types" : [ "country", "political" ]
            }
         ],
         "formatted_address" : "Midtbyen, Aarhus, Denmark",
         "geometry" : {
            "bounds" : {
               "northeast" : {
                  "lat" : 56.1779969,
                  "lng" : 10.2504989
               },
               "southwest" : {
                  "lat" : 56.13262899999999,
                  "lng" : 10.1826027
               }
            },
            "location" : {
               "lat" : 56.1460465,
               "lng" : 10.2027261
            },
            "location_type" : "APPROXIMATE",
            "viewport" : {
               "northeast" : {
                  "lat" : 56.1779969,
                  "lng" : 10.2504989
               },
               "southwest" : {
                  "lat" : 56.13262899999999,
                  "lng" : 10.1826027
               }
            }
         },
         "place_id" : "ChIJS1IsTAKyTUYRt7K02b1YWmY",
         "types" : [ "political", "sublocality", "sublocality_level_2" ]
      },
      {
         "address_components" : [
            {
               "long_name" : "Aarhus C",
               "short_name" : "Aarhus C",
               "types" : [ "political", "sublocality", "sublocality_level_1" ]
            },
            {
               "long_name" : "Aarhus",
               "short_name" : "Aarhus",
               "types" : [ "locality", "political" ]
            },
            {
               "long_name" : "Aarhus Municipality",
               "short_name" : "Aarhus Municipality",
               "types" : [ "administrative_area_level_2", "political" ]
            },
            {
               "long_name" : "Central Denmark Region",
               "short_name" : "Central Denmark Region",
               "types" : [ "administrative_area_level_1", "political" ]
            },
            {
               "long_name" : "Denmark",
               "short_name" : "DK",
               "types" : [ "country", "political" ]
            },
            {
               "long_name" : "8000",
               "short_name" : "8000",
               "types" : [ "postal_code" ]
            }
         ],
         "formatted_address" : "Aarhus C, 8000 Aarhus, Denmark",
         "geometry" : {
            "bounds" : {
               "northeast" : {
                  "lat" : 56.17714059999999,
                  "lng" : 10.2554381
               },
               "southwest" : {
                  "lat" : 56.1185725,
                  "lng" : 10.1729961
               }
            },
            "location" : {
               "lat" : 56.1460465,
               "lng" : 10.2027261
            },
            "location_type" : "APPROXIMATE",
            "viewport" : {
               "northeast" : {
                  "lat" : 56.17714059999999,
                  "lng" : 10.2554381
               },
               "southwest" : {
                  "lat" : 56.1185725,
                  "lng" : 10.1729961
               }
            }
         },
         "place_id" : "ChIJV60d1BiyTUYRxqG_t4q2PJo",
         "types" : [ "political", "sublocality", "sublocality_level_1" ]
      },
      {
         "address_components" : [
            {
               "long_name" : "Aarhus",
               "short_name" : "Aarhus",
               "types" : [ "locality", "political" ]
            },
            {
               "long_name" : "Aarhus Municipality",
               "short_name" : "Aarhus Municipality",
               "types" : [ "administrative_area_level_2", "political" ]
            },
            {
               "long_name" : "Central Denmark Region",
               "short_name" : "Central Denmark Region",
               "types" : [ "administrative_area_level_1", "political" ]
            },
            {
               "long_name" : "Denmark",
               "short_name" : "DK",
               "types" : [ "country", "political" ]
            }
         ],
         "formatted_address" : "Aarhus, Denmark",
         "geometry" : {
            "bounds" : {
               "northeast" : {
                  "lat" : 56.23763539999999,
                  "lng" : 10.2554381
               },
               "southwest" : {
                  "lat" : 56.1185725,
                  "lng" : 10.1085108
               }
            },
            "location" : {
               "lat" : 56.162939,
               "lng" : 10.203921
            },
            "location_type" : "APPROXIMATE",
            "viewport" : {
               "northeast" : {
                  "lat" : 56.23763539999999,
                  "lng" : 10.2554381
               },
               "southwest" : {
                  "lat" : 56.1185725,
                  "lng" : 10.1085108
               }
            }
         },
         "place_id" : "ChIJi3iXU7FMTEYRr6IukdnXTYw",
         "types" : [ "locality", "political" ]
      },
      {
         "address_components" : [
            {
               "long_name" : "Århus C",
               "short_name" : "Århus C",
               "types" : [ "postal_town" ]
            },
            {
               "long_name" : "Aarhus C",
               "short_name" : "Aarhus C",
               "types" : [ "political", "sublocality", "sublocality_level_1" ]
            },
            {
               "long_name" : "Aarhus",
               "short_name" : "Aarhus",
               "types" : [ "locality", "political" ]
            },
            {
               "long_name" : "Denmark",
               "short_name" : "DK",
               "types" : [ "country", "political" ]
            },
            {
               "long_name" : "8000",
               "short_name" : "8000",
               "types" : [ "postal_code" ]
            }
         ],
         "formatted_address" : "Århus C, 8000 Aarhus C, Denmark",
         "geometry" : {
            "bounds" : {
               "northeast" : {
                  "lat" : 56.17714059999999,
                  "lng" : 10.2554381
               },
               "southwest" : {
                  "lat" : 56.1185725,
                  "lng" : 10.1729961
               }
            },
            "location" : {
               "lat" : 56.1460465,
               "lng" : 10.2027261
            },
            "location_type" : "APPROXIMATE",
            "viewport" : {
               "northeast" : {
                  "lat" : 56.17714059999999,
                  "lng" : 10.2554381
               },
               "southwest" : {
                  "lat" : 56.1185725,
                  "lng" : 10.1729961
               }
            }
         },
         "place_id" : "ChIJUeSyoIU_TEYRsKaejnLYKEM",
         "types" : [ "postal_town" ]
      },
      {
         "address_components" : [
            {
               "long_name" : "8000",
               "short_name" : "8000",
               "types" : [ "postal_code" ]
            },
            {
               "long_name" : "Aarhus C",
               "short_name" : "Aarhus C",
               "types" : [ "political", "sublocality", "sublocality_level_1" ]
            },
            {
               "long_name" : "Aarhus",
               "short_name" : "Aarhus",
               "types" : [ "locality", "political" ]
            },
            {
               "long_name" : "Denmark",
               "short_name" : "DK",
               "types" : [ "country", "political" ]
            }
         ],
         "formatted_address" : "8000 Aarhus C, Denmark",
         "geometry" : {
            "bounds" : {
               "northeast" : {
                  "lat" : 56.17714059999999,
                  "lng" : 10.2554381
               },
               "southwest" : {
                  "lat" : 56.1185725,
                  "lng" : 10.1729961
               }
            },
            "location" : {
               "lat" : 56.1460465,
               "lng" : 10.2027261
            },
            "location_type" : "APPROXIMATE",
            "viewport" : {
               "northeast" : {
                  "lat" : 56.17714059999999,
                  "lng" : 10.2554381
               },
               "southwest" : {
                  "lat" : 56.1185725,
                  "lng" : 10.1729961
               }
            }
         },
         "place_id" : "ChIJgwQ6NgKyTUYRYjpv7lf6XiE",
         "types" : [ "postal_code" ]
      },
      {
         "address_components" : [
            {
               "long_name" : "Aarhus Municipality",
               "short_name" : "Aarhus Municipality",
               "types" : [ "administrative_area_level_2", "political" ]
            },
            {
               "long_name" : "Central Denmark Region",
               "short_name" : "Central Denmark Region",
               "types" : [ "administrative_area_level_1", "political" ]
            },
            {
               "long_name" : "Denmark",
               "short_name" : "DK",
               "types" : [ "country", "political" ]
            }
         ],
         "formatted_address" : "Aarhus Municipality, Denmark",
         "geometry" : {
            "bounds" : {
               "northeast" : {
                  "lat" : 56.3303691,
                  "lng" : 10.389215
               },
               "southwest" : {
                  "lat" : 55.995576,
                  "lng" : 9.949063899999999
               }
            },
            "location" : {
               "lat" : 56.1683931,
               "lng" : 10.1373728
            },
            "location_type" : "APPROXIMATE",
            "viewport" : {
               "northeast" : {
                  "lat" : 56.3303691,
                  "lng" : 10.389215
               },
               "southwest" : {
                  "lat" : 55.995576,
                  "lng" : 9.949063899999999
               }
            }
         },
         "place_id" : "ChIJqdQeVLlMTEYRXbXPMBJmWA4",
         "types" : [ "administrative_area_level_2", "political" ]
      },
      {
         "address_components" : [
            {
               "long_name" : "Central Denmark Region",
               "short_name" : "Central Denmark Region",
               "types" : [ "administrative_area_level_1", "political" ]
            },
            {
               "long_name" : "Denmark",
               "short_name" : "DK",
               "types" : [ "country", "political" ]
            }
         ],
         "formatted_address" : "Central Denmark Region, Denmark",
         "geometry" : {
            "bounds" : {
               "northeast" : {
                  "lat" : 56.84671900000001,
                  "lng" : 11.6613
               },
               "southwest" : {
                  "lat" : 55.668859,
                  "lng" : 8.0970701
               }
            },
            "location" : {
               "lat" : 56.302139,
               "lng" : 9.302776999999999
            },
            "location_type" : "APPROXIMATE",
            "viewport" : {
               "northeast" : {
                  "lat" : 56.84671900000001,
                  "lng" : 11.6613
               },
               "southwest" : {
                  "lat" : 55.668859,
                  "lng" : 8.0970701
               }
            }
         },
         "place_id" : "ChIJdQCVe2YPTEYRMFSorMmvAAM",
         "types" : [ "administrative_area_level_1", "political" ]
      },
      {
         "address_components" : [
            {
               "long_name" : "Denmark",
               "short_name" : "DK",
               "types" : [ "country", "political" ]
            }
         ],
         "formatted_address" : "Denmark",
         "geometry" : {
            "bounds" : {
               "northeast" : {
                  "lat" : 58.02846,
                  "lng" : 15.2298
               },
               "southwest" : {
                  "lat" : 54.4317001,
                  "lng" : 7.855200099999999
               }
            },
            "location" : {
               "lat" : 56.26392,
               "lng" : 9.501785
            },
            "location_type" : "APPROXIMATE",
            "viewport" : {
               "northeast" : {
                  "lat" : 58.02846,
                  "lng" : 15.2298
               },
               "southwest" : {
                  "lat" : 54.4317001,
                  "lng" : 7.855200099999999
               }
            }
         },
         "place_id" : "ChIJ-1-U7rYnS0YRzZLgw9BDh1I",
         "types" : [ "country", "political" ]
      }
   ],
   "status" : "OK"
}
