{
   "plus_code" : {
      "compound_code" : "V6CC+74 Chennai, Tamil Nadu, India",
      "global_code" : "7M42V6CC+74"
   },
   "results" : [
      {
         "address_components" : [
            {
               "long_name" : "Jeppiar Nagar, Old Mamalapuram Road",
               "short_name" : "Jeppiar Nagar, Old Mamalapuram Road",
               "types" : [ "street_number" ]
            },
            {
               "long_name" : "Bus Road",
               "short_name" : "Bus Rd",
               "types" : [ "route" ]
            },
            {
               "long_name" : "Kamaraj Nagar",
               "short_name" : "Kamaraj Nagar",
               "types" : [ "political", "sublocality", "sublocality_level_3" ]
            },
            {
               "long_name" : "Semmancheri",
               "short_name" : "Semmancheri",
               "types" : [ "political", "sublocality", "sublocality_level_1" ]
            },
            {
               "long_name" : "Chennai",
               "short_name" : "Chennai",
               "types" : [ "locality", "political" ]
            },
            {
               "long_name" : "Kanchipuram",
               "short_name" : "Kanchipuram",
               "types" : [ "administrative_area_level_2", "political" ]
            },
            {
               "long_name" : "Tamil Nadu",
               "short_name" : "TN",
               "types" : [ "administrative_area_level_1", "political" ]
            },
            {
               "long_name" : "India",
               "short_name" : "IN",
               "types" : [ "country", "political" ]
            },
            {
               "long_name" : "600119",
               "short_name" : "600119",
               "types" : [ "postal_code" ]
            }
         ],
         "formatted_address" : "Jeppiar Nagar, Old Mamalapuram Road, Bus Rd, Kamaraj Nagar, Semmancheri, Chennai, Tamil Nadu 600119, India",
         "geometry" : {
            "bounds" : {
               "northeast" : {
                  "lat" : 12.8709635,
                  "lng" : 80.22069209999999
               },
               "southwest" : {
                  "lat" : 12.8702397,
                  "lng" : 80.21995629999999
               }
            },
            "location" : {
               "lat" : 12.870634,
               "lng" : 80.22036729999999
            },
            "location_type" : "ROOFTOP",
            "viewport" : {
               "northeast" : {
                  "lat" : 12.8719505802915,
                  "lng" : 80.2216731802915
               },
               "southwest" : {
                  "lat" : 12.8692526197085,
                  "lng" : 80.2189752197085
               }
            }
         },
         "place_id" : "ChIJpT2-sLxbUjoRZEbZXC7iiwA",
         "types" : [ "premise" ]
      },
      {
         "address_components" : [
            {
               "long_name" : "Bus Road",
               "short_name" : "Bus Rd",
               "types" : [ "route" ]
            },
            {
               "long_name" : "Kamaraj Nagar",
               "short_name" : "Kamaraj Nagar",
               "types" : [ "political", "sublocality", "sublocality_level_3" ]
            },
            {
               "long_name" : "Semmancheri",
               "short_name" : "Semmancheri",
               "types" : [ "political", "sublocality", "sublocality_level_1" ]
            },
            {
               "long_name" : "Chennai",
               "short_name" : "Chennai",
               "types" : [ "locality", "political" ]
            },
            {
               "long_name" : "Kanchipuram",
               "short_name" : "Kanchipuram",
               "types" : [ "administrative_area_level_2", "political" ]
            },
            {
               "long_name" : "Tamil Nadu",
               "short_name" : "TN",
               "types" : [ "administrative_area_level_1", "political" ]
            },
            {
               "long_name" : "India",
               "short_name" : "IN",
               "types" : [ "country", "political" ]
            },
            {
               "long_name" : "600119",
               "short_name" : "600119",
               "types" : [ "postal_code" ]
            }
         ],
         "formatted_address" : "Bus Rd, Kamaraj Nagar, Semmancheri, Chennai, Tamil Nadu 600119, India",
         "geometry" : {
            "bounds" : {
               "northeast" : {
                  "lat" : 12.8713463,
                  "lng" : 80.2210401
               },
               "southwest" : {
                  "lat" : 12.8708403,
                  "lng" : 80.2208885
               }
            },
            "location" : {
               "lat" : 12.8710933,
               "lng" : 80.22096429999999
            },
            "location_type" : "GEOMETRIC_CENTER",
            "viewport" : {
               "northeast" : {
                  "lat" : 12.8724422802915,
                  "lng" : 80.2223132802915
               },
               "southwest" : {
                  "lat" : 12.8697443197085,
                  "lng" : 80.2196153197085
               }
            }
         },
         "place_id" : "ChIJi1FTtbxbUjoRPA8y0P3UPos",
         "types" : [ "route" ]
      },
      {
         "address_components" : [
            {
               "long_name" : "Kamaraj Nagar",
               "short_name" : "Kamaraj Nagar",
               "types" : [ "political", "sublocality", "sublocality_level_3" ]
            },
            {
               "long_name" : "Semmancheri",
               "short_name" : "Semmancheri",
               "types" : [ "political", "sublocality", "sublocality_level_1" ]
            },
            {
               "long_name" : "Chennai",
               "short_name" : "Chennai",
               "types" : [ "locality", "political" ]
            },
            {
               "long_name" : "Kanchipuram",
               "short_name" : "Kanchipuram",
               "types" : [ "administrative_area_level_2", "political" ]
            },
            {
               "long_name" : "Tamil Nadu",
               "short_name" : "TN",
               "types" : [ "administrative_area_level_1", "political" ]
            },
            {
               "long_name" : "India",
               "short_name" : "IN",
               "types" : [ "country", "political" ]
            }
         ],
         "formatted_address" : "Kamaraj Nagar, Semmancheri, Chennai, Tamil Nadu, India",
         "geometry" : {
            "bounds" : {
               "northeast" : {
                  "lat" : 12.8788465,
                  "lng" : 80.226832
               },
               "southwest" : {
                  "lat" : 12.8572891,
                  "lng" : 80.2128094
               }
            },
            "location" : {
               "lat" : 12.8749112,
               "lng" : 80.2256683
            },
            "location_type" : "APPROXIMATE",
            "viewport" : {
               "northeast" : {
                  "lat" : 12.8788465,
                  "lng" : 80.226832
               },
               "southwest" : {
                  "lat" : 12.8572891,
                  "lng" : 80.2128094
               }
            }
         },
         "place_id" : "ChIJf4EjlrxbUjoR57fYPYwWZg0",
         "types" : [ "political", "sublocality", "sublocality_level_3" ]
      },
      {
         "address_components" : [
            {
               "long_name" : "Semmanjeri",
               "short_name" : "Semmanjeri",
               "types" : [ "locality", "political" ]
            },
            {
               "long_name" : "Kanchipuram",
               "short_name" : "Kanchipuram",
               "types" : [ "administrative_area_level_2", "political" ]
            },
            {
               "long_name" : "Tamil Nadu",
               "short_name" : "TN",
               "types" : [ "administrative_area_level_1", "political" ]
            },
            {
               "long_name" : "India",
               "short_name" : "IN",
               "types" : [ "country", "political" ]
            }
         ],
         "formatted_address" : "Semmanjeri, Tamil Nadu, India",
         "geometry" : {
            "bounds" : {
               "northeast" : {
                  "lat" : 12.8785872,
                  "lng" : 80.2395274
               },
               "southwest" : {
                  "lat" : 12.8539624,
                  "lng" : 80.21227189999999
               }
            },
            "location" : {
               "lat" : 12.8665099,
               "lng" : 80.2245698
            },
            "location_type" : "APPROXIMATE",
            "viewport" : {
               "northeast" : {
                  "lat" : 12.8785872,
                  "lng" : 80.2395274
               },
               "southwest" : {
                  "lat" : 12.8539624,
                  "lng" : 80.21227189999999
               }
            }
         },
         "place_id" : "ChIJddmjRT5aUjoR0aLdG1Oq2nc",
         "types" : [ "locality", "political" ]
      },
      {
         "address_components" : [
            {
               "long_name" : "Semmancheri",
               "short_name" : "Semmancheri",
               "types" : [ "political", "sublocality", "sublocality_level_1" ]
            },
            {
               "long_name" : "Chennai",
               "short_name" : "Chennai",
               "types" : [ "locality", "political" ]
            },
            {
               "long_name" : "Kanchipuram",
               "short_name" : "Kanchipuram",
               "types" : [ "administrative_area_level_2", "political" ]
            },
            {
               "long_name" : "Tamil Nadu",
               "short_name" : "TN",
               "types" : [ "administrative_area_level_1", "political" ]
            },
            {
               "long_name" : "India",
               "short_name" : "IN",
               "types" : [ "country", "political" ]
            }
         ],
         "formatted_address" : "Semmancheri, Chennai, Tamil Nadu, India",
         "geometry" : {
            "bounds" : {
               "northeast" : {
                  "lat" : 12.8808392,
                  "lng" : 80.23615839999999
               },
               "southwest" : {
                  "lat" : 12.8521385,
                  "lng" : 80.1989938
               }
            },
            "location" : {
               "lat" : 12.8601432,
               "lng" : 80.22722539999999
            },
            "location_type" : "APPROXIMATE",
            "viewport" : {
               "northeast" : {
                  "lat" : 12.8808392,
                  "lng" : 80.23615839999999
               },
               "southwest" : {
                  "lat" : 12.8521385,
                  "lng" : 80.1989938
               }
            }
         },
         "place_id" : "ChIJhdorGa1bUjoR62XNHlv1QRo",
         "types" : [ "political", "sublocality", "sublocality_level_1" ]
      },
      {
         "address_components" : [
            {
               "long_name" : "600119",
               "short_name" : "600119",
               "types" : [ "postal_code" ]
            },
            {
               "long_name" : "Chennai",
               "short_name" : "Chennai",
               "types" : [ "locality", "political" ]
            },
            {
               "long_name" : "Kanchipuram",
               "short_name" : "Kanchipuram",
               "types" : [ "administrative_area_level_2", "political" ]
            },
            {
               "long_name" : "Tamil Nadu",
               "short_name" : "TN",
               "types" : [ "administrative_area_level_1", "political" ]
            },
            {
               "long_name" : "India",
               "short_name" : "IN",
               "types" : [ "country", "political" ]
            }
         ],
         "formatted_address" : "Chennai, Tamil Nadu 600119, India",
         "geometry" : {
            "bounds" : {
               "northeast" : {
                  "lat" : 12.9150211,
                  "lng" : 80.25434709999999
               },
               "southwest" : {
                  "lat" : 12.8560227,
                  "lng" : 80.19758829999999
               }
            },
            "location" : {
               "lat" : 12.8765307,
               "lng" : 80.2269371
            },
            "location_type" : "APPROXIMATE",
            "viewport" : {
               "northeast" : {
                  "lat" : 12.9150211,
                  "lng" : 80.25434709999999
               },
               "southwest" : {
                  "lat" : 12.8560227,
                  "lng" : 80.19758829999999
               }
            }
         },
         "place_id" : "ChIJic1jXZtbUjoR5-99UTbvFQA",
         "types" : [ "postal_code" ]
      },
      {
         "address_components" : [
            {
               "long_name" : "Chennai",
               "short_name" : "Chennai",
               "types" : [ "locality", "political" ]
            },
            {
               "long_name" : "Chennai",
               "short_name" : "Chennai",
               "types" : [ "administrative_area_level_2", "political" ]
            },
            {
               "long_name" : "Tamil Nadu",
               "short_name" : "TN",
               "types" : [ "administrative_area_level_1", "political" ]
            },
            {
               "long_name" : "India",
               "short_name" : "IN",
               "types" : [ "country", "political" ]
            }
         ],
         "formatted_address" : "Chennai, Tamil Nadu, India",
         "geometry" : {
            "bounds" : {
               "northeast" : {
                  "lat" : 13.2611661,
                  "lng" : 80.33632279999999
               },
               "southwest" : {
                  "lat" : 12.8338848,
                  "lng" : 80.0817007
               }
            },
            "location" : {
               "lat" : 13.0826802,
               "lng" : 80.27071840000001
            },
            "location_type" : "APPROXIMATE",
            "viewport" : {
               "northeast" : {
                  "lat" : 13.2611661,
                  "lng" : 80.33632279999999
               },
               "southwest" : {
                  "lat" : 12.8338848,
                  "lng" : 80.0817007
               }
            }
         },
         "place_id" : "ChIJYTN9T-plUjoRM9RjaAunYW4",
         "types" : [ "locality", "political" ]
      },
      {
         "address_components" : [
            {
               "long_name" : "Kanchipuram",
               "short_name" : "Kanchipuram",
               "types" : [ "administrative_area_level_2", "political" ]
            },
            {
               "long_name" : "Tamil Nadu",
               "short_name" : "TN",
               "types" : [ "administrative_area_level_1", "political" ]
            },
            {
               "long_name" : "India",
               "short_name" : "IN",
               "types" : [ "country", "political" ]
            }
         ],
         "formatted_address" : "Kanchipuram, Tamil Nadu, India",
         "geometry" : {
            "bounds" : {
               "northeast" : {
                  "lat" : 13.037097,
                  "lng" : 80.26113099999999
               },
               "southwest" : {
                  "lat" : 12.2130521,
                  "lng" : 79.55783910000001
               }
            },
            "location" : {
               "lat" : 12.8755772,
               "lng" : 79.8745586
            },
            "location_type" : "APPROXIMATE",
            "viewport" : {
               "northeast" : {
                  "lat" : 13.037097,
                  "lng" : 80.26113099999999
               },
               "southwest" : {
                  "lat" : 12.2130521,
                  "lng" : 79.55783910000001
               }
            }
         },
         "place_id" : "ChIJcRiwW__CUjoRfi4JMP80EwQ",
         "types" : [ "administrative_area_level_2", "political" ]
      },
      {
         "address_components" : [
            {
               "long_name" : "Tamil Nadu",
               "short_name" : "Tamil Nadu",
               "types" : [ "administrative_area_level_1", "political" ]
            },
            {
               "long_name" : "India",
               "short_name" : "IN",
               "types" : [ "country", "political" ]
            }
         ],
         "formatted_address" : "Tamil Nadu, India",
         "geometry" : {
            "bounds" : {
               "northeast" : {
                  "lat" : 13.496666,
                  "lng" : 80.3464511
               },
               "southwest" : {
                  "lat" : 8.0690069,
                  "lng" : 76.23055409999999
               }
            },
            "location" : {
               "lat" : 11.1271225,
               "lng" : 78.6568942
            },
            "location_type" : "APPROXIMATE",
            "viewport" : {
               "northeast" : {
                  "lat" : 13.496666,
                  "lng" : 80.3464511
               },
               "southwest" : {
                  "lat" : 8.0690069,
                  "lng" : 76.23055409999999
               }
            }
         },
         "place_id" : "ChIJM5YYsYLFADsR8GEzRsx1lFU",
         "types" : [ "administrative_area_level_1", "political" ]
      },
      {
         "address_components" : [
            {
               "long_name" : "India",
               "short_name" : "IN",
               "types" : [ "country", "political" ]
            }
         ],
         "formatted_address" : "India",
         "geometry" : {
            "bounds" : {
               "northeast" : {
                  "lat" : 35.513327,
                  "lng" : 97.39535869999999
               },
               "southwest" : {
                  "lat" : 6.4626999,
                  "lng" : 68.1097
               }
            },
            "location" : {
               "lat" : 20.593684,
               "lng" : 78.96288
            },
            "location_type" : "APPROXIMATE",
            "viewport" : {
               "northeast" : {
                  "lat" : 35.513327,
                  "lng" : 97.39535869999999
               },
               "southwest" : {
                  "lat" : 6.4626999,
                  "lng" : 68.1097
               }
            }
         },
         "place_id" : "ChIJkbeSa_BfYzARphNChaFPjNc",
         "types" : [ "country", "political" ]
      }
   ],
   "status" : "OK"
}
