{
   "plus_code" : {
      "compound_code" : "X65R+2C Taoyuan, Taoyuan District, Taoyuan City, Taiwan",
      "global_code" : "7QP3X65R+2C"
   },
   "results" : [
      {
         "address_components" : [
            {
               "long_name" : "200",
               "short_name" : "200",
               "types" : [ "street_number" ]
            },
            {
               "long_name" : "Zhongbei Road",
               "short_name" : "Zhongbei Road",
               "types" : [ "route" ]
            },
            {
               "long_name" : "Zhongli District",
               "short_name" : "Zhongli District",
               "types" : [ "administrative_area_level_3", "political" ]
            },
            {
               "long_name" : "Taoyuan City",
               "short_name" : "Taoyuan City",
               "types" : [ "administrative_area_level_1", "political" ]
            },
            {
               "long_name" : "Taiwan",
               "short_name" : "TW",
               "types" : [ "country", "political" ]
            },
            {
               "long_name" : "320",
               "short_name" : "320",
               "types" : [ "postal_code" ]
            }
         ],
         "formatted_address" : "No. 200, Zhongbei Road, Zhongli District, Taoyuan City, Taiwan 320",
         "geometry" : {
            "location" : {
               "lat" : 24.957537,
               "lng" : 121.2410215
            },
            "location_type" : "ROOFTOP",
            "viewport" : {
               "northeast" : {
                  "lat" : 24.9588859802915,
                  "lng" : 121.2423704802915
               },
               "southwest" : {
                  "lat" : 24.9561880197085,
                  "lng" : 121.2396725197085
               }
            }
         },
         "place_id" : "ChIJIfCgRxQiaDQR_7y4C2XShis",
         "types" : [ "establishment", "point_of_interest", "university" ]
      },
      {
         "address_components" : [
            {
               "long_name" : "200",
               "short_name" : "200",
               "types" : [ "street_number" ]
            },
            {
               "long_name" : "Zhongbei Road",
               "short_name" : "Zhongbei Road",
               "types" : [ "route" ]
            },
            {
               "long_name" : "Zhongli District",
               "short_name" : "Zhongli District",
               "types" : [ "administrative_area_level_3", "political" ]
            },
            {
               "long_name" : "Taoyuan City",
               "short_name" : "Taoyuan City",
               "types" : [ "administrative_area_level_1", "political" ]
            },
            {
               "long_name" : "Taiwan",
               "short_name" : "TW",
               "types" : [ "country", "political" ]
            },
            {
               "long_name" : "320",
               "short_name" : "320",
               "types" : [ "postal_code" ]
            }
         ],
         "formatted_address" : "No. 200, Zhongbei Road, Zhongli District, Taoyuan City, Taiwan 320",
         "geometry" : {
            "location" : {
               "lat" : 24.9574977,
               "lng" : 121.240539
            },
            "location_type" : "ROOFTOP",
            "viewport" : {
               "northeast" : {
                  "lat" : 24.9588466802915,
                  "lng" : 121.2418879802915
               },
               "southwest" : {
                  "lat" : 24.95614871970849,
                  "lng" : 121.2391900197085
               }
            }
         },
         "place_id" : "ChIJM8tI7BUiaDQRyisZT1Y13Rs",
         "types" : [ "street_address" ]
      },
      {
         "address_components" : [
            {
               "long_name" : "197",
               "short_name" : "197",
               "types" : [ "street_number" ]
            },
            {
               "long_name" : "Zhongbei Road",
               "short_name" : "Zhongbei Road",
               "types" : [ "route" ]
            },
            {
               "long_name" : "Zhongli District",
               "short_name" : "Zhongli District",
               "types" : [ "administrative_area_level_3", "political" ]
            },
            {
               "long_name" : "Taoyuan City",
               "short_name" : "Taoyuan City",
               "types" : [ "administrative_area_level_1", "political" ]
            },
            {
               "long_name" : "Taiwan",
               "short_name" : "TW",
               "types" : [ "country", "political" ]
            },
            {
               "long_name" : "320",
               "short_name" : "320",
               "types" : [ "postal_code" ]
            }
         ],
         "formatted_address" : "No. 197, Zhongbei Road, Zhongli District, Taoyuan City, Taiwan 320",
         "geometry" : {
            "location" : {
               "lat" : 24.9572473,
               "lng" : 121.2404742
            },
            "location_type" : "RANGE_INTERPOLATED",
            "viewport" : {
               "northeast" : {
                  "lat" : 24.9585962802915,
                  "lng" : 121.2418231802915
               },
               "southwest" : {
                  "lat" : 24.9558983197085,
                  "lng" : 121.2391252197085
               }
            }
         },
         "place_id" : "EiozMjDlj7DngaPmoYPlnJLluILkuK3lo6LljYDkuK3ljJfot68xOTfomZ8iGxIZChQKEgmhYYOSFSJoNBHd78urVF2qhhDFAQ",
         "types" : [ "street_address" ]
      },
      {
         "address_components" : [
            {
               "long_name" : "普忠里",
               "short_name" : "普忠里",
               "types" : [ "administrative_area_level_4", "political" ]
            },
            {
               "long_name" : "中壢區",
               "short_name" : "中壢區",
               "types" : [ "administrative_area_level_3", "political" ]
            },
            {
               "long_name" : "桃園市",
               "short_name" : "桃園市",
               "types" : [ "administrative_area_level_1", "political" ]
            },
            {
               "long_name" : "Taiwan",
               "short_name" : "TW",
               "types" : [ "country", "political" ]
            },
            {
               "long_name" : "320",
               "short_name" : "320",
               "types" : [ "postal_code" ]
            }
         ],
         "formatted_address" : "320, Taiwan, 桃園市中壢區普忠里",
         "geometry" : {
            "bounds" : {
               "northeast" : {
                  "lat" : 24.9683539,
                  "lng" : 121.2518792
               },
               "southwest" : {
                  "lat" : 24.9534355,
                  "lng" : 121.2380504
               }
            },
            "location" : {
               "lat" : 24.9611944,
               "lng" : 121.2468983
            },
            "location_type" : "APPROXIMATE",
            "viewport" : {
               "northeast" : {
                  "lat" : 24.9683539,
                  "lng" : 121.2518792
               },
               "southwest" : {
                  "lat" : 24.9534355,
                  "lng" : 121.2380504
               }
            }
         },
         "place_id" : "ChIJq1oPlBoiaDQR6ryws4ZFyQM",
         "types" : [ "administrative_area_level_4", "political" ]
      },
      {
         "address_components" : [
            {
               "long_name" : "Zhongli District",
               "short_name" : "Zhongli District",
               "types" : [ "administrative_area_level_3", "political" ]
            },
            {
               "long_name" : "Taoyuan City",
               "short_name" : "Taoyuan City",
               "types" : [ "administrative_area_level_1", "political" ]
            },
            {
               "long_name" : "Taiwan",
               "short_name" : "TW",
               "types" : [ "country", "political" ]
            }
         ],
         "formatted_address" : "Zhongli District, Taoyuan City, Taiwan",
         "geometry" : {
            "bounds" : {
               "northeast" : {
                  "lat" : 25.0285002,
                  "lng" : 121.2668923
               },
               "southwest" : {
                  "lat" : 24.9250665,
                  "lng" : 121.1514872
               }
            },
            "location" : {
               "lat" : 24.9721514,
               "lng" : 121.2053963
            },
            "location_type" : "APPROXIMATE",
            "viewport" : {
               "northeast" : {
                  "lat" : 25.0285002,
                  "lng" : 121.2668923
               },
               "southwest" : {
                  "lat" : 24.9250665,
                  "lng" : 121.1514872
               }
            }
         },
         "place_id" : "ChIJGeZQzNYjaDQRvtBcPSA0xac",
         "types" : [ "administrative_area_level_3", "political" ]
      },
      {
         "address_components" : [
            {
               "long_name" : "320",
               "short_name" : "320",
               "types" : [ "postal_code" ]
            },
            {
               "long_name" : "Zhongli District",
               "short_name" : "Zhongli District",
               "types" : [ "administrative_area_level_3", "political" ]
            },
            {
               "long_name" : "Taoyuan City",
               "short_name" : "Taoyuan City",
               "types" : [ "administrative_area_level_1", "political" ]
            },
            {
               "long_name" : "Taiwan",
               "short_name" : "TW",
               "types" : [ "country", "political" ]
            }
         ],
         "formatted_address" : "Zhongli District, Taoyuan City, Taiwan 320",
         "geometry" : {
            "bounds" : {
               "northeast" : {
                  "lat" : 25.0285002,
                  "lng" : 121.2668923
               },
               "southwest" : {
                  "lat" : 24.9250665,
                  "lng" : 121.1514872
               }
            },
            "location" : {
               "lat" : 24.9721514,
               "lng" : 121.2053963
            },
            "location_type" : "APPROXIMATE",
            "viewport" : {
               "northeast" : {
                  "lat" : 25.0285002,
                  "lng" : 121.2668923
               },
               "southwest" : {
                  "lat" : 24.9250665,
                  "lng" : 121.1514872
               }
            }
         },
         "place_id" : "ChIJm43hzNYjaDQRQXEigQ1DD_U",
         "types" : [ "postal_code" ]
      },
      {
         "address_components" : [
            {
               "long_name" : "Taoyuan",
               "short_name" : "Taoyuan",
               "types" : [ "colloquial_area", "locality", "political" ]
            },
            {
               "long_name" : "Taoyuan District",
               "short_name" : "Taoyuan District",
               "types" : [ "administrative_area_level_3", "political" ]
            },
            {
               "long_name" : "Taoyuan City",
               "short_name" : "Taoyuan City",
               "types" : [ "administrative_area_level_1", "political" ]
            },
            {
               "long_name" : "Taiwan",
               "short_name" : "TW",
               "types" : [ "country", "political" ]
            }
         ],
         "formatted_address" : "Taoyuan, Taoyuan District, Taoyuan City, Taiwan",
         "geometry" : {
            "bounds" : {
               "northeast" : {
                  "lat" : 25.1183727,
                  "lng" : 121.400057
               },
               "southwest" : {
                  "lat" : 24.8302295,
                  "lng" : 121.0214127
               }
            },
            "location" : {
               "lat" : 24.9553806,
               "lng" : 121.2300015
            },
            "location_type" : "APPROXIMATE",
            "viewport" : {
               "northeast" : {
                  "lat" : 25.1183727,
                  "lng" : 121.400057
               },
               "southwest" : {
                  "lat" : 24.8302295,
                  "lng" : 121.0214127
               }
            }
         },
         "place_id" : "ChIJs21AiKwfaDQRHfjto-5qm_U",
         "types" : [ "colloquial_area", "locality", "political" ]
      },
      {
         "address_components" : [
            {
               "long_name" : "Taoyuan City",
               "short_name" : "Taoyuan City",
               "types" : [ "administrative_area_level_1", "political" ]
            },
            {
               "long_name" : "Taiwan",
               "short_name" : "TW",
               "types" : [ "country", "political" ]
            }
         ],
         "formatted_address" : "Taoyuan City, Taiwan",
         "geometry" : {
            "bounds" : {
               "northeast" : {
                  "lat" : 25.123137,
                  "lng" : 121.4798128
               },
               "southwest" : {
                  "lat" : 24.5864837,
                  "lng" : 120.9845575
               }
            },
            "location" : {
               "lat" : 24.9936281,
               "lng" : 121.3009798
            },
            "location_type" : "APPROXIMATE",
            "viewport" : {
               "northeast" : {
                  "lat" : 25.123137,
                  "lng" : 121.4798128
               },
               "southwest" : {
                  "lat" : 24.5864837,
                  "lng" : 120.9845575
               }
            }
         },
         "place_id" : "ChIJP4bazg49aDQRakg6WFJP5FQ",
         "types" : [ "administrative_area_level_1", "political" ]
      },
      {
         "address_components" : [
            {
               "long_name" : "Taiwan",
               "short_name" : "TW",
               "types" : [ "country", "political" ]
            }
         ],
         "formatted_address" : "Taiwan",
         "geometry" : {
            "bounds" : {
               "northeast" : {
                  "lat" : 26.4545,
                  "lng" : 123.5021012
               },
               "southwest" : {
                  "lat" : 20.5170001,
                  "lng" : 116.6665
               }
            },
            "location" : {
               "lat" : 23.69781,
               "lng" : 120.960515
            },
            "location_type" : "APPROXIMATE",
            "viewport" : {
               "northeast" : {
                  "lat" : 26.4545,
                  "lng" : 123.5021012
               },
               "southwest" : {
                  "lat" : 20.5170001,
                  "lng" : 116.6665
               }
            }
         },
         "place_id" : "ChIJL1cHXAbzbjQRaVScvwTwEec",
         "types" : [ "country", "political" ]
      }
   ],
   "status" : "OK"
}
