{
   "plus_code" : {
      "compound_code" : "C24M+9Q Liverpool, UK",
      "global_code" : "9C5VC24M+9Q"
   },
   "results" : [
      {
         "address_components" : [
            {
               "long_name" : "160",
               "short_name" : "160",
               "types" : [ "street_number" ]
            },
            {
               "long_name" : "Mount Pleasant",
               "short_name" : "Mount Pleasant",
               "types" : [ "route" ]
            },
            {
               "long_name" : "Liverpool",
               "short_name" : "Liverpool",
               "types" : [ "postal_town" ]
            },
            {
               "long_name" : "Merseyside",
               "short_name" : "Merseyside",
               "types" : [ "administrative_area_level_2", "political" ]
            },
            {
               "long_name" : "England",
               "short_name" : "England",
               "types" : [ "administrative_area_level_1", "political" ]
            },
            {
               "long_name" : "United Kingdom",
               "short_name" : "GB",
               "types" : [ "country", "political" ]
            },
            {
               "long_name" : "L3 5TR",
               "short_name" : "L3 5TR",
               "types" : [ "postal_code" ]
            }
         ],
         "formatted_address" : "160 Mount Pleasant, Liverpool L3 5TR, UK",
         "geometry" : {
            "location" : {
               "lat" : 53.405021,
               "lng" : -2.965835
            },
            "location_type" : "ROOFTOP",
            "viewport" : {
               "northeast" : {
                  "lat" : 53.4063699802915,
                  "lng" : -2.964486019708498
               },
               "southwest" : {
                  "lat" : 53.4036720197085,
                  "lng" : -2.967183980291502
               }
            }
         },
         "place_id" : "ChIJt8dZnxkhe0gR_EHS5vc8RcI",
         "plus_code" : {
            "compound_code" : "C24M+2M Liverpool, United Kingdom",
            "global_code" : "9C5VC24M+2M"
         },
         "types" : [ "bar", "establishment", "point_of_interest", "university" ]
      },
      {
         "address_components" : [
            {
               "long_name" : "University Place",
               "short_name" : "University Pl",
               "types" : [ "route" ]
            },
            {
               "long_name" : "Liverpool",
               "short_name" : "Liverpool",
               "types" : [ "postal_town" ]
            },
            {
               "long_name" : "Merseyside",
               "short_name" : "Merseyside",
               "types" : [ "administrative_area_level_2", "political" ]
            },
            {
               "long_name" : "England",
               "short_name" : "England",
               "types" : [ "administrative_area_level_1", "political" ]
            },
            {
               "long_name" : "United Kingdom",
               "short_name" : "GB",
               "types" : [ "country", "political" ]
            },
            {
               "long_name" : "L3 5RF",
               "short_name" : "L3 5RF",
               "types" : [ "postal_code" ]
            }
         ],
         "formatted_address" : "University Pl, Liverpool L3 5RF, UK",
         "geometry" : {
            "bounds" : {
               "northeast" : {
                  "lat" : 53.4059724,
                  "lng" : -2.9653887
               },
               "southwest" : {
                  "lat" : 53.4054858,
                  "lng" : -2.9658355
               }
            },
            "location" : {
               "lat" : 53.40572909999999,
               "lng" : -2.9656121
            },
            "location_type" : "GEOMETRIC_CENTER",
            "viewport" : {
               "northeast" : {
                  "lat" : 53.40707808029151,
                  "lng" : -2.964263119708498
               },
               "southwest" : {
                  "lat" : 53.40438011970851,
                  "lng" : -2.966961080291501
               }
            }
         },
         "place_id" : "ChIJiX05mhkhe0gRXsc0vdn9zdE",
         "types" : [ "route" ]
      },
      {
         "address_components" : [
            {
               "long_name" : "L3 5UB",
               "short_name" : "L3 5UB",
               "types" : [ "postal_code" ]
            },
            {
               "long_name" : "Liverpool",
               "short_name" : "Liverpool",
               "types" : [ "postal_town" ]
            },
            {
               "long_name" : "Merseyside",
               "short_name" : "Merseyside",
               "types" : [ "administrative_area_level_2", "political" ]
            },
            {
               "long_name" : "England",
               "short_name" : "England",
               "types" : [ "administrative_area_level_1", "political" ]
            },
            {
               "long_name" : "United Kingdom",
               "short_name" : "GB",
               "types" : [ "country", "political" ]
            }
         ],
         "formatted_address" : "Liverpool L3 5UB, UK",
         "geometry" : {
            "bounds" : {
               "northeast" : {
                  "lat" : 53.4076756,
                  "lng" : -2.9634289
               },
               "southwest" : {
                  "lat" : 53.4050361,
                  "lng" : -2.9660788
               }
            },
            "location" : {
               "lat" : 53.405848,
               "lng" : -2.964771
            },
            "location_type" : "APPROXIMATE",
            "viewport" : {
               "northeast" : {
                  "lat" : 53.40770483029149,
                  "lng" : -2.963404869708498
               },
               "southwest" : {
                  "lat" : 53.40500686970849,
                  "lng" : -2.966102830291502
               }
            }
         },
         "place_id" : "ChIJOTgZhhkhe0gRuDdXmia58CI",
         "types" : [ "postal_code" ]
      },
      {
         "address_components" : [
            {
               "long_name" : "Knowledge Quarter",
               "short_name" : "Knowledge Quarter",
               "types" : [ "neighborhood", "political" ]
            },
            {
               "long_name" : "Liverpool",
               "short_name" : "Liverpool",
               "types" : [ "postal_town" ]
            },
            {
               "long_name" : "Merseyside",
               "short_name" : "Merseyside",
               "types" : [ "administrative_area_level_2", "political" ]
            },
            {
               "long_name" : "England",
               "short_name" : "England",
               "types" : [ "administrative_area_level_1", "political" ]
            },
            {
               "long_name" : "United Kingdom",
               "short_name" : "GB",
               "types" : [ "country", "political" ]
            }
         ],
         "formatted_address" : "Knowledge Quarter, Liverpool, UK",
         "geometry" : {
            "bounds" : {
               "northeast" : {
                  "lat" : 53.4119962,
                  "lng" : -2.9612054
               },
               "southwest" : {
                  "lat" : 53.3946936,
                  "lng" : -2.9796188
               }
            },
            "location" : {
               "lat" : 53.4034762,
               "lng" : -2.9694084
            },
            "location_type" : "APPROXIMATE",
            "viewport" : {
               "northeast" : {
                  "lat" : 53.4119962,
                  "lng" : -2.9612054
               },
               "southwest" : {
                  "lat" : 53.3946936,
                  "lng" : -2.9796188
               }
            }
         },
         "place_id" : "ChIJgaEBpBghe0gREGkSzgXT8lg",
         "types" : [ "neighborhood", "political" ]
      },
      {
         "address_components" : [
            {
               "long_name" : "L3",
               "short_name" : "L3",
               "types" : [ "postal_code", "postal_code_prefix" ]
            },
            {
               "long_name" : "Liverpool",
               "short_name" : "Liverpool",
               "types" : [ "postal_town" ]
            },
            {
               "long_name" : "Merseyside",
               "short_name" : "Merseyside",
               "types" : [ "administrative_area_level_2", "political" ]
            },
            {
               "long_name" : "England",
               "short_name" : "England",
               "types" : [ "administrative_area_level_1", "political" ]
            },
            {
               "long_name" : "United Kingdom",
               "short_name" : "GB",
               "types" : [ "country", "political" ]
            }
         ],
         "formatted_address" : "Liverpool L3, UK",
         "geometry" : {
            "bounds" : {
               "northeast" : {
                  "lat" : 53.4334178,
                  "lng" : -2.959107
               },
               "southwest" : {
                  "lat" : 53.371534,
                  "lng" : -3.0072719
               }
            },
            "location" : {
               "lat" : 53.41540180000001,
               "lng" : -2.9887565
            },
            "location_type" : "APPROXIMATE",
            "viewport" : {
               "northeast" : {
                  "lat" : 53.4334178,
                  "lng" : -2.959107
               },
               "southwest" : {
                  "lat" : 53.371534,
                  "lng" : -3.0072719
               }
            }
         },
         "place_id" : "ChIJcwSH5pQge0gReWHGZsMe2JI",
         "types" : [ "postal_code", "postal_code_prefix" ]
      },
      {
         "address_components" : [
            {
               "long_name" : "Liverpool",
               "short_name" : "Liverpool",
               "types" : [ "administrative_area_level_3", "political" ]
            },
            {
               "long_name" : "Merseyside",
               "short_name" : "Merseyside",
               "types" : [ "administrative_area_level_2", "political" ]
            },
            {
               "long_name" : "England",
               "short_name" : "England",
               "types" : [ "administrative_area_level_1", "political" ]
            },
            {
               "long_name" : "United Kingdom",
               "short_name" : "GB",
               "types" : [ "country", "political" ]
            }
         ],
         "formatted_address" : "Liverpool, UK",
         "geometry" : {
            "bounds" : {
               "northeast" : {
                  "lat" : 53.47498299999999,
                  "lng" : -2.8180001
               },
               "southwest" : {
                  "lat" : 53.3115426,
                  "lng" : -3.0191793
               }
            },
            "location" : {
               "lat" : 53.37669649999999,
               "lng" : -2.9149019
            },
            "location_type" : "APPROXIMATE",
            "viewport" : {
               "northeast" : {
                  "lat" : 53.47498299999999,
                  "lng" : -2.8180001
               },
               "southwest" : {
                  "lat" : 53.3115426,
                  "lng" : -3.0191793
               }
            }
         },
         "place_id" : "ChIJrQ6lI0oge0gR4DNt7Z75DAQ",
         "types" : [ "administrative_area_level_3", "political" ]
      },
      {
         "address_components" : [
            {
               "long_name" : "Liverpool",
               "short_name" : "Liverpool",
               "types" : [ "locality", "political" ]
            },
            {
               "long_name" : "Merseyside",
               "short_name" : "Merseyside",
               "types" : [ "administrative_area_level_2", "political" ]
            },
            {
               "long_name" : "England",
               "short_name" : "England",
               "types" : [ "administrative_area_level_1", "political" ]
            },
            {
               "long_name" : "United Kingdom",
               "short_name" : "GB",
               "types" : [ "country", "political" ]
            }
         ],
         "formatted_address" : "Liverpool, UK",
         "geometry" : {
            "bounds" : {
               "northeast" : {
                  "lat" : 53.503907,
                  "lng" : -2.8129382
               },
               "southwest" : {
                  "lat" : 53.3204478,
                  "lng" : -3.0191793
               }
            },
            "location" : {
               "lat" : 53.4083714,
               "lng" : -2.9915726
            },
            "location_type" : "APPROXIMATE",
            "viewport" : {
               "northeast" : {
                  "lat" : 53.503907,
                  "lng" : -2.8129382
               },
               "southwest" : {
                  "lat" : 53.3204478,
                  "lng" : -3.0191793
               }
            }
         },
         "place_id" : "ChIJt2BwZIrfekgRAW4XP28E3EI",
         "types" : [ "locality", "political" ]
      },
      {
         "address_components" : [
            {
               "long_name" : "Liverpool",
               "short_name" : "Liverpool",
               "types" : [ "postal_town" ]
            },
            {
               "long_name" : "England",
               "short_name" : "England",
               "types" : [ "administrative_area_level_1", "political" ]
            },
            {
               "long_name" : "United Kingdom",
               "short_name" : "GB",
               "types" : [ "country", "political" ]
            }
         ],
         "formatted_address" : "Liverpool, UK",
         "geometry" : {
            "bounds" : {
               "northeast" : {
                  "lat" : 53.59218,
                  "lng" : -2.7798294
               },
               "southwest" : {
                  "lat" : 53.3222169,
                  "lng" : -3.1050955
               }
            },
            "location" : {
               "lat" : 53.419815,
               "lng" : -2.9194923
            },
            "location_type" : "APPROXIMATE",
            "viewport" : {
               "northeast" : {
                  "lat" : 53.59218,
                  "lng" : -2.7798294
               },
               "southwest" : {
                  "lat" : 53.3222169,
                  "lng" : -3.1050955
               }
            }
         },
         "place_id" : "ChIJB2TpsjYie0gRpOK8_Sh2UGw",
         "types" : [ "postal_town" ]
      },
      {
         "address_components" : [
            {
               "long_name" : "Merseyside",
               "short_name" : "Merseyside",
               "types" : [ "administrative_area_level_2", "political" ]
            },
            {
               "long_name" : "England",
               "short_name" : "England",
               "types" : [ "administrative_area_level_1", "political" ]
            },
            {
               "long_name" : "United Kingdom",
               "short_name" : "GB",
               "types" : [ "country", "political" ]
            }
         ],
         "formatted_address" : "Merseyside, UK",
         "geometry" : {
            "bounds" : {
               "northeast" : {
                  "lat" : 53.7043332,
                  "lng" : -2.5766262
               },
               "southwest" : {
                  "lat" : 53.286361,
                  "lng" : -3.2637571
               }
            },
            "location" : {
               "lat" : 53.3976041,
               "lng" : -2.9436644
            },
            "location_type" : "APPROXIMATE",
            "viewport" : {
               "northeast" : {
                  "lat" : 53.7043332,
                  "lng" : -2.5766262
               },
               "southwest" : {
                  "lat" : 53.286361,
                  "lng" : -3.2637571
               }
            }
         },
         "place_id" : "ChIJc2fVfoPXekgRApLOHfrVYYY",
         "types" : [ "administrative_area_level_2", "political" ]
      },
      {
         "address_components" : [
            {
               "long_name" : "England",
               "short_name" : "England",
               "types" : [ "administrative_area_level_1", "political" ]
            },
            {
               "long_name" : "United Kingdom",
               "short_name" : "GB",
               "types" : [ "country", "political" ]
            }
         ],
         "formatted_address" : "England, UK",
         "geometry" : {
            "bounds" : {
               "northeast" : {
                  "lat" : 55.81165979999999,
                  "lng" : 1.7629159
               },
               "southwest" : {
                  "lat" : 49.8647411,
                  "lng" : -6.4185458
               }
            },
            "location" : {
               "lat" : 52.3555177,
               "lng" : -1.1743197
            },
            "location_type" : "APPROXIMATE",
            "viewport" : {
               "northeast" : {
                  "lat" : 55.81165979999999,
                  "lng" : 1.7629159
               },
               "southwest" : {
                  "lat" : 49.8647411,
                  "lng" : -6.4185458
               }
            }
         },
         "place_id" : "ChIJ39UebIqp0EcRqI4tMyWV4fQ",
         "types" : [ "administrative_area_level_1", "political" ]
      },
      {
         "address_components" : [
            {
               "long_name" : "United Kingdom",
               "short_name" : "GB",
               "types" : [ "country", "political" ]
            }
         ],
         "formatted_address" : "United Kingdom",
         "geometry" : {
            "bounds" : {
               "northeast" : {
                  "lat" : 60.91569999999999,
                  "lng" : 33.9165549
               },
               "southwest" : {
                  "lat" : 34.5614,
                  "lng" : -8.8988999
               }
            },
            "location" : {
               "lat" : 55.378051,
               "lng" : -3.435973
            },
            "location_type" : "APPROXIMATE",
            "viewport" : {
               "northeast" : {
                  "lat" : 60.91569999999999,
                  "lng" : 33.9165549
               },
               "southwest" : {
                  "lat" : 34.5614,
                  "lng" : -8.8988999
               }
            }
         },
         "place_id" : "ChIJqZHHQhE7WgIReiWIMkOg-MQ",
         "types" : [ "country", "political" ]
      }
   ],
   "status" : "OK"
}
