{
   "plus_code" : {
      "compound_code" : "V3R2+22 Irving, TX, USA",
      "global_code" : "8645V3R2+22"
   },
   "results" : [
      {
         "address_components" : [
            {
               "long_name" : "5959",
               "short_name" : "5959",
               "types" : [ "street_number" ]
            },
            {
               "long_name" : "Las Colinas Boulevard",
               "short_name" : "Las Colinas Blvd",
               "types" : [ "route" ]
            },
            {
               "long_name" : "Las Colinas",
               "short_name" : "Las Colinas",
               "types" : [ "neighborhood", "political" ]
            },
            {
               "long_name" : "Irving",
               "short_name" : "Irving",
               "types" : [ "locality", "political" ]
            },
            {
               "long_name" : "Dallas County",
               "short_name" : "Dallas County",
               "types" : [ "administrative_area_level_2", "political" ]
            },
            {
               "long_name" : "Texas",
               "short_name" : "TX",
               "types" : [ "administrative_area_level_1", "political" ]
            },
            {
               "long_name" : "United States",
               "short_name" : "US",
               "types" : [ "country", "political" ]
            },
            {
               "long_name" : "75039",
               "short_name" : "75039",
               "types" : [ "postal_code" ]
            },
            {
               "long_name" : "2298",
               "short_name" : "2298",
               "types" : [ "postal_code_suffix" ]
            }
         ],
         "formatted_address" : "5959 Las Colinas Blvd, Irving, TX 75039, USA",
         "geometry" : {
            "location" : {
               "lat" : 32.8900057,
               "lng" : -96.9499086
            },
            "location_type" : "ROOFTOP",
            "viewport" : {
               "northeast" : {
                  "lat" : 32.89135468029149,
                  "lng" : -96.9485596197085
               },
               "southwest" : {
                  "lat" : 32.88865671970849,
                  "lng" : -96.95125758029151
               }
            }
         },
         "place_id" : "ChIJ4bHcTSEoTIYRf2bLXUnSNx8",
         "plus_code" : {
            "compound_code" : "V3R2+22 Irving, Texas, United States",
            "global_code" : "8645V3R2+22"
         },
         "types" : [ "establishment", "lawyer", "point_of_interest" ]
      },
      {
         "address_components" : [
            {
               "long_name" : "5959",
               "short_name" : "5959",
               "types" : [ "street_number" ]
            },
            {
               "long_name" : "Las Colinas Boulevard",
               "short_name" : "Las Colinas Blvd",
               "types" : [ "route" ]
            },
            {
               "long_name" : "Las Colinas",
               "short_name" : "Las Colinas",
               "types" : [ "neighborhood", "political" ]
            },
            {
               "long_name" : "Irving",
               "short_name" : "Irving",
               "types" : [ "locality", "political" ]
            },
            {
               "long_name" : "Dallas County",
               "short_name" : "Dallas County",
               "types" : [ "administrative_area_level_2", "political" ]
            },
            {
               "long_name" : "Texas",
               "short_name" : "TX",
               "types" : [ "administrative_area_level_1", "political" ]
            },
            {
               "long_name" : "United States",
               "short_name" : "US",
               "types" : [ "country", "political" ]
            },
            {
               "long_name" : "75039",
               "short_name" : "75039",
               "types" : [ "postal_code" ]
            },
            {
               "long_name" : "4202",
               "short_name" : "4202",
               "types" : [ "postal_code_suffix" ]
            }
         ],
         "formatted_address" : "5959 Las Colinas Blvd, Irving, TX 75039, USA",
         "geometry" : {
            "location" : {
               "lat" : 32.8900057,
               "lng" : -96.9499086
            },
            "location_type" : "ROOFTOP",
            "viewport" : {
               "northeast" : {
                  "lat" : 32.89135468029149,
                  "lng" : -96.9485596197085
               },
               "southwest" : {
                  "lat" : 32.88865671970849,
                  "lng" : -96.95125758029151
               }
            }
         },
         "place_id" : "ChIJQatL6yYoTIYRpLVZZoZTB3U",
         "plus_code" : {
            "compound_code" : "V3R2+22 Irving, Texas, United States",
            "global_code" : "8645V3R2+22"
         },
         "types" : [ "street_address" ]
      },
      {
         "address_components" : [
            {
               "long_name" : "5959",
               "short_name" : "5959",
               "types" : [ "street_number" ]
            },
            {
               "long_name" : "Las Colinas Boulevard",
               "short_name" : "Las Colinas Blvd",
               "types" : [ "route" ]
            },
            {
               "long_name" : "Irving",
               "short_name" : "Irving",
               "types" : [ "locality", "political" ]
            },
            {
               "long_name" : "Texas",
               "short_name" : "TX",
               "types" : [ "administrative_area_level_1", "political" ]
            },
            {
               "long_name" : "United States",
               "short_name" : "US",
               "types" : [ "country", "political" ]
            },
            {
               "long_name" : "75039",
               "short_name" : "75039",
               "types" : [ "postal_code" ]
            }
         ],
         "formatted_address" : "5959 Las Colinas Blvd, Irving, TX 75039, USA",
         "geometry" : {
            "location" : {
               "lat" : 32.8909543,
               "lng" : -96.94843539999999
            },
            "location_type" : "RANGE_INTERPOLATED",
            "viewport" : {
               "northeast" : {
                  "lat" : 32.89230328029149,
                  "lng" : -96.9470864197085
               },
               "southwest" : {
                  "lat" : 32.88960531970849,
                  "lng" : -96.9497843802915
               }
            }
         },
         "place_id" : "Eiw1OTU5IExhcyBDb2xpbmFzIEJsdmQsIElydmluZywgVFggNzUwMzksIFVTQSIbEhkKFAoSCY_3PKEmKEyGETzNgZvrNffwEMcu",
         "types" : [ "street_address" ]
      },
      {
         "address_components" : [
            {
               "long_name" : "75039",
               "short_name" : "75039",
               "types" : [ "postal_code" ]
            },
            {
               "long_name" : "Irving",
               "short_name" : "Irving",
               "types" : [ "locality", "political" ]
            },
            {
               "long_name" : "Dallas County",
               "short_name" : "Dallas County",
               "types" : [ "administrative_area_level_2", "political" ]
            },
            {
               "long_name" : "Texas",
               "short_name" : "TX",
               "types" : [ "administrative_area_level_1", "political" ]
            },
            {
               "long_name" : "United States",
               "short_name" : "US",
               "types" : [ "country", "political" ]
            }
         ],
         "formatted_address" : "Irving, TX 75039, USA",
         "geometry" : {
            "bounds" : {
               "northeast" : {
                  "lat" : 32.9193869,
                  "lng" : -96.90325989999999
               },
               "southwest" : {
                  "lat" : 32.839819,
                  "lng" : -96.97260279999999
               }
            },
            "location" : {
               "lat" : 32.8916766,
               "lng" : -96.94775319999999
            },
            "location_type" : "APPROXIMATE",
            "viewport" : {
               "northeast" : {
                  "lat" : 32.9193869,
                  "lng" : -96.90325989999999
               },
               "southwest" : {
                  "lat" : 32.839819,
                  "lng" : -96.97260279999999
               }
            }
         },
         "place_id" : "ChIJ5Wzr96CCToYRogN09q9dy6o",
         "types" : [ "postal_code" ]
      },
      {
         "address_components" : [
            {
               "long_name" : "Las Colinas",
               "short_name" : "Las Colinas",
               "types" : [ "neighborhood", "political" ]
            },
            {
               "long_name" : "Irving",
               "short_name" : "Irving",
               "types" : [ "locality", "political" ]
            },
            {
               "long_name" : "Dallas County",
               "short_name" : "Dallas County",
               "types" : [ "administrative_area_level_2", "political" ]
            },
            {
               "long_name" : "Texas",
               "short_name" : "TX",
               "types" : [ "administrative_area_level_1", "political" ]
            },
            {
               "long_name" : "United States",
               "short_name" : "US",
               "types" : [ "country", "political" ]
            }
         ],
         "formatted_address" : "Las Colinas, Irving, TX, USA",
         "geometry" : {
            "bounds" : {
               "northeast" : {
                  "lat" : 32.9439309,
                  "lng" : -96.9221419
               },
               "southwest" : {
                  "lat" : 32.8454138,
                  "lng" : -97.032687
               }
            },
            "location" : {
               "lat" : 32.8969875,
               "lng" : -96.95312249999999
            },
            "location_type" : "APPROXIMATE",
            "viewport" : {
               "northeast" : {
                  "lat" : 32.9439309,
                  "lng" : -96.9221419
               },
               "southwest" : {
                  "lat" : 32.8454138,
                  "lng" : -97.032687
               }
            }
         },
         "place_id" : "ChIJSzwOGiQoTIYRCr866qHKsjU",
         "types" : [ "neighborhood", "political" ]
      },
      {
         "address_components" : [
            {
               "long_name" : "Irving",
               "short_name" : "Irving",
               "types" : [ "locality", "political" ]
            },
            {
               "long_name" : "Dallas County",
               "short_name" : "Dallas County",
               "types" : [ "administrative_area_level_2", "political" ]
            },
            {
               "long_name" : "Texas",
               "short_name" : "TX",
               "types" : [ "administrative_area_level_1", "political" ]
            },
            {
               "long_name" : "United States",
               "short_name" : "US",
               "types" : [ "country", "political" ]
            }
         ],
         "formatted_address" : "Irving, TX, USA",
         "geometry" : {
            "bounds" : {
               "northeast" : {
                  "lat" : 32.953966,
                  "lng" : -96.88878199999999
               },
               "southwest" : {
                  "lat" : 32.771786,
                  "lng" : -97.0340848
               }
            },
            "location" : {
               "lat" : 32.8140177,
               "lng" : -96.94889449999999
            },
            "location_type" : "APPROXIMATE",
            "viewport" : {
               "northeast" : {
                  "lat" : 32.953966,
                  "lng" : -96.88878199999999
               },
               "southwest" : {
                  "lat" : 32.771786,
                  "lng" : -97.0340848
               }
            }
         },
         "place_id" : "ChIJj_UJHVyCToYRCfOHhlZvMDw",
         "types" : [ "locality", "political" ]
      },
      {
         "address_components" : [
            {
               "long_name" : "Dallas County",
               "short_name" : "Dallas County",
               "types" : [ "administrative_area_level_2", "political" ]
            },
            {
               "long_name" : "Texas",
               "short_name" : "TX",
               "types" : [ "administrative_area_level_1", "political" ]
            },
            {
               "long_name" : "United States",
               "short_name" : "US",
               "types" : [ "country", "political" ]
            }
         ],
         "formatted_address" : "Dallas County, TX, USA",
         "geometry" : {
            "bounds" : {
               "northeast" : {
                  "lat" : 32.9893279,
                  "lng" : -96.5168659
               },
               "southwest" : {
                  "lat" : 32.5452141,
                  "lng" : -97.03838499999999
               }
            },
            "location" : {
               "lat" : 32.8024682,
               "lng" : -96.83509989999999
            },
            "location_type" : "APPROXIMATE",
            "viewport" : {
               "northeast" : {
                  "lat" : 32.9893279,
                  "lng" : -96.5168659
               },
               "southwest" : {
                  "lat" : 32.5452141,
                  "lng" : -97.03838499999999
               }
            }
         },
         "place_id" : "ChIJgUO9Ukq_ToYRh9ndnDaZsUc",
         "types" : [ "administrative_area_level_2", "political" ]
      },
      {
         "address_components" : [
            {
               "long_name" : "Texas",
               "short_name" : "Texas",
               "types" : [ "administrative_area_level_1", "political" ]
            },
            {
               "long_name" : "United States",
               "short_name" : "US",
               "types" : [ "country", "political" ]
            }
         ],
         "formatted_address" : "Texas, USA",
         "geometry" : {
            "bounds" : {
               "northeast" : {
                  "lat" : 36.5007041,
                  "lng" : -93.5080389
               },
               "southwest" : {
                  "lat" : 25.8371638,
                  "lng" : -106.6456461
               }
            },
            "location" : {
               "lat" : 31.9685988,
               "lng" : -99.9018131
            },
            "location_type" : "APPROXIMATE",
            "viewport" : {
               "northeast" : {
                  "lat" : 36.5007041,
                  "lng" : -93.5080389
               },
               "southwest" : {
                  "lat" : 25.8371638,
                  "lng" : -106.6456461
               }
            }
         },
         "place_id" : "ChIJSTKCCzZwQIYRPN4IGI8c6xY",
         "types" : [ "administrative_area_level_1", "political" ]
      },
      {
         "address_components" : [
            {
               "long_name" : "United States",
               "short_name" : "US",
               "types" : [ "country", "political" ]
            }
         ],
         "formatted_address" : "United States",
         "geometry" : {
            "bounds" : {
               "northeast" : {
                  "lat" : 71.5388001,
                  "lng" : -66.885417
               },
               "southwest" : {
                  "lat" : 18.7763,
                  "lng" : 170.5957
               }
            },
            "location" : {
               "lat" : 37.09024,
               "lng" : -95.712891
            },
            "location_type" : "APPROXIMATE",
            "viewport" : {
               "northeast" : {
                  "lat" : 71.5388001,
                  "lng" : -66.885417
               },
               "southwest" : {
                  "lat" : 18.7763,
                  "lng" : 170.5957
               }
            }
         },
         "place_id" : "ChIJCzYy5IS16lQRQrfeQ5K5Oxw",
         "types" : [ "country", "political" ]
      }
   ],
   "status" : "OK"
}
