{
   "plus_code" : {
      "compound_code" : "RW9C+RM Deretepe, Kabaoğlu Mahallesi, İzmit/Kocaeli, Turkey",
      "global_code" : "8GGFRW9C+RM"
   },
   "results" : [
      {
         "address_components" : [
            {
               "long_name" : "34",
               "short_name" : "34",
               "types" : [ "street_number" ]
            },
            {
               "long_name" : "Kocaeli Üniversitesi Kampüsü",
               "short_name" : "Kocaeli Ünv. Kampüsü",
               "types" : [ "route" ]
            },
            {
               "long_name" : "Kabaoğlu Mahallesi",
               "short_name" : "Kabaoğlu Mahallesi",
               "types" : [ "administrative_area_level_4", "political" ]
            },
            {
               "long_name" : "İzmit",
               "short_name" : "İzmit",
               "types" : [ "administrative_area_level_2", "political" ]
            },
            {
               "long_name" : "Kocaeli",
               "short_name" : "Kocaeli",
               "types" : [ "administrative_area_level_1", "political" ]
            },
            {
               "long_name" : "Turkey",
               "short_name" : "TR",
               "types" : [ "country", "political" ]
            },
            {
               "long_name" : "41000",
               "short_name" : "41000",
               "types" : [ "postal_code" ]
            }
         ],
         "formatted_address" : "Kabaoğlu Mahallesi, Kocaeli Ünv. Kampüsü No:34, 41000 İzmit/Kocaeli, Turkey",
         "geometry" : {
            "location" : {
               "lat" : 40.81965539999999,
               "lng" : 29.9211845
            },
            "location_type" : "ROOFTOP",
            "viewport" : {
               "northeast" : {
                  "lat" : 40.82100438029149,
                  "lng" : 29.9225334802915
               },
               "southwest" : {
                  "lat" : 40.81830641970849,
                  "lng" : 29.9198355197085
               }
            }
         },
         "place_id" : "ChIJYSJB7vNOyxQRCJ6p2bcLDx8",
         "plus_code" : {
            "compound_code" : "RW9C+VF Deretepe, Kabaoğlu Mahallesi, İzmit/Kocaeli, Turkey",
            "global_code" : "8GGFRW9C+VF"
         },
         "types" : [ "street_address" ]
      },
      {
         "address_components" : [
            {
               "long_name" : "34",
               "short_name" : "34",
               "types" : [ "street_number" ]
            },
            {
               "long_name" : "Kocaeli Üniversitesi Kampüsü",
               "short_name" : "Kocaeli Ünv. Kampüsü",
               "types" : [ "route" ]
            },
            {
               "long_name" : "Kabaoğlu Mahallesi",
               "short_name" : "Kabaoğlu Mahallesi",
               "types" : [ "administrative_area_level_4", "political" ]
            },
            {
               "long_name" : "İzmit",
               "short_name" : "İzmit",
               "types" : [ "administrative_area_level_2", "political" ]
            },
            {
               "long_name" : "Kocaeli",
               "short_name" : "Kocaeli",
               "types" : [ "administrative_area_level_1", "political" ]
            },
            {
               "long_name" : "Turkey",
               "short_name" : "TR",
               "types" : [ "country", "political" ]
            },
            {
               "long_name" : "41000",
               "short_name" : "41000",
               "types" : [ "postal_code" ]
            }
         ],
         "formatted_address" : "Kabaoğlu Mahallesi, Kocaeli Ünv. Kampüsü No:34, 41000 İzmit/Kocaeli, Turkey",
         "geometry" : {
            "location" : {
               "lat" : 40.8195643,
               "lng" : 29.9210926
            },
            "location_type" : "RANGE_INTERPOLATED",
            "viewport" : {
               "northeast" : {
                  "lat" : 40.8209132802915,
                  "lng" : 29.9224415802915
               },
               "southwest" : {
                  "lat" : 40.8182153197085,
                  "lng" : 29.9197436197085
               }
            }
         },
         "place_id" : "ElJLYWJhb8SfbHUgTWFoYWxsZXNpLCBLb2NhZWxpIMOcbnYuIEthbXDDvHPDvCBObzozNCwgNDEwMDAgxLB6bWl0L0tvY2FlbGksIFTDvHJraXllIhoSGAoUChIJSxLU7fNOyxQRKWdzTV8A8HEQIg",
         "types" : [ "street_address" ]
      },
      {
         "address_components" : [
            {
               "long_name" : "515",
               "short_name" : "515",
               "types" : [ "street_number" ]
            },
            {
               "long_name" : "Baki Komsuoğlu bulvarı",
               "short_name" : "Baki Komsuoğlu bulvarı",
               "types" : [ "route" ]
            },
            {
               "long_name" : "Kabaoğlu Mahallesi",
               "short_name" : "Kabaoğlu Mahallesi",
               "types" : [ "administrative_area_level_4", "political" ]
            },
            {
               "long_name" : "Umuttepe İzmit",
               "short_name" : "Umuttepe İzmit",
               "types" : [ "administrative_area_level_3", "political" ]
            },
            {
               "long_name" : "İzmit",
               "short_name" : "İzmit",
               "types" : [ "administrative_area_level_2", "political" ]
            },
            {
               "long_name" : "Kocaeli",
               "short_name" : "Kocaeli",
               "types" : [ "administrative_area_level_1", "political" ]
            },
            {
               "long_name" : "Turkey",
               "short_name" : "TR",
               "types" : [ "country", "political" ]
            },
            {
               "long_name" : "41380",
               "short_name" : "41380",
               "types" : [ "postal_code" ]
            }
         ],
         "formatted_address" : "Kabaoğlu Mahallesi, Baki Komsuoğlu bulvarı No:515, 41380 Umuttepe İzmit/İzmit/Kocaeli, Turkey",
         "geometry" : {
            "location" : {
               "lat" : 40.8223347,
               "lng" : 29.9217153
            },
            "location_type" : "ROOFTOP",
            "viewport" : {
               "northeast" : {
                  "lat" : 40.8236836802915,
                  "lng" : 29.9230642802915
               },
               "southwest" : {
                  "lat" : 40.8209857197085,
                  "lng" : 29.9203663197085
               }
            }
         },
         "place_id" : "ChIJRf4p9q1byxQRVYdOI0moH8g",
         "plus_code" : {
            "compound_code" : "RWCC+WM Deretepe, Kabaoğlu Mahallesi, İzmit/Kocaeli, Turkey",
            "global_code" : "8GGFRWCC+WM"
         },
         "types" : [ "establishment", "point_of_interest", "university" ]
      },
      {
         "address_components" : [
            {
               "long_name" : "Kabaoğlu Mahallesi",
               "short_name" : "Kabaoğlu Mahallesi",
               "types" : [ "administrative_area_level_4", "political" ]
            },
            {
               "long_name" : "İzmit",
               "short_name" : "İzmit",
               "types" : [ "administrative_area_level_2", "political" ]
            },
            {
               "long_name" : "Kocaeli",
               "short_name" : "Kocaeli",
               "types" : [ "administrative_area_level_1", "political" ]
            },
            {
               "long_name" : "Turkey",
               "short_name" : "TR",
               "types" : [ "country", "political" ]
            },
            {
               "long_name" : "41000",
               "short_name" : "41000",
               "types" : [ "postal_code" ]
            }
         ],
         "formatted_address" : "Kabaoğlu Mahallesi, 41000 İzmit/Kocaeli, Turkey",
         "geometry" : {
            "bounds" : {
               "northeast" : {
                  "lat" : 40.8372698,
                  "lng" : 29.9549829
               },
               "southwest" : {
                  "lat" : 40.7829559,
                  "lng" : 29.909588
               }
            },
            "location" : {
               "lat" : 40.8153455,
               "lng" : 29.9335779
            },
            "location_type" : "APPROXIMATE",
            "viewport" : {
               "northeast" : {
                  "lat" : 40.8372698,
                  "lng" : 29.9549829
               },
               "southwest" : {
                  "lat" : 40.7829559,
                  "lng" : 29.909588
               }
            }
         },
         "place_id" : "ChIJh_CYlVhOyxQRTnv2hYyW0D4",
         "types" : [ "administrative_area_level_4", "political" ]
      },
      {
         "address_components" : [
            {
               "long_name" : "41000",
               "short_name" : "41000",
               "types" : [ "postal_code" ]
            },
            {
               "long_name" : "İzmit",
               "short_name" : "İzmit",
               "types" : [ "administrative_area_level_2", "political" ]
            },
            {
               "long_name" : "Kocaeli",
               "short_name" : "Kocaeli",
               "types" : [ "administrative_area_level_1", "political" ]
            },
            {
               "long_name" : "Turkey",
               "short_name" : "TR",
               "types" : [ "country", "political" ]
            }
         ],
         "formatted_address" : "41000 İzmit/Kocaeli, Turkey",
         "geometry" : {
            "bounds" : {
               "northeast" : {
                  "lat" : 40.971557,
                  "lng" : 30.2639339
               },
               "southwest" : {
                  "lat" : 40.753329,
                  "lng" : 29.8561059
               }
            },
            "location" : {
               "lat" : 40.8506635,
               "lng" : 30.0202964
            },
            "location_type" : "APPROXIMATE",
            "viewport" : {
               "northeast" : {
                  "lat" : 40.971557,
                  "lng" : 30.2639339
               },
               "southwest" : {
                  "lat" : 40.753329,
                  "lng" : 29.8561059
               }
            }
         },
         "place_id" : "ChIJueU-xu5CyxQR5m80DUFwB_4",
         "types" : [ "postal_code" ]
      },
      {
         "address_components" : [
            {
               "long_name" : "İzmit",
               "short_name" : "İzmit",
               "types" : [ "administrative_area_level_2", "political" ]
            },
            {
               "long_name" : "Kocaeli",
               "short_name" : "Kocaeli",
               "types" : [ "administrative_area_level_1", "political" ]
            },
            {
               "long_name" : "Turkey",
               "short_name" : "TR",
               "types" : [ "country", "political" ]
            }
         ],
         "formatted_address" : "İzmit/Kocaeli, Turkey",
         "geometry" : {
            "bounds" : {
               "northeast" : {
                  "lat" : 40.971557,
                  "lng" : 30.2639339
               },
               "southwest" : {
                  "lat" : 40.720553,
                  "lng" : 29.8541681
               }
            },
            "location" : {
               "lat" : 40.8506635,
               "lng" : 30.0202964
            },
            "location_type" : "APPROXIMATE",
            "viewport" : {
               "northeast" : {
                  "lat" : 40.971557,
                  "lng" : 30.2639339
               },
               "southwest" : {
                  "lat" : 40.720553,
                  "lng" : 29.8541681
               }
            }
         },
         "place_id" : "ChIJL2DfPLZQyxQRitx6sY9PIGU",
         "types" : [ "administrative_area_level_2", "political" ]
      },
      {
         "address_components" : [
            {
               "long_name" : "Kocaeli",
               "short_name" : "Kocaeli",
               "types" : [ "administrative_area_level_1", "political" ]
            },
            {
               "long_name" : "Turkey",
               "short_name" : "TR",
               "types" : [ "country", "political" ]
            }
         ],
         "formatted_address" : "Kocaeli, Turkey",
         "geometry" : {
            "bounds" : {
               "northeast" : {
                  "lat" : 41.20976,
                  "lng" : 30.367743
               },
               "southwest" : {
                  "lat" : 40.521065,
                  "lng" : 29.3331261
               }
            },
            "location" : {
               "lat" : 40.8532704,
               "lng" : 29.8815203
            },
            "location_type" : "APPROXIMATE",
            "viewport" : {
               "northeast" : {
                  "lat" : 41.20976,
                  "lng" : 30.367743
               },
               "southwest" : {
                  "lat" : 40.521065,
                  "lng" : 29.3331261
               }
            }
         },
         "place_id" : "ChIJQ8zKb5QgyxQRWdhW642zLKg",
         "types" : [ "administrative_area_level_1", "political" ]
      },
      {
         "address_components" : [
            {
               "long_name" : "Turkey",
               "short_name" : "TR",
               "types" : [ "country", "political" ]
            }
         ],
         "formatted_address" : "Turkey",
         "geometry" : {
            "bounds" : {
               "northeast" : {
                  "lat" : 42.3666999,
                  "lng" : 44.8178449
               },
               "southwest" : {
                  "lat" : 35.808592,
                  "lng" : 25.5377
               }
            },
            "location" : {
               "lat" : 38.963745,
               "lng" : 35.243322
            },
            "location_type" : "APPROXIMATE",
            "viewport" : {
               "northeast" : {
                  "lat" : 42.3666999,
                  "lng" : 44.8178449
               },
               "southwest" : {
                  "lat" : 35.808592,
                  "lng" : 25.5377
               }
            }
         },
         "place_id" : "ChIJcSZPllwVsBQRKl9iKtTb2UA",
         "types" : [ "country", "political" ]
      }
   ],
   "status" : "OK"
}
