{
   "plus_code" : {
      "compound_code" : "VXQF+C7 Washington, DC, USA",
      "global_code" : "87C4VXQF+C7"
   },
   "results" : [
      {
         "address_components" : [
            {
               "long_name" : "1100",
               "short_name" : "1100",
               "types" : [ "street_number" ]
            },
            {
               "long_name" : "Jefferson Davis Highway",
               "short_name" : "Jefferson Davis Hwy",
               "types" : [ "route" ]
            },
            {
               "long_name" : "Southwest Washington",
               "short_name" : "Southwest Washington",
               "types" : [ "neighborhood", "political" ]
            },
            {
               "long_name" : "Washington",
               "short_name" : "Washington",
               "types" : [ "locality", "political" ]
            },
            {
               "long_name" : "District of Columbia",
               "short_name" : "DC",
               "types" : [ "administrative_area_level_1", "political" ]
            },
            {
               "long_name" : "United States",
               "short_name" : "US",
               "types" : [ "country", "political" ]
            },
            {
               "long_name" : "20560",
               "short_name" : "20560",
               "types" : [ "postal_code" ]
            }
         ],
         "formatted_address" : "1100 Jefferson Davis Hwy, Washington, DC 20560, USA",
         "geometry" : {
            "bounds" : {
               "northeast" : {
                  "lat" : 38.8886202,
                  "lng" : -77.0267956
               },
               "southwest" : {
                  "lat" : 38.8885101,
                  "lng" : -77.02693739999999
               }
            },
            "location" : {
               "lat" : 38.888573,
               "lng" : -77.02687279999999
            },
            "location_type" : "ROOFTOP",
            "viewport" : {
               "northeast" : {
                  "lat" : 38.88991413029151,
                  "lng" : -77.0255175197085
               },
               "southwest" : {
                  "lat" : 38.88721616970851,
                  "lng" : -77.02821548029151
               }
            }
         },
         "place_id" : "ChIJgd78F5y3t4kRXuSK0mm_wKc",
         "types" : [ "premise" ]
      },
      {
         "address_components" : [
            {
               "long_name" : "1100",
               "short_name" : "1100",
               "types" : [ "street_number" ]
            },
            {
               "long_name" : "Jefferson Drive Southwest",
               "short_name" : "Jefferson Dr SW",
               "types" : [ "route" ]
            },
            {
               "long_name" : "Southwest Washington",
               "short_name" : "Southwest Washington",
               "types" : [ "neighborhood", "political" ]
            },
            {
               "long_name" : "Washington",
               "short_name" : "Washington",
               "types" : [ "locality", "political" ]
            },
            {
               "long_name" : "District of Columbia",
               "short_name" : "DC",
               "types" : [ "administrative_area_level_1", "political" ]
            },
            {
               "long_name" : "United States",
               "short_name" : "US",
               "types" : [ "country", "political" ]
            },
            {
               "long_name" : "20560",
               "short_name" : "20560",
               "types" : [ "postal_code" ]
            }
         ],
         "formatted_address" : "1100 Jefferson Dr SW, Washington, DC 20560, USA",
         "geometry" : {
            "location" : {
               "lat" : 38.8885644,
               "lng" : -77.0268677
            },
            "location_type" : "ROOFTOP",
            "viewport" : {
               "northeast" : {
                  "lat" : 38.8899133802915,
                  "lng" : -77.02551871970849
               },
               "southwest" : {
                  "lat" : 38.8872154197085,
                  "lng" : -77.02821668029149
               }
            }
         },
         "place_id" : "ChIJ7VbiF5y3t4kRXYr7HWhhmfY",
         "plus_code" : {
            "compound_code" : "VXQF+C7 Washington, District of Columbia, United States",
            "global_code" : "87C4VXQF+C7"
         },
         "types" : [ "art_gallery", "establishment", "museum", "point_of_interest" ]
      },
      {
         "address_components" : [
            {
               "long_name" : "1100",
               "short_name" : "1100",
               "types" : [ "street_number" ]
            },
            {
               "long_name" : "Jefferson Drive Southwest",
               "short_name" : "Jefferson Dr SW",
               "types" : [ "route" ]
            },
            {
               "long_name" : "Southwest Washington",
               "short_name" : "Southwest Washington",
               "types" : [ "neighborhood", "political" ]
            },
            {
               "long_name" : "Washington",
               "short_name" : "Washington",
               "types" : [ "locality", "political" ]
            },
            {
               "long_name" : "District of Columbia",
               "short_name" : "DC",
               "types" : [ "administrative_area_level_1", "political" ]
            },
            {
               "long_name" : "United States",
               "short_name" : "US",
               "types" : [ "country", "political" ]
            },
            {
               "long_name" : "20560",
               "short_name" : "20560",
               "types" : [ "postal_code" ]
            }
         ],
         "formatted_address" : "1100 Jefferson Dr SW, Washington, DC 20560, USA",
         "geometry" : {
            "location" : {
               "lat" : 38.8885625,
               "lng" : -77.02688309999999
            },
            "location_type" : "ROOFTOP",
            "viewport" : {
               "northeast" : {
                  "lat" : 38.8899114802915,
                  "lng" : -77.02553411970848
               },
               "southwest" : {
                  "lat" : 38.8872135197085,
                  "lng" : -77.0282320802915
               }
            }
         },
         "place_id" : "ChIJW_biF5y3t4kRrpjiM4DYar8",
         "plus_code" : {
            "compound_code" : "VXQF+C6 Washington, District of Columbia, United States",
            "global_code" : "87C4VXQF+C6"
         },
         "types" : [ "street_address" ]
      },
      {
         "address_components" : [
            {
               "long_name" : "1086",
               "short_name" : "1086",
               "types" : [ "street_number" ]
            },
            {
               "long_name" : "Jefferson Drive Southwest",
               "short_name" : "Jefferson Dr SW",
               "types" : [ "route" ]
            },
            {
               "long_name" : "Washington",
               "short_name" : "Washington",
               "types" : [ "locality", "political" ]
            },
            {
               "long_name" : "District of Columbia",
               "short_name" : "DC",
               "types" : [ "administrative_area_level_1", "political" ]
            },
            {
               "long_name" : "United States",
               "short_name" : "US",
               "types" : [ "country", "political" ]
            },
            {
               "long_name" : "20560",
               "short_name" : "20560",
               "types" : [ "postal_code" ]
            }
         ],
         "formatted_address" : "1086 Jefferson Dr SW, Washington, DC 20560, USA",
         "geometry" : {
            "location" : {
               "lat" : 38.8888729,
               "lng" : -77.0270359
            },
            "location_type" : "RANGE_INTERPOLATED",
            "viewport" : {
               "northeast" : {
                  "lat" : 38.8902218802915,
                  "lng" : -77.02568691970851
               },
               "southwest" : {
                  "lat" : 38.8875239197085,
                  "lng" : -77.02838488029151
               }
            }
         },
         "place_id" : "Ei8xMDg2IEplZmZlcnNvbiBEciBTVywgV2FzaGluZ3RvbiwgREMgMjA1NjAsIFVTQSIbEhkKFAoSCc2mFhmct7eJEQzXpK0bx8P7EL4I",
         "types" : [ "street_address" ]
      },
      {
         "address_components" : [
            {
               "long_name" : "20560",
               "short_name" : "20560",
               "types" : [ "postal_code" ]
            },
            {
               "long_name" : "Washington",
               "short_name" : "Washington",
               "types" : [ "locality", "political" ]
            },
            {
               "long_name" : "District of Columbia",
               "short_name" : "DC",
               "types" : [ "administrative_area_level_1", "political" ]
            },
            {
               "long_name" : "United States",
               "short_name" : "US",
               "types" : [ "country", "political" ]
            }
         ],
         "formatted_address" : "Washington, DC 20560, USA",
         "geometry" : {
            "bounds" : {
               "northeast" : {
                  "lat" : 38.8920929,
                  "lng" : -77.0239629
               },
               "southwest" : {
                  "lat" : 38.8847661,
                  "lng" : -77.033653
               }
            },
            "location" : {
               "lat" : 38.8884795,
               "lng" : -77.02622049999999
            },
            "location_type" : "APPROXIMATE",
            "viewport" : {
               "northeast" : {
                  "lat" : 38.8920929,
                  "lng" : -77.0239629
               },
               "southwest" : {
                  "lat" : 38.8847661,
                  "lng" : -77.033653
               }
            }
         },
         "place_id" : "ChIJY05Mu4-3t4kRHpbaR-rV9_4",
         "types" : [ "postal_code" ]
      },
      {
         "address_components" : [
            {
               "long_name" : "Southwest Washington",
               "short_name" : "Southwest Washington",
               "types" : [ "neighborhood", "political" ]
            },
            {
               "long_name" : "Washington",
               "short_name" : "Washington",
               "types" : [ "locality", "political" ]
            },
            {
               "long_name" : "District of Columbia",
               "short_name" : "DC",
               "types" : [ "administrative_area_level_1", "political" ]
            },
            {
               "long_name" : "United States",
               "short_name" : "US",
               "types" : [ "country", "political" ]
            }
         ],
         "formatted_address" : "Southwest Washington, Washington, DC, USA",
         "geometry" : {
            "bounds" : {
               "northeast" : {
                  "lat" : 38.88976350000001,
                  "lng" : -77.0012856
               },
               "southwest" : {
                  "lat" : 38.7923928,
                  "lng" : -77.0609379
               }
            },
            "location" : {
               "lat" : 38.8738632,
               "lng" : -77.0219019
            },
            "location_type" : "APPROXIMATE",
            "viewport" : {
               "northeast" : {
                  "lat" : 38.88976350000001,
                  "lng" : -77.0012856
               },
               "southwest" : {
                  "lat" : 38.7923928,
                  "lng" : -77.0609379
               }
            }
         },
         "place_id" : "ChIJAzcciE-3t4kRJmtjySqHHk8",
         "types" : [ "neighborhood", "political" ]
      },
      {
         "address_components" : [
            {
               "long_name" : "Washington",
               "short_name" : "Washington",
               "types" : [ "locality", "political" ]
            },
            {
               "long_name" : "District of Columbia",
               "short_name" : "District of Columbia",
               "types" : [ "administrative_area_level_2", "political" ]
            },
            {
               "long_name" : "District of Columbia",
               "short_name" : "DC",
               "types" : [ "administrative_area_level_1", "political" ]
            },
            {
               "long_name" : "United States",
               "short_name" : "US",
               "types" : [ "country", "political" ]
            }
         ],
         "formatted_address" : "Washington, DC, USA",
         "geometry" : {
            "bounds" : {
               "northeast" : {
                  "lat" : 38.995548,
                  "lng" : -76.90939299999999
               },
               "southwest" : {
                  "lat" : 38.7916449,
                  "lng" : -77.119759
               }
            },
            "location" : {
               "lat" : 38.9071923,
               "lng" : -77.03687069999999
            },
            "location_type" : "APPROXIMATE",
            "viewport" : {
               "northeast" : {
                  "lat" : 38.995548,
                  "lng" : -76.90939299999999
               },
               "southwest" : {
                  "lat" : 38.7916449,
                  "lng" : -77.119759
               }
            }
         },
         "place_id" : "ChIJW-T2Wt7Gt4kRKl2I1CJFUsI",
         "types" : [ "locality", "political" ]
      },
      {
         "address_components" : [
            {
               "long_name" : "District of Columbia",
               "short_name" : "District of Columbia",
               "types" : [ "administrative_area_level_1", "political" ]
            },
            {
               "long_name" : "United States",
               "short_name" : "US",
               "types" : [ "country", "political" ]
            }
         ],
         "formatted_address" : "District of Columbia, USA",
         "geometry" : {
            "bounds" : {
               "northeast" : {
                  "lat" : 38.995548,
                  "lng" : -76.90939299999999
               },
               "southwest" : {
                  "lat" : 38.7916449,
                  "lng" : -77.119759
               }
            },
            "location" : {
               "lat" : 38.9059849,
               "lng" : -77.03341790000002
            },
            "location_type" : "APPROXIMATE",
            "viewport" : {
               "northeast" : {
                  "lat" : 38.995548,
                  "lng" : -76.90939299999999
               },
               "southwest" : {
                  "lat" : 38.7916449,
                  "lng" : -77.119759
               }
            }
         },
         "place_id" : "ChIJW-T2Wt7Gt4kRmKFUAsCO4tY",
         "types" : [ "administrative_area_level_1", "political" ]
      },
      {
         "address_components" : [
            {
               "long_name" : "United States",
               "short_name" : "US",
               "types" : [ "country", "political" ]
            }
         ],
         "formatted_address" : "United States",
         "geometry" : {
            "bounds" : {
               "northeast" : {
                  "lat" : 71.5388001,
                  "lng" : -66.885417
               },
               "southwest" : {
                  "lat" : 18.7763,
                  "lng" : 170.5957
               }
            },
            "location" : {
               "lat" : 37.09024,
               "lng" : -95.712891
            },
            "location_type" : "APPROXIMATE",
            "viewport" : {
               "northeast" : {
                  "lat" : 71.5388001,
                  "lng" : -66.885417
               },
               "southwest" : {
                  "lat" : 18.7763,
                  "lng" : 170.5957
               }
            }
         },
         "place_id" : "ChIJCzYy5IS16lQRQrfeQ5K5Oxw",
         "types" : [ "country", "political" ]
      }
   ],
   "status" : "OK"
}
