{
   "plus_code" : {
      "compound_code" : "X6QJ+P2 Mainz, Germany",
      "global_code" : "8FXCX6QJ+P2"
   },
   "results" : [
      {
         "address_components" : [
            {
               "long_name" : "10",
               "short_name" : "10",
               "types" : [ "street_number" ]
            },
            {
               "long_name" : "Ackermannweg",
               "short_name" : "Ackermannweg",
               "types" : [ "route" ]
            },
            {
               "long_name" : "Mainz",
               "short_name" : "MZ",
               "types" : [ "locality", "political" ]
            },
            {
               "long_name" : "Rheinland-Pfalz",
               "short_name" : "RP",
               "types" : [ "administrative_area_level_1", "political" ]
            },
            {
               "long_name" : "Germany",
               "short_name" : "DE",
               "types" : [ "country", "political" ]
            },
            {
               "long_name" : "55128",
               "short_name" : "55128",
               "types" : [ "postal_code" ]
            }
         ],
         "formatted_address" : "Ackermannweg 10, 55128 Mainz, Germany",
         "geometry" : {
            "location" : {
               "lat" : 49.98927,
               "lng" : 8.23006
            },
            "location_type" : "ROOFTOP",
            "viewport" : {
               "northeast" : {
                  "lat" : 49.99061898029149,
                  "lng" : 8.231408980291503
               },
               "southwest" : {
                  "lat" : 49.98792101970849,
                  "lng" : 8.228711019708498
               }
            }
         },
         "place_id" : "ChIJ6YdaTbmWvUcR2aa2r97ycS8",
         "plus_code" : {
            "compound_code" : "X6QJ+P2 Mainz, Germany",
            "global_code" : "8FXCX6QJ+P2"
         },
         "types" : [ "establishment", "point_of_interest" ]
      },
      {
         "address_components" : [
            {
               "long_name" : "10A",
               "short_name" : "10A",
               "types" : [ "street_number" ]
            },
            {
               "long_name" : "Ackermannweg",
               "short_name" : "Ackermannweg",
               "types" : [ "route" ]
            },
            {
               "long_name" : "Gonsenheim",
               "short_name" : "Gonsenheim",
               "types" : [ "political", "sublocality", "sublocality_level_1" ]
            },
            {
               "long_name" : "Mainz",
               "short_name" : "MZ",
               "types" : [ "locality", "political" ]
            },
            {
               "long_name" : "Rheinland-Pfalz",
               "short_name" : "RP",
               "types" : [ "administrative_area_level_1", "political" ]
            },
            {
               "long_name" : "Germany",
               "short_name" : "DE",
               "types" : [ "country", "political" ]
            },
            {
               "long_name" : "55128",
               "short_name" : "55128",
               "types" : [ "postal_code" ]
            }
         ],
         "formatted_address" : "Ackermannweg 10A, 55128 Mainz, Germany",
         "geometry" : {
            "location" : {
               "lat" : 49.98927,
               "lng" : 8.23006
            },
            "location_type" : "ROOFTOP",
            "viewport" : {
               "northeast" : {
                  "lat" : 49.99061898029149,
                  "lng" : 8.231408980291503
               },
               "southwest" : {
                  "lat" : 49.98792101970849,
                  "lng" : 8.228711019708498
               }
            }
         },
         "place_id" : "ChIJ6YdaTbmWvUcR0KF2JvrzPUg",
         "plus_code" : {
            "compound_code" : "X6QJ+P2 Mainz, Germany",
            "global_code" : "8FXCX6QJ+P2"
         },
         "types" : [ "street_address" ]
      },
      {
         "address_components" : [
            {
               "long_name" : "10",
               "short_name" : "10",
               "types" : [ "street_number" ]
            },
            {
               "long_name" : "Ackermannweg",
               "short_name" : "Ackermannweg",
               "types" : [ "route" ]
            },
            {
               "long_name" : "Mainz",
               "short_name" : "MZ",
               "types" : [ "locality", "political" ]
            },
            {
               "long_name" : "Germany",
               "short_name" : "DE",
               "types" : [ "country", "political" ]
            },
            {
               "long_name" : "55128",
               "short_name" : "55128",
               "types" : [ "postal_code" ]
            }
         ],
         "formatted_address" : "Ackermannweg 10, 55128 Mainz, Germany",
         "geometry" : {
            "location" : {
               "lat" : 49.9885208,
               "lng" : 8.2304867
            },
            "location_type" : "RANGE_INTERPOLATED",
            "viewport" : {
               "northeast" : {
                  "lat" : 49.9898697802915,
                  "lng" : 8.231835680291502
               },
               "southwest" : {
                  "lat" : 49.9871718197085,
                  "lng" : 8.229137719708497
               }
            }
         },
         "place_id" : "EilBY2tlcm1hbm53ZWcgMTAsIDU1MTI4IE1haW56LCBEZXV0c2NobGFuZCIaEhgKFAoSCbNQdTi5lr1HEaqD86yNu8noEAo",
         "types" : [ "street_address" ]
      },
      {
         "address_components" : [
            {
               "long_name" : "55128",
               "short_name" : "55128",
               "types" : [ "postal_code" ]
            },
            {
               "long_name" : "Mainz",
               "short_name" : "MZ",
               "types" : [ "locality", "political" ]
            },
            {
               "long_name" : "Rhineland-Palatinate",
               "short_name" : "RP",
               "types" : [ "administrative_area_level_1", "political" ]
            },
            {
               "long_name" : "Germany",
               "short_name" : "DE",
               "types" : [ "country", "political" ]
            }
         ],
         "formatted_address" : "55128 Mainz, Germany",
         "geometry" : {
            "bounds" : {
               "northeast" : {
                  "lat" : 49.99678489999999,
                  "lng" : 8.265998
               },
               "southwest" : {
                  "lat" : 49.964261,
                  "lng" : 8.195921
               }
            },
            "location" : {
               "lat" : 49.9783406,
               "lng" : 8.239082999999999
            },
            "location_type" : "APPROXIMATE",
            "viewport" : {
               "northeast" : {
                  "lat" : 49.99678489999999,
                  "lng" : 8.265998
               },
               "southwest" : {
                  "lat" : 49.964261,
                  "lng" : 8.195921
               }
            }
         },
         "place_id" : "ChIJdy94Q7aWvUcRkKvCXtjUIhw",
         "types" : [ "postal_code" ]
      },
      {
         "address_components" : [
            {
               "long_name" : "Mainz",
               "short_name" : "Mainz",
               "types" : [ "locality", "political" ]
            },
            {
               "long_name" : "Darmstadt",
               "short_name" : "DA",
               "types" : [ "administrative_area_level_2", "political" ]
            },
            {
               "long_name" : "Rhineland-Palatinate",
               "short_name" : "RP",
               "types" : [ "administrative_area_level_1", "political" ]
            },
            {
               "long_name" : "Germany",
               "short_name" : "DE",
               "types" : [ "country", "political" ]
            }
         ],
         "formatted_address" : "Mainz, Germany",
         "geometry" : {
            "bounds" : {
               "northeast" : {
                  "lat" : 50.0353212,
                  "lng" : 8.343079299999999
               },
               "southwest" : {
                  "lat" : 49.8954528,
                  "lng" : 8.141981899999999
               }
            },
            "location" : {
               "lat" : 49.9928617,
               "lng" : 8.247252599999999
            },
            "location_type" : "APPROXIMATE",
            "viewport" : {
               "northeast" : {
                  "lat" : 50.0353212,
                  "lng" : 8.343079299999999
               },
               "southwest" : {
                  "lat" : 49.8954528,
                  "lng" : 8.141981899999999
               }
            }
         },
         "place_id" : "ChIJeRPfMy6RvUcRoBvbENXUIgQ",
         "types" : [ "locality", "political" ]
      },
      {
         "address_components" : [
            {
               "long_name" : "Rhineland-Palatinate",
               "short_name" : "Rhineland-Palatinate",
               "types" : [ "administrative_area_level_1", "political" ]
            },
            {
               "long_name" : "Germany",
               "short_name" : "DE",
               "types" : [ "country", "political" ]
            }
         ],
         "formatted_address" : "Rhineland-Palatinate, Germany",
         "geometry" : {
            "bounds" : {
               "northeast" : {
                  "lat" : 50.9423053,
                  "lng" : 8.5083135
               },
               "southwest" : {
                  "lat" : 48.966765,
                  "lng" : 6.112340000000001
               }
            },
            "location" : {
               "lat" : 50.118346,
               "lng" : 7.3089527
            },
            "location_type" : "APPROXIMATE",
            "viewport" : {
               "northeast" : {
                  "lat" : 50.9423053,
                  "lng" : 8.5083135
               },
               "southwest" : {
                  "lat" : 48.966765,
                  "lng" : 6.112340000000001
               }
            }
         },
         "place_id" : "ChIJY4Hac2nMl0cR_M8OuHuSeBc",
         "types" : [ "administrative_area_level_1", "political" ]
      },
      {
         "address_components" : [
            {
               "long_name" : "Germany",
               "short_name" : "DE",
               "types" : [ "country", "political" ]
            }
         ],
         "formatted_address" : "Germany",
         "geometry" : {
            "bounds" : {
               "northeast" : {
                  "lat" : 55.0815,
                  "lng" : 15.0418962
               },
               "southwest" : {
                  "lat" : 47.2701115,
                  "lng" : 5.8663425
               }
            },
            "location" : {
               "lat" : 51.165691,
               "lng" : 10.451526
            },
            "location_type" : "APPROXIMATE",
            "viewport" : {
               "northeast" : {
                  "lat" : 55.0815,
                  "lng" : 15.0418962
               },
               "southwest" : {
                  "lat" : 47.2701115,
                  "lng" : 5.8663425
               }
            }
         },
         "place_id" : "ChIJa76xwh5ymkcRW-WRjmtd6HU",
         "types" : [ "country", "political" ]
      }
   ],
   "status" : "OK"
}
