{
   "plus_code" : {
      "compound_code" : "G769+6J Oxford, OH, USA",
      "global_code" : "86FQG769+6J"
   },
   "results" : [
      {
         "address_components" : [
            {
               "long_name" : "501",
               "short_name" : "501",
               "types" : [ "street_number" ]
            },
            {
               "long_name" : "East High Street",
               "short_name" : "E High St",
               "types" : [ "route" ]
            },
            {
               "long_name" : "Oxford",
               "short_name" : "Oxford",
               "types" : [ "locality", "political" ]
            },
            {
               "long_name" : "Oxford Township",
               "short_name" : "Oxford Township",
               "types" : [ "administrative_area_level_3", "political" ]
            },
            {
               "long_name" : "Butler County",
               "short_name" : "Butler County",
               "types" : [ "administrative_area_level_2", "political" ]
            },
            {
               "long_name" : "Ohio",
               "short_name" : "OH",
               "types" : [ "administrative_area_level_1", "political" ]
            },
            {
               "long_name" : "United States",
               "short_name" : "US",
               "types" : [ "country", "political" ]
            },
            {
               "long_name" : "45056",
               "short_name" : "45056",
               "types" : [ "postal_code" ]
            }
         ],
         "formatted_address" : "501 E High St, Oxford, OH 45056, USA",
         "geometry" : {
            "location" : {
               "lat" : 39.5105334,
               "lng" : -84.73087679999999
            },
            "location_type" : "ROOFTOP",
            "viewport" : {
               "northeast" : {
                  "lat" : 39.5118823802915,
                  "lng" : -84.72952781970849
               },
               "southwest" : {
                  "lat" : 39.5091844197085,
                  "lng" : -84.7322257802915
               }
            }
         },
         "place_id" : "ChIJcewl0MQiQIgRD78SLK6k5_w",
         "plus_code" : {
            "compound_code" : "G769+6J Oxford, Oxford Township, OH, United States",
            "global_code" : "86FQG769+6J"
         },
         "types" : [ "establishment", "point_of_interest", "university" ]
      },
      {
         "address_components" : [
            {
               "long_name" : "Pearson Hall",
               "short_name" : "Pearson Hall",
               "types" : [ "premise" ]
            },
            {
               "long_name" : "700",
               "short_name" : "700",
               "types" : [ "street_number" ]
            },
            {
               "long_name" : "East High Street",
               "short_name" : "E High St",
               "types" : [ "route" ]
            },
            {
               "long_name" : "Mile Square",
               "short_name" : "Mile Square",
               "types" : [ "neighborhood", "political" ]
            },
            {
               "long_name" : "Oxford",
               "short_name" : "Oxford",
               "types" : [ "locality", "political" ]
            },
            {
               "long_name" : "Oxford Township",
               "short_name" : "Oxford Township",
               "types" : [ "administrative_area_level_3", "political" ]
            },
            {
               "long_name" : "Butler County",
               "short_name" : "Butler County",
               "types" : [ "administrative_area_level_2", "political" ]
            },
            {
               "long_name" : "Ohio",
               "short_name" : "OH",
               "types" : [ "administrative_area_level_1", "political" ]
            },
            {
               "long_name" : "United States",
               "short_name" : "US",
               "types" : [ "country", "political" ]
            },
            {
               "long_name" : "45056",
               "short_name" : "45056",
               "types" : [ "postal_code" ]
            }
         ],
         "formatted_address" : "Pearson Hall, 700 E High St, Oxford, OH 45056, USA",
         "geometry" : {
            "bounds" : {
               "northeast" : {
                  "lat" : 39.5114647,
                  "lng" : -84.73098639999999
               },
               "southwest" : {
                  "lat" : 39.5105836,
                  "lng" : -84.73165999999999
               }
            },
            "location" : {
               "lat" : 39.5110032,
               "lng" : -84.731309
            },
            "location_type" : "ROOFTOP",
            "viewport" : {
               "northeast" : {
                  "lat" : 39.51237313029149,
                  "lng" : -84.7299742197085
               },
               "southwest" : {
                  "lat" : 39.5096751697085,
                  "lng" : -84.7326721802915
               }
            }
         },
         "place_id" : "ChIJU9qVC6A9QIgR0fL8mSlXDJI",
         "types" : [ "premise" ]
      },
      {
         "address_components" : [
            {
               "long_name" : "800",
               "short_name" : "800",
               "types" : [ "street_number" ]
            },
            {
               "long_name" : "East High Street",
               "short_name" : "E High St",
               "types" : [ "route" ]
            },
            {
               "long_name" : "Oxford",
               "short_name" : "Oxford",
               "types" : [ "locality", "political" ]
            },
            {
               "long_name" : "Oxford Township",
               "short_name" : "Oxford Township",
               "types" : [ "administrative_area_level_3", "political" ]
            },
            {
               "long_name" : "Butler County",
               "short_name" : "Butler County",
               "types" : [ "administrative_area_level_2", "political" ]
            },
            {
               "long_name" : "Ohio",
               "short_name" : "OH",
               "types" : [ "administrative_area_level_1", "political" ]
            },
            {
               "long_name" : "United States",
               "short_name" : "US",
               "types" : [ "country", "political" ]
            },
            {
               "long_name" : "45056",
               "short_name" : "45056",
               "types" : [ "postal_code" ]
            }
         ],
         "formatted_address" : "800 E High St, Oxford, OH 45056, USA",
         "geometry" : {
            "location" : {
               "lat" : 39.5103909,
               "lng" : -84.730583
            },
            "location_type" : "ROOFTOP",
            "viewport" : {
               "northeast" : {
                  "lat" : 39.5117398802915,
                  "lng" : -84.7292340197085
               },
               "southwest" : {
                  "lat" : 39.5090419197085,
                  "lng" : -84.73193198029151
               }
            }
         },
         "place_id" : "ChIJmfVidaA9QIgRJfZEkfCGl_k",
         "plus_code" : {
            "compound_code" : "G769+5Q Oxford, Oxford Township, OH, United States",
            "global_code" : "86FQG769+5Q"
         },
         "types" : [ "street_address" ]
      },
      {
         "address_components" : [
            {
               "long_name" : "775",
               "short_name" : "775",
               "types" : [ "street_number" ]
            },
            {
               "long_name" : "East High Street",
               "short_name" : "E High St",
               "types" : [ "route" ]
            },
            {
               "long_name" : "Oxford",
               "short_name" : "Oxford",
               "types" : [ "locality", "political" ]
            },
            {
               "long_name" : "Ohio",
               "short_name" : "OH",
               "types" : [ "administrative_area_level_1", "political" ]
            },
            {
               "long_name" : "United States",
               "short_name" : "US",
               "types" : [ "country", "political" ]
            },
            {
               "long_name" : "45056",
               "short_name" : "45056",
               "types" : [ "postal_code" ]
            }
         ],
         "formatted_address" : "775 E High St, Oxford, OH 45056, USA",
         "geometry" : {
            "location" : {
               "lat" : 39.5103325,
               "lng" : -84.73088419999999
            },
            "location_type" : "RANGE_INTERPOLATED",
            "viewport" : {
               "northeast" : {
                  "lat" : 39.51168148029149,
                  "lng" : -84.72953521970848
               },
               "southwest" : {
                  "lat" : 39.50898351970849,
                  "lng" : -84.73223318029149
               }
            }
         },
         "place_id" : "EiQ3NzUgRSBIaWdoIFN0LCBPeGZvcmQsIE9IIDQ1MDU2LCBVU0EiGxIZChQKEgnZR91xoD1AiBH6Bpm80PEfxBCHBg",
         "types" : [ "street_address" ]
      },
      {
         "address_components" : [
            {
               "long_name" : "Mile Square",
               "short_name" : "Mile Square",
               "types" : [ "neighborhood", "political" ]
            },
            {
               "long_name" : "Oxford",
               "short_name" : "Oxford",
               "types" : [ "locality", "political" ]
            },
            {
               "long_name" : "Oxford Township",
               "short_name" : "Oxford Township",
               "types" : [ "administrative_area_level_3", "political" ]
            },
            {
               "long_name" : "Butler County",
               "short_name" : "Butler County",
               "types" : [ "administrative_area_level_2", "political" ]
            },
            {
               "long_name" : "Ohio",
               "short_name" : "OH",
               "types" : [ "administrative_area_level_1", "political" ]
            },
            {
               "long_name" : "United States",
               "short_name" : "US",
               "types" : [ "country", "political" ]
            },
            {
               "long_name" : "45056",
               "short_name" : "45056",
               "types" : [ "postal_code" ]
            }
         ],
         "formatted_address" : "Mile Square, Oxford, OH 45056, USA",
         "geometry" : {
            "bounds" : {
               "northeast" : {
                  "lat" : 39.5152319,
                  "lng" : -84.73059640000001
               },
               "southwest" : {
                  "lat" : 39.5004314,
                  "lng" : -84.7495223
               }
            },
            "location" : {
               "lat" : 39.5071355,
               "lng" : -84.7367799
            },
            "location_type" : "APPROXIMATE",
            "viewport" : {
               "northeast" : {
                  "lat" : 39.5152319,
                  "lng" : -84.73059640000001
               },
               "southwest" : {
                  "lat" : 39.5004314,
                  "lng" : -84.7495223
               }
            }
         },
         "place_id" : "ChIJd5ae2g09QIgRnK6FnYrXKGo",
         "types" : [ "neighborhood", "political" ]
      },
      {
         "address_components" : [
            {
               "long_name" : "Oxford",
               "short_name" : "Oxford",
               "types" : [ "locality", "political" ]
            },
            {
               "long_name" : "Oxford Township",
               "short_name" : "Oxford Township",
               "types" : [ "administrative_area_level_3", "political" ]
            },
            {
               "long_name" : "Butler County",
               "short_name" : "Butler County",
               "types" : [ "administrative_area_level_2", "political" ]
            },
            {
               "long_name" : "Ohio",
               "short_name" : "OH",
               "types" : [ "administrative_area_level_1", "political" ]
            },
            {
               "long_name" : "United States",
               "short_name" : "US",
               "types" : [ "country", "political" ]
            },
            {
               "long_name" : "45056",
               "short_name" : "45056",
               "types" : [ "postal_code" ]
            }
         ],
         "formatted_address" : "Oxford, OH 45056, USA",
         "geometry" : {
            "bounds" : {
               "northeast" : {
                  "lat" : 39.5328013,
                  "lng" : -84.7028035
               },
               "southwest" : {
                  "lat" : 39.483243,
                  "lng" : -84.78073239999999
               }
            },
            "location" : {
               "lat" : 39.5069974,
               "lng" : -84.74523099999999
            },
            "location_type" : "APPROXIMATE",
            "viewport" : {
               "northeast" : {
                  "lat" : 39.5328013,
                  "lng" : -84.7028035
               },
               "southwest" : {
                  "lat" : 39.483243,
                  "lng" : -84.78073239999999
               }
            }
         },
         "place_id" : "ChIJM5K7Jw49QIgRzK96D3sHT2k",
         "types" : [ "locality", "political" ]
      },
      {
         "address_components" : [
            {
               "long_name" : "Oxford Township",
               "short_name" : "Oxford Township",
               "types" : [ "administrative_area_level_3", "political" ]
            },
            {
               "long_name" : "Butler County",
               "short_name" : "Butler County",
               "types" : [ "administrative_area_level_2", "political" ]
            },
            {
               "long_name" : "Ohio",
               "short_name" : "OH",
               "types" : [ "administrative_area_level_1", "political" ]
            },
            {
               "long_name" : "United States",
               "short_name" : "US",
               "types" : [ "country", "political" ]
            }
         ],
         "formatted_address" : "Oxford Township, OH, USA",
         "geometry" : {
            "bounds" : {
               "northeast" : {
                  "lat" : 39.5677559,
                  "lng" : -84.7022521
               },
               "southwest" : {
                  "lat" : 39.4773548,
                  "lng" : -84.816214
               }
            },
            "location" : {
               "lat" : 39.5130018,
               "lng" : -84.75244819999999
            },
            "location_type" : "APPROXIMATE",
            "viewport" : {
               "northeast" : {
                  "lat" : 39.5677559,
                  "lng" : -84.7022521
               },
               "southwest" : {
                  "lat" : 39.4773548,
                  "lng" : -84.816214
               }
            }
         },
         "place_id" : "ChIJF9HS3EQ9QIgRi2GJIWvPODA",
         "types" : [ "administrative_area_level_3", "political" ]
      },
      {
         "address_components" : [
            {
               "long_name" : "45056",
               "short_name" : "45056",
               "types" : [ "postal_code" ]
            },
            {
               "long_name" : "Oxford",
               "short_name" : "Oxford",
               "types" : [ "locality", "political" ]
            },
            {
               "long_name" : "Butler County",
               "short_name" : "Butler County",
               "types" : [ "administrative_area_level_2", "political" ]
            },
            {
               "long_name" : "Ohio",
               "short_name" : "OH",
               "types" : [ "administrative_area_level_1", "political" ]
            },
            {
               "long_name" : "United States",
               "short_name" : "US",
               "types" : [ "country", "political" ]
            }
         ],
         "formatted_address" : "Oxford, OH 45056, USA",
         "geometry" : {
            "bounds" : {
               "northeast" : {
                  "lat" : 39.576946,
                  "lng" : -84.6092888
               },
               "southwest" : {
                  "lat" : 39.39131,
                  "lng" : -84.8174099
               }
            },
            "location" : {
               "lat" : 39.4717184,
               "lng" : -84.75244819999999
            },
            "location_type" : "APPROXIMATE",
            "viewport" : {
               "northeast" : {
                  "lat" : 39.576946,
                  "lng" : -84.6092888
               },
               "southwest" : {
                  "lat" : 39.39131,
                  "lng" : -84.8174099
               }
            }
         },
         "place_id" : "ChIJdfzByks8QIgRAgaKdTehXv0",
         "types" : [ "postal_code" ]
      },
      {
         "address_components" : [
            {
               "long_name" : "Butler County",
               "short_name" : "Butler County",
               "types" : [ "administrative_area_level_2", "political" ]
            },
            {
               "long_name" : "Ohio",
               "short_name" : "OH",
               "types" : [ "administrative_area_level_1", "political" ]
            },
            {
               "long_name" : "United States",
               "short_name" : "US",
               "types" : [ "country", "political" ]
            }
         ],
         "formatted_address" : "Butler County, OH, USA",
         "geometry" : {
            "bounds" : {
               "northeast" : {
                  "lat" : 39.5910249,
                  "lng" : -84.332038
               },
               "southwest" : {
                  "lat" : 39.29229,
                  "lng" : -84.8194591
               }
            },
            "location" : {
               "lat" : 39.440463,
               "lng" : -84.5222189
            },
            "location_type" : "APPROXIMATE",
            "viewport" : {
               "northeast" : {
                  "lat" : 39.5910249,
                  "lng" : -84.332038
               },
               "southwest" : {
                  "lat" : 39.29229,
                  "lng" : -84.8194591
               }
            }
         },
         "place_id" : "ChIJ0z2oQpSKQIgR-S814rYmYxA",
         "types" : [ "administrative_area_level_2", "political" ]
      },
      {
         "address_components" : [
            {
               "long_name" : "Ohio",
               "short_name" : "Ohio",
               "types" : [ "administrative_area_level_1", "political" ]
            },
            {
               "long_name" : "United States",
               "short_name" : "US",
               "types" : [ "country", "political" ]
            }
         ],
         "formatted_address" : "Ohio, USA",
         "geometry" : {
            "bounds" : {
               "northeast" : {
                  "lat" : 42.327132,
                  "lng" : -80.51819999999999
               },
               "southwest" : {
                  "lat" : 38.4034229,
                  "lng" : -84.8203049
               }
            },
            "location" : {
               "lat" : 40.4172871,
               "lng" : -82.90712300000001
            },
            "location_type" : "APPROXIMATE",
            "viewport" : {
               "northeast" : {
                  "lat" : 42.327132,
                  "lng" : -80.51819999999999
               },
               "southwest" : {
                  "lat" : 38.4034229,
                  "lng" : -84.8203049
               }
            }
         },
         "place_id" : "ChIJwY5NtXrpNogRFtmfnDlkzeU",
         "types" : [ "administrative_area_level_1", "political" ]
      },
      {
         "address_components" : [
            {
               "long_name" : "United States",
               "short_name" : "US",
               "types" : [ "country", "political" ]
            }
         ],
         "formatted_address" : "United States",
         "geometry" : {
            "bounds" : {
               "northeast" : {
                  "lat" : 71.5388001,
                  "lng" : -66.885417
               },
               "southwest" : {
                  "lat" : 18.7763,
                  "lng" : 170.5957
               }
            },
            "location" : {
               "lat" : 37.09024,
               "lng" : -95.712891
            },
            "location_type" : "APPROXIMATE",
            "viewport" : {
               "northeast" : {
                  "lat" : 71.5388001,
                  "lng" : -66.885417
               },
               "southwest" : {
                  "lat" : 18.7763,
                  "lng" : 170.5957
               }
            }
         },
         "place_id" : "ChIJCzYy5IS16lQRQrfeQ5K5Oxw",
         "types" : [ "country", "political" ]
      }
   ],
   "status" : "OK"
}
