{
   "plus_code" : {
      "compound_code" : "XQJH+5G Merelbeke, Belgium",
      "global_code" : "9F25XQJH+5G"
   },
   "results" : [
      {
         "address_components" : [
            {
               "long_name" : "96",
               "short_name" : "96",
               "types" : [ "street_number" ]
            },
            {
               "long_name" : "Burgemeester van Gansberghelaan",
               "short_name" : "Burg. van Gansberghelaan",
               "types" : [ "route" ]
            },
            {
               "long_name" : "Merelbeke",
               "short_name" : "Merelbeke",
               "types" : [ "locality", "political" ]
            },
            {
               "long_name" : "Oost-Vlaanderen",
               "short_name" : "OV",
               "types" : [ "administrative_area_level_2", "political" ]
            },
            {
               "long_name" : "Vlaanderen",
               "short_name" : "Vlaanderen",
               "types" : [ "administrative_area_level_1", "political" ]
            },
            {
               "long_name" : "Belgium",
               "short_name" : "BE",
               "types" : [ "country", "political" ]
            },
            {
               "long_name" : "9820",
               "short_name" : "9820",
               "types" : [ "postal_code" ]
            }
         ],
         "formatted_address" : "Burg. van Gansberghelaan 96, 9820 Merelbeke, Belgium",
         "geometry" : {
            "location" : {
               "lat" : 50.9804659,
               "lng" : 3.7788179
            },
            "location_type" : "ROOFTOP",
            "viewport" : {
               "northeast" : {
                  "lat" : 50.98181488029149,
                  "lng" : 3.780166880291502
               },
               "southwest" : {
                  "lat" : 50.9791169197085,
                  "lng" : 3.777468919708498
               }
            }
         },
         "place_id" : "ChIJJ7Ji7uJ0w0cRh1aQTSiAVT8",
         "plus_code" : {
            "compound_code" : "XQJH+5G Merelbeke, Belgium",
            "global_code" : "9F25XQJH+5G"
         },
         "types" : [ "establishment", "point_of_interest" ]
      },
      {
         "address_components" : [
            {
               "long_name" : "96",
               "short_name" : "96",
               "types" : [ "street_number" ]
            },
            {
               "long_name" : "Burgemeester van Gansberghelaan",
               "short_name" : "Burg. van Gansberghelaan",
               "types" : [ "route" ]
            },
            {
               "long_name" : "Merelbeke",
               "short_name" : "Merelbeke",
               "types" : [ "locality", "political" ]
            },
            {
               "long_name" : "Oost-Vlaanderen",
               "short_name" : "OV",
               "types" : [ "administrative_area_level_2", "political" ]
            },
            {
               "long_name" : "Vlaanderen",
               "short_name" : "Vlaanderen",
               "types" : [ "administrative_area_level_1", "political" ]
            },
            {
               "long_name" : "Belgium",
               "short_name" : "BE",
               "types" : [ "country", "political" ]
            },
            {
               "long_name" : "9090",
               "short_name" : "9090",
               "types" : [ "postal_code" ]
            }
         ],
         "formatted_address" : "Burg. van Gansberghelaan 96, 9090 Merelbeke, Belgium",
         "geometry" : {
            "location" : {
               "lat" : 50.9804659,
               "lng" : 3.7788179
            },
            "location_type" : "ROOFTOP",
            "viewport" : {
               "northeast" : {
                  "lat" : 50.98181488029149,
                  "lng" : 3.780166880291502
               },
               "southwest" : {
                  "lat" : 50.9791169197085,
                  "lng" : 3.777468919708498
               }
            }
         },
         "place_id" : "ChIJ09FsleJ0w0cRhmr3urItqYc",
         "plus_code" : {
            "compound_code" : "XQJH+5G Merelbeke, Belgium",
            "global_code" : "9F25XQJH+5G"
         },
         "types" : [ "street_address" ]
      },
      {
         "address_components" : [
            {
               "long_name" : "96",
               "short_name" : "96",
               "types" : [ "street_number" ]
            },
            {
               "long_name" : "Burgemeester van Gansberghelaan",
               "short_name" : "Burg. van Gansberghelaan",
               "types" : [ "route" ]
            },
            {
               "long_name" : "Merelbeke",
               "short_name" : "Merelbeke",
               "types" : [ "locality", "political" ]
            },
            {
               "long_name" : "Belgium",
               "short_name" : "BE",
               "types" : [ "country", "political" ]
            },
            {
               "long_name" : "9090",
               "short_name" : "9090",
               "types" : [ "postal_code" ]
            }
         ],
         "formatted_address" : "Burg. van Gansberghelaan 96, 9090 Merelbeke, Belgium",
         "geometry" : {
            "location" : {
               "lat" : 50.98101759999999,
               "lng" : 3.7777452
            },
            "location_type" : "RANGE_INTERPOLATED",
            "viewport" : {
               "northeast" : {
                  "lat" : 50.9823665802915,
                  "lng" : 3.779094180291502
               },
               "southwest" : {
                  "lat" : 50.9796686197085,
                  "lng" : 3.776396219708498
               }
            }
         },
         "place_id" : "EjRCdXJnLiB2YW4gR2Fuc2JlcmdoZWxhYW4gOTYsIDkwOTAgTWVyZWxiZWtlLCBCZWxnacOrIhoSGAoUChIJ8ef2u-J0w0cRy6ay7IMiHekQYA",
         "types" : [ "street_address" ]
      },
      {
         "address_components" : [
            {
               "long_name" : "Merelbeke",
               "short_name" : "Merelbeke",
               "types" : [ "locality", "political" ]
            },
            {
               "long_name" : "East Flanders",
               "short_name" : "OV",
               "types" : [ "administrative_area_level_2", "political" ]
            },
            {
               "long_name" : "Flanders",
               "short_name" : "Flanders",
               "types" : [ "administrative_area_level_1", "political" ]
            },
            {
               "long_name" : "Belgium",
               "short_name" : "BE",
               "types" : [ "country", "political" ]
            },
            {
               "long_name" : "9820",
               "short_name" : "9820",
               "types" : [ "postal_code" ]
            }
         ],
         "formatted_address" : "9820 Merelbeke, Belgium",
         "geometry" : {
            "bounds" : {
               "northeast" : {
                  "lat" : 51.02740009999999,
                  "lng" : 3.7907999
               },
               "southwest" : {
                  "lat" : 50.93342,
                  "lng" : 3.6828901
               }
            },
            "location" : {
               "lat" : 50.9945496,
               "lng" : 3.7456402
            },
            "location_type" : "APPROXIMATE",
            "viewport" : {
               "northeast" : {
                  "lat" : 51.02740009999999,
                  "lng" : 3.7907999
               },
               "southwest" : {
                  "lat" : 50.93342,
                  "lng" : 3.6828901
               }
            }
         },
         "place_id" : "ChIJj6Mcdoh0w0cRuqxEF84MrAU",
         "types" : [ "locality", "political" ]
      },
      {
         "address_components" : [
            {
               "long_name" : "9820",
               "short_name" : "9820",
               "types" : [ "postal_code" ]
            },
            {
               "long_name" : "Merelbeke",
               "short_name" : "Merelbeke",
               "types" : [ "locality", "political" ]
            },
            {
               "long_name" : "East Flanders",
               "short_name" : "OV",
               "types" : [ "administrative_area_level_2", "political" ]
            },
            {
               "long_name" : "Flanders",
               "short_name" : "Flanders",
               "types" : [ "administrative_area_level_1", "political" ]
            },
            {
               "long_name" : "Belgium",
               "short_name" : "BE",
               "types" : [ "country", "political" ]
            }
         ],
         "formatted_address" : "9820 Merelbeke, Belgium",
         "geometry" : {
            "bounds" : {
               "northeast" : {
                  "lat" : 51.0274349,
                  "lng" : 3.790936099999999
               },
               "southwest" : {
                  "lat" : 50.9335006,
                  "lng" : 3.6830411
               }
            },
            "location" : {
               "lat" : 50.983807,
               "lng" : 3.7427333
            },
            "location_type" : "APPROXIMATE",
            "viewport" : {
               "northeast" : {
                  "lat" : 51.0274349,
                  "lng" : 3.790936099999999
               },
               "southwest" : {
                  "lat" : 50.9335006,
                  "lng" : 3.6830411
               }
            }
         },
         "place_id" : "ChIJUSZNbXZzw0cRfSpzTA_t_GI",
         "types" : [ "postal_code" ]
      },
      {
         "address_components" : [
            {
               "long_name" : "East Flanders",
               "short_name" : "East Flanders",
               "types" : [ "administrative_area_level_2", "political" ]
            },
            {
               "long_name" : "Flanders",
               "short_name" : "Flanders",
               "types" : [ "administrative_area_level_1", "political" ]
            },
            {
               "long_name" : "Belgium",
               "short_name" : "BE",
               "types" : [ "country", "political" ]
            }
         ],
         "formatted_address" : "East Flanders, Belgium",
         "geometry" : {
            "bounds" : {
               "northeast" : {
                  "lat" : 51.35284,
                  "lng" : 4.3301
               },
               "southwest" : {
                  "lat" : 50.72094999999999,
                  "lng" : 3.3312501
               }
            },
            "location" : {
               "lat" : 51.0362101,
               "lng" : 3.7373124
            },
            "location_type" : "APPROXIMATE",
            "viewport" : {
               "northeast" : {
                  "lat" : 51.35284,
                  "lng" : 4.3301
               },
               "southwest" : {
                  "lat" : 50.72094999999999,
                  "lng" : 3.3312501
               }
            }
         },
         "place_id" : "ChIJi-0kywZ2w0cRsIBML6uZAAI",
         "types" : [ "administrative_area_level_2", "political" ]
      },
      {
         "address_components" : [
            {
               "long_name" : "Flanders",
               "short_name" : "Flanders",
               "types" : [ "administrative_area_level_1", "political" ]
            },
            {
               "long_name" : "Belgium",
               "short_name" : "BE",
               "types" : [ "country", "political" ]
            }
         ],
         "formatted_address" : "Flanders, Belgium",
         "geometry" : {
            "bounds" : {
               "northeast" : {
                  "lat" : 51.5051,
                  "lng" : 5.911010099999999
               },
               "southwest" : {
                  "lat" : 50.68736000000001,
                  "lng" : 2.5449401
               }
            },
            "location" : {
               "lat" : 51.0108706,
               "lng" : 3.7264613
            },
            "location_type" : "APPROXIMATE",
            "viewport" : {
               "northeast" : {
                  "lat" : 51.5051,
                  "lng" : 5.911010099999999
               },
               "southwest" : {
                  "lat" : 50.68736000000001,
                  "lng" : 2.5449401
               }
            }
         },
         "place_id" : "ChIJpeuHbqSSw0cRIIBML6uZAAE",
         "types" : [ "administrative_area_level_1", "political" ]
      },
      {
         "address_components" : [
            {
               "long_name" : "Belgium",
               "short_name" : "BE",
               "types" : [ "country", "political" ]
            }
         ],
         "formatted_address" : "Belgium",
         "geometry" : {
            "bounds" : {
               "northeast" : {
                  "lat" : 51.5051449,
                  "lng" : 6.408124099999999
               },
               "southwest" : {
                  "lat" : 49.497013,
                  "lng" : 2.5240999
               }
            },
            "location" : {
               "lat" : 50.503887,
               "lng" : 4.469936
            },
            "location_type" : "APPROXIMATE",
            "viewport" : {
               "northeast" : {
                  "lat" : 51.5051449,
                  "lng" : 6.408124099999999
               },
               "southwest" : {
                  "lat" : 49.497013,
                  "lng" : 2.5240999
               }
            }
         },
         "place_id" : "ChIJl5fz7WR9wUcR8g_mObTy60c",
         "types" : [ "country", "political" ]
      }
   ],
   "status" : "OK"
}
