{
   "plus_code" : {
      "compound_code" : "99C6+V5 Daejeon, South Korea",
      "global_code" : "8Q8999C6+V5"
   },
   "results" : [
      {
         "address_components" : [
            {
               "long_name" : "44",
               "short_name" : "44",
               "types" : [ "premise" ]
            },
            {
               "long_name" : "Eoeun-dong",
               "short_name" : "Eoeun-dong",
               "types" : [ "political", "sublocality", "sublocality_level_2" ]
            },
            {
               "long_name" : "Yuseong-gu",
               "short_name" : "Yuseong-gu",
               "types" : [ "political", "sublocality", "sublocality_level_1" ]
            },
            {
               "long_name" : "Daejeon",
               "short_name" : "Daejeon",
               "types" : [ "administrative_area_level_1", "political" ]
            },
            {
               "long_name" : "South Korea",
               "short_name" : "KR",
               "types" : [ "country", "political" ]
            },
            {
               "long_name" : "305-333",
               "short_name" : "305-333",
               "types" : [ "postal_code" ]
            }
         ],
         "formatted_address" : "44 Eoeun-dong, Yuseong-gu, Daejeon, South Korea",
         "geometry" : {
            "location" : {
               "lat" : 36.3737625,
               "lng" : 127.3590307
            },
            "location_type" : "ROOFTOP",
            "viewport" : {
               "northeast" : {
                  "lat" : 36.3751114802915,
                  "lng" : 127.3603796802915
               },
               "southwest" : {
                  "lat" : 36.3724135197085,
                  "lng" : 127.3576817197085
               }
            }
         },
         "place_id" : "ChIJGxWf1rVLZTURDlKN9GxibwA",
         "plus_code" : {
            "compound_code" : "99F5+GJ Daejeon, South Korea",
            "global_code" : "8Q8999F5+GJ"
         },
         "types" : [ "street_address" ]
      },
      {
         "address_components" : [
            {
               "long_name" : "305-333",
               "short_name" : "305-333",
               "types" : [ "postal_code" ]
            },
            {
               "long_name" : "Eoeun-dong",
               "short_name" : "Eoeun-dong",
               "types" : [ "political", "sublocality", "sublocality_level_2" ]
            },
            {
               "long_name" : "Yuseong-gu",
               "short_name" : "Yuseong-gu",
               "types" : [ "political", "sublocality", "sublocality_level_1" ]
            },
            {
               "long_name" : "Daejeon",
               "short_name" : "Daejeon",
               "types" : [ "administrative_area_level_1", "political" ]
            },
            {
               "long_name" : "South Korea",
               "short_name" : "KR",
               "types" : [ "country", "political" ]
            }
         ],
         "formatted_address" : "Eoeun-dong, Yuseong-gu, Daejeon, South Korea",
         "geometry" : {
            "bounds" : {
               "northeast" : {
                  "lat" : 36.3799889,
                  "lng" : 127.3641317
               },
               "southwest" : {
                  "lat" : 36.3599816,
                  "lng" : 127.3463216
               }
            },
            "location" : {
               "lat" : 36.3706591,
               "lng" : 127.3573457
            },
            "location_type" : "APPROXIMATE",
            "viewport" : {
               "northeast" : {
                  "lat" : 36.3799889,
                  "lng" : 127.3641317
               },
               "southwest" : {
                  "lat" : 36.3599816,
                  "lng" : 127.3463216
               }
            }
         },
         "place_id" : "ChIJAe9BGrpLZTUR_tolZ_MvQCI",
         "types" : [ "postal_code" ]
      },
      {
         "address_components" : [
            {
               "long_name" : "Eoeun-dong",
               "short_name" : "Eoeun-dong",
               "types" : [ "political", "sublocality", "sublocality_level_2" ]
            },
            {
               "long_name" : "Yuseong-gu",
               "short_name" : "Yuseong-gu",
               "types" : [ "political", "sublocality", "sublocality_level_1" ]
            },
            {
               "long_name" : "Daejeon",
               "short_name" : "Daejeon",
               "types" : [ "administrative_area_level_1", "political" ]
            },
            {
               "long_name" : "South Korea",
               "short_name" : "KR",
               "types" : [ "country", "political" ]
            },
            {
               "long_name" : "305-333",
               "short_name" : "305-333",
               "types" : [ "postal_code" ]
            }
         ],
         "formatted_address" : "Eoeun-dong, Yuseong-gu, Daejeon, South Korea",
         "geometry" : {
            "bounds" : {
               "northeast" : {
                  "lat" : 36.3799889,
                  "lng" : 127.3641317
               },
               "southwest" : {
                  "lat" : 36.3599816,
                  "lng" : 127.3463216
               }
            },
            "location" : {
               "lat" : 36.369479,
               "lng" : 127.3554397
            },
            "location_type" : "APPROXIMATE",
            "viewport" : {
               "northeast" : {
                  "lat" : 36.3799889,
                  "lng" : 127.3641317
               },
               "southwest" : {
                  "lat" : 36.3599816,
                  "lng" : 127.3463216
               }
            }
         },
         "place_id" : "ChIJAe9BGrpLZTURF-pVNgZ7cjQ",
         "types" : [ "political", "sublocality", "sublocality_level_2" ]
      },
      {
         "address_components" : [
            {
               "long_name" : "Yuseong-daero",
               "short_name" : "Yuseong-daero",
               "types" : [ "political", "sublocality", "sublocality_level_4" ]
            },
            {
               "long_name" : "Yuseong-gu",
               "short_name" : "Yuseong-gu",
               "types" : [ "political", "sublocality", "sublocality_level_1" ]
            },
            {
               "long_name" : "Daejeon",
               "short_name" : "Daejeon",
               "types" : [ "administrative_area_level_1", "political" ]
            },
            {
               "long_name" : "South Korea",
               "short_name" : "KR",
               "types" : [ "country", "political" ]
            }
         ],
         "formatted_address" : "Yuseong-daero, Yuseong-gu, Daejeon, South Korea",
         "geometry" : {
            "bounds" : {
               "northeast" : {
                  "lat" : 36.4096127,
                  "lng" : 127.4044368
               },
               "southwest" : {
                  "lat" : 36.2993,
                  "lng" : 127.3129469
               }
            },
            "location" : {
               "lat" : 36.3626747,
               "lng" : 127.3514259
            },
            "location_type" : "APPROXIMATE",
            "viewport" : {
               "northeast" : {
                  "lat" : 36.4096127,
                  "lng" : 127.4044368
               },
               "southwest" : {
                  "lat" : 36.2993,
                  "lng" : 127.3129469
               }
            }
         },
         "place_id" : "ChIJWSsKeJNLZTUROALGMCuq2og",
         "types" : [ "political", "sublocality", "sublocality_level_4" ]
      },
      {
         "address_components" : [
            {
               "long_name" : "Yuseong-gu",
               "short_name" : "Yuseong-gu",
               "types" : [ "political", "sublocality", "sublocality_level_1" ]
            },
            {
               "long_name" : "Daejeon",
               "short_name" : "Daejeon",
               "types" : [ "administrative_area_level_1", "political" ]
            },
            {
               "long_name" : "South Korea",
               "short_name" : "KR",
               "types" : [ "country", "political" ]
            }
         ],
         "formatted_address" : "Yuseong-gu, Daejeon, South Korea",
         "geometry" : {
            "bounds" : {
               "northeast" : {
                  "lat" : 36.4999476,
                  "lng" : 127.4199042
               },
               "southwest" : {
                  "lat" : 36.2639453,
                  "lng" : 127.2464501
               }
            },
            "location" : {
               "lat" : 36.362216,
               "lng" : 127.3561329
            },
            "location_type" : "APPROXIMATE",
            "viewport" : {
               "northeast" : {
                  "lat" : 36.4999476,
                  "lng" : 127.4199042
               },
               "southwest" : {
                  "lat" : 36.2639453,
                  "lng" : 127.2464501
               }
            }
         },
         "place_id" : "ChIJ-xi-RgRLZTUROzFqgtTboNQ",
         "types" : [ "political", "sublocality", "sublocality_level_1" ]
      },
      {
         "address_components" : [
            {
               "long_name" : "Daejeon",
               "short_name" : "Daejeon",
               "types" : [ "administrative_area_level_1", "political" ]
            },
            {
               "long_name" : "South Korea",
               "short_name" : "KR",
               "types" : [ "country", "political" ]
            }
         ],
         "formatted_address" : "Daejeon, South Korea",
         "geometry" : {
            "bounds" : {
               "northeast" : {
                  "lat" : 36.4999476,
                  "lng" : 127.5590436
               },
               "southwest" : {
                  "lat" : 36.1833708,
                  "lng" : 127.2464501
               }
            },
            "location" : {
               "lat" : 36.3504119,
               "lng" : 127.3845475
            },
            "location_type" : "APPROXIMATE",
            "viewport" : {
               "northeast" : {
                  "lat" : 36.4999476,
                  "lng" : 127.5590436
               },
               "southwest" : {
                  "lat" : 36.1833708,
                  "lng" : 127.2464501
               }
            }
         },
         "place_id" : "ChIJX68n79pIZTURumMwWMdDLI0",
         "types" : [ "administrative_area_level_1", "political" ]
      },
      {
         "address_components" : [
            {
               "long_name" : "Daejeon",
               "short_name" : "Daejeon",
               "types" : [ "locality", "political" ]
            },
            {
               "long_name" : "Daejeon",
               "short_name" : "Daejeon",
               "types" : [ "administrative_area_level_1", "political" ]
            },
            {
               "long_name" : "South Korea",
               "short_name" : "KR",
               "types" : [ "country", "political" ]
            }
         ],
         "formatted_address" : "Daejeon, South Korea",
         "geometry" : {
            "bounds" : {
               "northeast" : {
                  "lat" : 36.4999476,
                  "lng" : 127.5590436
               },
               "southwest" : {
                  "lat" : 36.1833708,
                  "lng" : 127.2464501
               }
            },
            "location" : {
               "lat" : 36.3504119,
               "lng" : 127.3845475
            },
            "location_type" : "APPROXIMATE",
            "viewport" : {
               "northeast" : {
                  "lat" : 36.4999476,
                  "lng" : 127.5590436
               },
               "southwest" : {
                  "lat" : 36.1833708,
                  "lng" : 127.2464501
               }
            }
         },
         "place_id" : "ChIJAWZKutdIZTURtdOKmJ3WltE",
         "types" : [ "locality", "political" ]
      },
      {
         "address_components" : [
            {
               "long_name" : "South Korea",
               "short_name" : "KR",
               "types" : [ "country", "political" ]
            }
         ],
         "formatted_address" : "South Korea",
         "geometry" : {
            "bounds" : {
               "northeast" : {
                  "lat" : 38.63400000000001,
                  "lng" : 131.1603
               },
               "southwest" : {
                  "lat" : 33.0041,
                  "lng" : 124.5863
               }
            },
            "location" : {
               "lat" : 35.907757,
               "lng" : 127.766922
            },
            "location_type" : "APPROXIMATE",
            "viewport" : {
               "northeast" : {
                  "lat" : 38.63400000000001,
                  "lng" : 131.1603
               },
               "southwest" : {
                  "lat" : 33.0041,
                  "lng" : 124.5863
               }
            }
         },
         "place_id" : "ChIJm7oRy-tVZDURS9uIugCbJJE",
         "types" : [ "country", "political" ]
      }
   ],
   "status" : "OK"
}
