{
   "plus_code" : {
      "compound_code" : "287F+H7 Pohang-si, Gyeongsangbuk-do, South Korea",
      "global_code" : "8Q8F287F+H7"
   },
   "results" : [
      {
         "address_components" : [
            {
               "long_name" : "172-3",
               "short_name" : "172-3",
               "types" : [ "premise" ]
            },
            {
               "long_name" : "Hyogok-dong",
               "short_name" : "Hyogok-dong",
               "types" : [ "political", "sublocality", "sublocality_level_2" ]
            },
            {
               "long_name" : "Nam-gu",
               "short_name" : "Nam-gu",
               "types" : [ "political", "sublocality", "sublocality_level_1" ]
            },
            {
               "long_name" : "Pohang",
               "short_name" : "Pohang",
               "types" : [ "locality", "political" ]
            },
            {
               "long_name" : "Gyeongsangbuk-do",
               "short_name" : "Gyeongsangbuk-do",
               "types" : [ "administrative_area_level_1", "political" ]
            },
            {
               "long_name" : "South Korea",
               "short_name" : "KR",
               "types" : [ "country", "political" ]
            },
            {
               "long_name" : "790-390",
               "short_name" : "790-390",
               "types" : [ "postal_code" ]
            }
         ],
         "formatted_address" : "172-3 Hyogok-dong, Nam-gu, Pohang, Gyeongsangbuk-do, South Korea",
         "geometry" : {
            "location" : {
               "lat" : 36.0134883,
               "lng" : 129.3237093
            },
            "location_type" : "ROOFTOP",
            "viewport" : {
               "northeast" : {
                  "lat" : 36.0148372802915,
                  "lng" : 129.3250582802915
               },
               "southwest" : {
                  "lat" : 36.0121393197085,
                  "lng" : 129.3223603197085
               }
            }
         },
         "place_id" : "ChIJ28IsKNQBZzUR2JpfFayj4tU",
         "plus_code" : {
            "compound_code" : "287F+9F Pohang-si, Gyeongsangbuk-do, South Korea",
            "global_code" : "8Q8F287F+9F"
         },
         "types" : [ "street_address" ]
      },
      {
         "address_components" : [
            {
               "long_name" : "Jigok-dong",
               "short_name" : "Jigok-dong",
               "types" : [ "political", "sublocality", "sublocality_level_2" ]
            },
            {
               "long_name" : "Nam-gu",
               "short_name" : "Nam-gu",
               "types" : [ "political", "sublocality", "sublocality_level_1" ]
            },
            {
               "long_name" : "Pohang-si",
               "short_name" : "Pohang-si",
               "types" : [ "locality", "political" ]
            },
            {
               "long_name" : "Gyeongsangbuk-do",
               "short_name" : "Gyeongsangbuk-do",
               "types" : [ "administrative_area_level_1", "political" ]
            },
            {
               "long_name" : "South Korea",
               "short_name" : "KR",
               "types" : [ "country", "political" ]
            },
            {
               "long_name" : "790-390",
               "short_name" : "790-390",
               "types" : [ "postal_code" ]
            }
         ],
         "formatted_address" : "Jigok-dong, Nam-gu, Pohang-si, Gyeongsangbuk-do, South Korea",
         "geometry" : {
            "bounds" : {
               "northeast" : {
                  "lat" : 36.0395593,
                  "lng" : 129.3321304
               },
               "southwest" : {
                  "lat" : 36.0089533,
                  "lng" : 129.3102518
               }
            },
            "location" : {
               "lat" : 36.0238804,
               "lng" : 129.3218404
            },
            "location_type" : "APPROXIMATE",
            "viewport" : {
               "northeast" : {
                  "lat" : 36.0395593,
                  "lng" : 129.3321304
               },
               "southwest" : {
                  "lat" : 36.0089533,
                  "lng" : 129.3102518
               }
            }
         },
         "place_id" : "ChIJ6UToWt8BZzUR1bjISk1VlDw",
         "types" : [ "political", "sublocality", "sublocality_level_2" ]
      },
      {
         "address_components" : [
            {
               "long_name" : "790-390",
               "short_name" : "790-390",
               "types" : [ "postal_code" ]
            },
            {
               "long_name" : "Jigok-dong",
               "short_name" : "Jigok-dong",
               "types" : [ "political", "sublocality", "sublocality_level_2" ]
            },
            {
               "long_name" : "Nam-gu",
               "short_name" : "Nam-gu",
               "types" : [ "political", "sublocality", "sublocality_level_1" ]
            },
            {
               "long_name" : "Pohang-si",
               "short_name" : "Pohang-si",
               "types" : [ "locality", "political" ]
            },
            {
               "long_name" : "Gyeongsangbuk-do",
               "short_name" : "Gyeongsangbuk-do",
               "types" : [ "administrative_area_level_1", "political" ]
            },
            {
               "long_name" : "South Korea",
               "short_name" : "KR",
               "types" : [ "country", "political" ]
            }
         ],
         "formatted_address" : "Jigok-dong, Nam-gu, Pohang-si, Gyeongsangbuk-do, South Korea",
         "geometry" : {
            "bounds" : {
               "northeast" : {
                  "lat" : 36.0395593,
                  "lng" : 129.3321304
               },
               "southwest" : {
                  "lat" : 36.0089533,
                  "lng" : 129.3102518
               }
            },
            "location" : {
               "lat" : 36.0252333,
               "lng" : 129.3232184
            },
            "location_type" : "APPROXIMATE",
            "viewport" : {
               "northeast" : {
                  "lat" : 36.0395593,
                  "lng" : 129.3321304
               },
               "southwest" : {
                  "lat" : 36.0089533,
                  "lng" : 129.3102518
               }
            }
         },
         "place_id" : "ChIJ6UToWt8BZzURAn_So6vbGec",
         "types" : [ "postal_code" ]
      },
      {
         "address_components" : [
            {
               "long_name" : "Nam-gu",
               "short_name" : "Nam-gu",
               "types" : [ "political", "sublocality", "sublocality_level_1" ]
            },
            {
               "long_name" : "Pohang-si",
               "short_name" : "Pohang-si",
               "types" : [ "locality", "political" ]
            },
            {
               "long_name" : "Gyeongsangbuk-do",
               "short_name" : "Gyeongsangbuk-do",
               "types" : [ "administrative_area_level_1", "political" ]
            },
            {
               "long_name" : "South Korea",
               "short_name" : "KR",
               "types" : [ "country", "political" ]
            }
         ],
         "formatted_address" : "Nam-gu, Pohang-si, Gyeongsangbuk-do, South Korea",
         "geometry" : {
            "bounds" : {
               "northeast" : {
                  "lat" : 36.1029848,
                  "lng" : 129.5976832
               },
               "southwest" : {
                  "lat" : 35.8351122,
                  "lng" : 129.2754871
               }
            },
            "location" : {
               "lat" : 36.0086283,
               "lng" : 129.3592306
            },
            "location_type" : "APPROXIMATE",
            "viewport" : {
               "northeast" : {
                  "lat" : 36.1029848,
                  "lng" : 129.5976832
               },
               "southwest" : {
                  "lat" : 35.8351122,
                  "lng" : 129.2754871
               }
            }
         },
         "place_id" : "ChIJhdqFdRwHZzURziZXfyn7fUA",
         "types" : [ "political", "sublocality", "sublocality_level_1" ]
      },
      {
         "address_components" : [
            {
               "long_name" : "Pohang-si",
               "short_name" : "Pohang-si",
               "types" : [ "locality", "political" ]
            },
            {
               "long_name" : "Gyeongsangbuk-do",
               "short_name" : "Gyeongsangbuk-do",
               "types" : [ "administrative_area_level_1", "political" ]
            },
            {
               "long_name" : "South Korea",
               "short_name" : "KR",
               "types" : [ "country", "political" ]
            }
         ],
         "formatted_address" : "Pohang-si, Gyeongsangbuk-do, South Korea",
         "geometry" : {
            "bounds" : {
               "northeast" : {
                  "lat" : 36.3320526,
                  "lng" : 129.5976832
               },
               "southwest" : {
                  "lat" : 35.8351122,
                  "lng" : 128.9886614
               }
            },
            "location" : {
               "lat" : 36.0190178,
               "lng" : 129.3434808
            },
            "location_type" : "APPROXIMATE",
            "viewport" : {
               "northeast" : {
                  "lat" : 36.3320526,
                  "lng" : 129.5976832
               },
               "southwest" : {
                  "lat" : 35.8351122,
                  "lng" : 128.9886614
               }
            }
         },
         "place_id" : "ChIJM8KTwLr9ZjURftSE6Hw24sg",
         "types" : [ "locality", "political" ]
      },
      {
         "address_components" : [
            {
               "long_name" : "Gyeongsangbuk-do",
               "short_name" : "Gyeongsangbuk-do",
               "types" : [ "administrative_area_level_1", "political" ]
            },
            {
               "long_name" : "South Korea",
               "short_name" : "KR",
               "types" : [ "country", "political" ]
            }
         ],
         "formatted_address" : "Gyeongsangbuk-do, South Korea",
         "geometry" : {
            "bounds" : {
               "northeast" : {
                  "lat" : 37.5528384,
                  "lng" : 131.8974269
               },
               "southwest" : {
                  "lat" : 35.5664734,
                  "lng" : 127.7938878
               }
            },
            "location" : {
               "lat" : 36.4919,
               "lng" : 128.8889
            },
            "location_type" : "APPROXIMATE",
            "viewport" : {
               "northeast" : {
                  "lat" : 37.5528384,
                  "lng" : 131.8974269
               },
               "southwest" : {
                  "lat" : 35.5664734,
                  "lng" : 127.7938878
               }
            }
         },
         "place_id" : "ChIJvRgZer-kYDURI9xMx5ppVsY",
         "types" : [ "administrative_area_level_1", "political" ]
      },
      {
         "address_components" : [
            {
               "long_name" : "South Korea",
               "short_name" : "KR",
               "types" : [ "country", "political" ]
            }
         ],
         "formatted_address" : "South Korea",
         "geometry" : {
            "bounds" : {
               "northeast" : {
                  "lat" : 38.63400000000001,
                  "lng" : 131.1603
               },
               "southwest" : {
                  "lat" : 33.0041,
                  "lng" : 124.5863
               }
            },
            "location" : {
               "lat" : 35.907757,
               "lng" : 127.766922
            },
            "location_type" : "APPROXIMATE",
            "viewport" : {
               "northeast" : {
                  "lat" : 38.63400000000001,
                  "lng" : 131.1603
               },
               "southwest" : {
                  "lat" : 33.0041,
                  "lng" : 124.5863
               }
            }
         },
         "place_id" : "ChIJm7oRy-tVZDURS9uIugCbJJE",
         "types" : [ "country", "political" ]
      }
   ],
   "status" : "OK"
}
