{
   "plus_code" : {
      "compound_code" : "MWJM+82 Ilmenau, Germany",
      "global_code" : "9F2GMWJM+82"
   },
   "results" : [
      {
         "address_components" : [
            {
               "long_name" : "14",
               "short_name" : "14",
               "types" : [ "street_number" ]
            },
            {
               "long_name" : "Max-Planck-Ring",
               "short_name" : "Max-Planck-Ring",
               "types" : [ "route" ]
            },
            {
               "long_name" : "Ilmenau",
               "short_name" : "Ilmenau",
               "types" : [ "locality", "political" ]
            },
            {
               "long_name" : "Ilm-Kreis",
               "short_name" : "Ilm-Kreis",
               "types" : [ "administrative_area_level_3", "political" ]
            },
            {
               "long_name" : "Thüringen",
               "short_name" : "TH",
               "types" : [ "administrative_area_level_1", "political" ]
            },
            {
               "long_name" : "Germany",
               "short_name" : "DE",
               "types" : [ "country", "political" ]
            },
            {
               "long_name" : "98693",
               "short_name" : "98693",
               "types" : [ "postal_code" ]
            }
         ],
         "formatted_address" : "Max-Planck-Ring 14, 98693 Ilmenau, Germany",
         "geometry" : {
            "location" : {
               "lat" : 50.68082,
               "lng" : 10.9325699
            },
            "location_type" : "ROOFTOP",
            "viewport" : {
               "northeast" : {
                  "lat" : 50.68216898029151,
                  "lng" : 10.9339188802915
               },
               "southwest" : {
                  "lat" : 50.67947101970851,
                  "lng" : 10.9312209197085
               }
            }
         },
         "place_id" : "ChIJ4WyRlkuNo0cRsuqu2JPeAIk",
         "plus_code" : {
            "compound_code" : "MWJM+82 Ilmenau, Germany",
            "global_code" : "9F2GMWJM+82"
         },
         "types" : [ "electrician", "establishment", "point_of_interest" ]
      },
      {
         "address_components" : [
            {
               "long_name" : "14",
               "short_name" : "14",
               "types" : [ "street_number" ]
            },
            {
               "long_name" : "Max-Planck-Ring",
               "short_name" : "Max-Planck-Ring",
               "types" : [ "route" ]
            },
            {
               "long_name" : "Ilmenau",
               "short_name" : "Ilmenau",
               "types" : [ "locality", "political" ]
            },
            {
               "long_name" : "Ilm-Kreis",
               "short_name" : "Ilm-Kreis",
               "types" : [ "administrative_area_level_3", "political" ]
            },
            {
               "long_name" : "Thüringen",
               "short_name" : "TH",
               "types" : [ "administrative_area_level_1", "political" ]
            },
            {
               "long_name" : "Germany",
               "short_name" : "DE",
               "types" : [ "country", "political" ]
            },
            {
               "long_name" : "98693",
               "short_name" : "98693",
               "types" : [ "postal_code" ]
            }
         ],
         "formatted_address" : "Max-Planck-Ring 14, 98693 Ilmenau, Germany",
         "geometry" : {
            "location" : {
               "lat" : 50.68082,
               "lng" : 10.9325699
            },
            "location_type" : "ROOFTOP",
            "viewport" : {
               "northeast" : {
                  "lat" : 50.68216898029151,
                  "lng" : 10.9339188802915
               },
               "southwest" : {
                  "lat" : 50.67947101970851,
                  "lng" : 10.9312209197085
               }
            }
         },
         "place_id" : "ChIJb7L6uE6No0cR_FOA46J1rMc",
         "plus_code" : {
            "compound_code" : "MWJM+82 Ilmenau, Germany",
            "global_code" : "9F2GMWJM+82"
         },
         "types" : [ "street_address" ]
      },
      {
         "address_components" : [
            {
               "long_name" : "Unnamed Road",
               "short_name" : "Unnamed Road",
               "types" : [ "route" ]
            },
            {
               "long_name" : "Ilmenau",
               "short_name" : "Ilmenau",
               "types" : [ "locality", "political" ]
            },
            {
               "long_name" : "Ilm-Kreis",
               "short_name" : "Ilm-Kreis",
               "types" : [ "administrative_area_level_3", "political" ]
            },
            {
               "long_name" : "Thüringen",
               "short_name" : "TH",
               "types" : [ "administrative_area_level_1", "political" ]
            },
            {
               "long_name" : "Germany",
               "short_name" : "DE",
               "types" : [ "country", "political" ]
            },
            {
               "long_name" : "98693",
               "short_name" : "98693",
               "types" : [ "postal_code" ]
            }
         ],
         "formatted_address" : "Unnamed Road, 98693 Ilmenau, Germany",
         "geometry" : {
            "bounds" : {
               "northeast" : {
                  "lat" : 50.68090669999999,
                  "lng" : 10.9327269
               },
               "southwest" : {
                  "lat" : 50.68062030000001,
                  "lng" : 10.9326033
               }
            },
            "location" : {
               "lat" : 50.6807635,
               "lng" : 10.9326651
            },
            "location_type" : "GEOMETRIC_CENTER",
            "viewport" : {
               "northeast" : {
                  "lat" : 50.68211248029151,
                  "lng" : 10.9340140802915
               },
               "southwest" : {
                  "lat" : 50.67941451970851,
                  "lng" : 10.9313161197085
               }
            }
         },
         "place_id" : "ChIJ8Qw9uU6No0cREmEgghGvQnY",
         "types" : [ "route" ]
      },
      {
         "address_components" : [
            {
               "long_name" : "Ilmenau",
               "short_name" : "Ilmenau",
               "types" : [ "locality", "political" ]
            },
            {
               "long_name" : "Ilm-Kreis",
               "short_name" : "Ilm-Kreis",
               "types" : [ "administrative_area_level_3", "political" ]
            },
            {
               "long_name" : "Thuringia",
               "short_name" : "TH",
               "types" : [ "administrative_area_level_1", "political" ]
            },
            {
               "long_name" : "Germany",
               "short_name" : "DE",
               "types" : [ "country", "political" ]
            }
         ],
         "formatted_address" : "Ilmenau, Germany",
         "geometry" : {
            "bounds" : {
               "northeast" : {
                  "lat" : 50.74948209999999,
                  "lng" : 10.9723167
               },
               "southwest" : {
                  "lat" : 50.63473159999999,
                  "lng" : 10.8182844
               }
            },
            "location" : {
               "lat" : 50.6843502,
               "lng" : 10.9254728
            },
            "location_type" : "APPROXIMATE",
            "viewport" : {
               "northeast" : {
                  "lat" : 50.74948209999999,
                  "lng" : 10.9723167
               },
               "southwest" : {
                  "lat" : 50.63473159999999,
                  "lng" : 10.8182844
               }
            }
         },
         "place_id" : "ChIJpRmiGAuNo0cRkHU1dMGOIAQ",
         "types" : [ "locality", "political" ]
      },
      {
         "address_components" : [
            {
               "long_name" : "98693",
               "short_name" : "98693",
               "types" : [ "postal_code" ]
            },
            {
               "long_name" : "Martinroda",
               "short_name" : "Martinroda",
               "types" : [ "locality", "political" ]
            },
            {
               "long_name" : "Ilm-Kreis",
               "short_name" : "Ilm-Kreis",
               "types" : [ "administrative_area_level_3", "political" ]
            },
            {
               "long_name" : "Thuringia",
               "short_name" : "TH",
               "types" : [ "administrative_area_level_1", "political" ]
            },
            {
               "long_name" : "Germany",
               "short_name" : "DE",
               "types" : [ "country", "political" ]
            }
         ],
         "formatted_address" : "98693 Martinroda, Germany",
         "geometry" : {
            "bounds" : {
               "northeast" : {
                  "lat" : 50.749069,
                  "lng" : 10.9701019
               },
               "southwest" : {
                  "lat" : 50.635993,
                  "lng" : 10.8196231
               }
            },
            "location" : {
               "lat" : 50.6998937,
               "lng" : 10.9065607
            },
            "location_type" : "APPROXIMATE",
            "viewport" : {
               "northeast" : {
                  "lat" : 50.749069,
                  "lng" : 10.9701019
               },
               "southwest" : {
                  "lat" : 50.635993,
                  "lng" : 10.8196231
               }
            }
         },
         "place_id" : "ChIJh_bMoBONo0cRUAnJyMSOIBw",
         "postcode_localities" : [ "Ilmenau", "Martinroda" ],
         "types" : [ "postal_code" ]
      },
      {
         "address_components" : [
            {
               "long_name" : "Ilm-Kreis",
               "short_name" : "Ilm-Kreis",
               "types" : [ "administrative_area_level_3", "political" ]
            },
            {
               "long_name" : "Thuringia",
               "short_name" : "TH",
               "types" : [ "administrative_area_level_1", "political" ]
            },
            {
               "long_name" : "Germany",
               "short_name" : "DE",
               "types" : [ "country", "political" ]
            }
         ],
         "formatted_address" : "Ilm-Kreis, Germany",
         "geometry" : {
            "bounds" : {
               "northeast" : {
                  "lat" : 50.9132628,
                  "lng" : 11.2237593
               },
               "southwest" : {
                  "lat" : 50.5466394,
                  "lng" : 10.7337677
               }
            },
            "location" : {
               "lat" : 50.71130059999999,
               "lng" : 10.8970001
            },
            "location_type" : "APPROXIMATE",
            "viewport" : {
               "northeast" : {
                  "lat" : 50.9132628,
                  "lng" : 11.2237593
               },
               "southwest" : {
                  "lat" : 50.5466394,
                  "lng" : 10.7337677
               }
            }
         },
         "place_id" : "ChIJ6wRHX8iKo0cRWcH1uz2ZSSs",
         "types" : [ "administrative_area_level_3", "political" ]
      },
      {
         "address_components" : [
            {
               "long_name" : "Thuringia",
               "short_name" : "Thuringia",
               "types" : [ "administrative_area_level_1", "political" ]
            },
            {
               "long_name" : "Germany",
               "short_name" : "DE",
               "types" : [ "country", "political" ]
            }
         ],
         "formatted_address" : "Thuringia, Germany",
         "geometry" : {
            "bounds" : {
               "northeast" : {
                  "lat" : 51.6489359,
                  "lng" : 12.6539326
               },
               "southwest" : {
                  "lat" : 50.20434669999999,
                  "lng" : 9.876984000000002
               }
            },
            "location" : {
               "lat" : 51.0109892,
               "lng" : 10.845346
            },
            "location_type" : "APPROXIMATE",
            "viewport" : {
               "northeast" : {
                  "lat" : 51.6489359,
                  "lng" : 12.6539326
               },
               "southwest" : {
                  "lat" : 50.20434669999999,
                  "lng" : 9.876984000000002
               }
            }
         },
         "place_id" : "ChIJk_E62n8PpEcR0Hk0dMGOIAE",
         "types" : [ "administrative_area_level_1", "political" ]
      },
      {
         "address_components" : [
            {
               "long_name" : "Germany",
               "short_name" : "DE",
               "types" : [ "country", "political" ]
            }
         ],
         "formatted_address" : "Germany",
         "geometry" : {
            "bounds" : {
               "northeast" : {
                  "lat" : 55.0815,
                  "lng" : 15.0418962
               },
               "southwest" : {
                  "lat" : 47.2701115,
                  "lng" : 5.8663425
               }
            },
            "location" : {
               "lat" : 51.165691,
               "lng" : 10.451526
            },
            "location_type" : "APPROXIMATE",
            "viewport" : {
               "northeast" : {
                  "lat" : 55.0815,
                  "lng" : 15.0418962
               },
               "southwest" : {
                  "lat" : 47.2701115,
                  "lng" : 5.8663425
               }
            }
         },
         "place_id" : "ChIJa76xwh5ymkcRW-WRjmtd6HU",
         "types" : [ "country", "political" ]
      }
   ],
   "status" : "OK"
}
