{
   "plus_code" : {
      "compound_code" : "523G+52 San Luis Potosi, Mexico",
      "global_code" : "75JX523G+52"
   },
   "results" : [
      {
         "address_components" : [
            {
               "long_name" : "64",
               "short_name" : "64",
               "types" : [ "street_number" ]
            },
            {
               "long_name" : "Álvaro Obregón",
               "short_name" : "Álvaro Obregón",
               "types" : [ "route" ]
            },
            {
               "long_name" : "Centro",
               "short_name" : "Centro",
               "types" : [ "political", "sublocality", "sublocality_level_1" ]
            },
            {
               "long_name" : "San Luis Potosí",
               "short_name" : "San Luis",
               "types" : [ "locality", "political" ]
            },
            {
               "long_name" : "San Luis Potosí",
               "short_name" : "S.L.P.",
               "types" : [ "administrative_area_level_1", "political" ]
            },
            {
               "long_name" : "Mexico",
               "short_name" : "MX",
               "types" : [ "country", "political" ]
            },
            {
               "long_name" : "78000",
               "short_name" : "78000",
               "types" : [ "postal_code" ]
            }
         ],
         "formatted_address" : "Álvaro Obregón 64, Centro, 78000 San Luis, S.L.P., Mexico",
         "geometry" : {
            "location" : {
               "lat" : 22.1529429,
               "lng" : -100.9749805
            },
            "location_type" : "ROOFTOP",
            "viewport" : {
               "northeast" : {
                  "lat" : 22.1542918802915,
                  "lng" : -100.9736315197085
               },
               "southwest" : {
                  "lat" : 22.1515939197085,
                  "lng" : -100.9763294802915
               }
            }
         },
         "place_id" : "ChIJl5s8q_ihKoQRbAVk6NTIIBw",
         "plus_code" : {
            "compound_code" : "523G+52 San Luis Potosi, Mexico",
            "global_code" : "75JX523G+52"
         },
         "types" : [ "establishment", "point_of_interest", "university" ]
      },
      {
         "address_components" : [
            {
               "long_name" : "100",
               "short_name" : "100",
               "types" : [ "street_number" ]
            },
            {
               "long_name" : "Álvaro Obregón",
               "short_name" : "Álvaro Obregón",
               "types" : [ "route" ]
            },
            {
               "long_name" : "Centro Historico",
               "short_name" : "Centro Historico",
               "types" : [ "political", "sublocality", "sublocality_level_1" ]
            },
            {
               "long_name" : "San Luis Potosí",
               "short_name" : "San Luis",
               "types" : [ "locality", "political" ]
            },
            {
               "long_name" : "San Luis Potosí",
               "short_name" : "S.L.P.",
               "types" : [ "administrative_area_level_1", "political" ]
            },
            {
               "long_name" : "Mexico",
               "short_name" : "MX",
               "types" : [ "country", "political" ]
            },
            {
               "long_name" : "78000",
               "short_name" : "78000",
               "types" : [ "postal_code" ]
            }
         ],
         "formatted_address" : "Álvaro Obregón 100, Centro Historico, 78000 San Luis, S.L.P., Mexico",
         "geometry" : {
            "bounds" : {
               "northeast" : {
                  "lat" : 22.153321,
                  "lng" : -100.9749007
               },
               "southwest" : {
                  "lat" : 22.1529751,
                  "lng" : -100.9751539
               }
            },
            "location" : {
               "lat" : 22.1531174,
               "lng" : -100.9750043
            },
            "location_type" : "ROOFTOP",
            "viewport" : {
               "northeast" : {
                  "lat" : 22.1544970302915,
                  "lng" : -100.9736783197085
               },
               "southwest" : {
                  "lat" : 22.1517990697085,
                  "lng" : -100.9763762802915
               }
            }
         },
         "place_id" : "ChIJUSwNU_-hKoQR-xGgAaPuZ3w",
         "types" : [ "premise" ]
      },
      {
         "address_components" : [
            {
               "long_name" : "115",
               "short_name" : "115",
               "types" : [ "street_number" ]
            },
            {
               "long_name" : "Álvaro Obregón",
               "short_name" : "Álvaro Obregón",
               "types" : [ "route" ]
            },
            {
               "long_name" : "Centro Historico",
               "short_name" : "Centro Historico",
               "types" : [ "political", "sublocality", "sublocality_level_1" ]
            },
            {
               "long_name" : "San Luis Potosí",
               "short_name" : "San Luis",
               "types" : [ "locality", "political" ]
            },
            {
               "long_name" : "San Luis Potosí",
               "short_name" : "S.L.P.",
               "types" : [ "administrative_area_level_1", "political" ]
            },
            {
               "long_name" : "Mexico",
               "short_name" : "MX",
               "types" : [ "country", "political" ]
            },
            {
               "long_name" : "78000",
               "short_name" : "78000",
               "types" : [ "postal_code" ]
            }
         ],
         "formatted_address" : "Álvaro Obregón 115, Centro Historico, 78000 San Luis, S.L.P., Mexico",
         "geometry" : {
            "location" : {
               "lat" : 22.1528911,
               "lng" : -100.9749906
            },
            "location_type" : "ROOFTOP",
            "viewport" : {
               "northeast" : {
                  "lat" : 22.1542400802915,
                  "lng" : -100.9736416197085
               },
               "southwest" : {
                  "lat" : 22.15154211970849,
                  "lng" : -100.9763395802915
               }
            }
         },
         "place_id" : "ChIJt3onq_ihKoQR-p_f7G5spj0",
         "plus_code" : {
            "compound_code" : "523G+52 San Luis Potosi, Mexico",
            "global_code" : "75JX523G+52"
         },
         "types" : [ "street_address" ]
      },
      {
         "address_components" : [
            {
               "long_name" : "100",
               "short_name" : "100",
               "types" : [ "street_number" ]
            },
            {
               "long_name" : "Álvaro Obregón",
               "short_name" : "Álvaro Obregón",
               "types" : [ "route" ]
            },
            {
               "long_name" : "Centro Historico",
               "short_name" : "Centro Historico",
               "types" : [ "political", "sublocality", "sublocality_level_1" ]
            },
            {
               "long_name" : "San Luis Potosí",
               "short_name" : "San Luis",
               "types" : [ "locality", "political" ]
            },
            {
               "long_name" : "San Luis Potosí",
               "short_name" : "S.L.P.",
               "types" : [ "administrative_area_level_1", "political" ]
            },
            {
               "long_name" : "Mexico",
               "short_name" : "MX",
               "types" : [ "country", "political" ]
            },
            {
               "long_name" : "78000",
               "short_name" : "78000",
               "types" : [ "postal_code" ]
            }
         ],
         "formatted_address" : "Álvaro Obregón 100, Centro Historico, 78000 San Luis, S.L.P., Mexico",
         "geometry" : {
            "location" : {
               "lat" : 22.1529428,
               "lng" : -100.9749805
            },
            "location_type" : "RANGE_INTERPOLATED",
            "viewport" : {
               "northeast" : {
                  "lat" : 22.1542917802915,
                  "lng" : -100.9736315197085
               },
               "southwest" : {
                  "lat" : 22.1515938197085,
                  "lng" : -100.9763294802915
               }
            }
         },
         "place_id" : "EkfDgWx2YXJvIE9icmVnw7NuIDEwMCwgQ2VudHJvIEhpc3RvcmljbywgNzgwMDAgU2FuIEx1aXMsIFMuTC5QLiwgTcOpeGljbyIaEhgKFAoSCc_V51T_oSqEEZTjTh0Az1mCEGQ",
         "types" : [ "street_address" ]
      },
      {
         "address_components" : [
            {
               "long_name" : "78000",
               "short_name" : "78000",
               "types" : [ "postal_code" ]
            },
            {
               "long_name" : "Centro Historico",
               "short_name" : "Centro Historico",
               "types" : [ "political", "sublocality", "sublocality_level_1" ]
            },
            {
               "long_name" : "San Luis Potosí",
               "short_name" : "San Luis",
               "types" : [ "locality", "political" ]
            },
            {
               "long_name" : "San Luis Potosí",
               "short_name" : "S.L.P.",
               "types" : [ "administrative_area_level_1", "political" ]
            },
            {
               "long_name" : "Mexico",
               "short_name" : "MX",
               "types" : [ "country", "political" ]
            }
         ],
         "formatted_address" : "Centro Historico, 78000 San Luis, S.L.P., Mexico",
         "geometry" : {
            "bounds" : {
               "northeast" : {
                  "lat" : 22.1585094,
                  "lng" : -100.9689621
               },
               "southwest" : {
                  "lat" : 22.1459514,
                  "lng" : -100.9823051
               }
            },
            "location" : {
               "lat" : 22.1511346,
               "lng" : -100.9764614
            },
            "location_type" : "APPROXIMATE",
            "viewport" : {
               "northeast" : {
                  "lat" : 22.1585094,
                  "lng" : -100.9689621
               },
               "southwest" : {
                  "lat" : 22.1459514,
                  "lng" : -100.9823051
               }
            }
         },
         "place_id" : "ChIJU_Vu-wGiKoQR2UnOIxTqTxM",
         "types" : [ "postal_code" ]
      },
      {
         "address_components" : [
            {
               "long_name" : "Centro Historico",
               "short_name" : "Centro Historico",
               "types" : [ "political", "sublocality", "sublocality_level_1" ]
            },
            {
               "long_name" : "San Luis Potosí",
               "short_name" : "San Luis",
               "types" : [ "locality", "political" ]
            },
            {
               "long_name" : "San Luis Potosí",
               "short_name" : "S.L.P.",
               "types" : [ "administrative_area_level_1", "political" ]
            },
            {
               "long_name" : "Mexico",
               "short_name" : "MX",
               "types" : [ "country", "political" ]
            },
            {
               "long_name" : "78000",
               "short_name" : "78000",
               "types" : [ "postal_code" ]
            }
         ],
         "formatted_address" : "Centro Historico, 78000 San Luis, S.L.P., Mexico",
         "geometry" : {
            "bounds" : {
               "northeast" : {
                  "lat" : 22.1584556,
                  "lng" : -100.968962
               },
               "southwest" : {
                  "lat" : 22.1459514,
                  "lng" : -100.982302
               }
            },
            "location" : {
               "lat" : 22.1511346,
               "lng" : -100.9764614
            },
            "location_type" : "APPROXIMATE",
            "viewport" : {
               "northeast" : {
                  "lat" : 22.1584556,
                  "lng" : -100.968962
               },
               "southwest" : {
                  "lat" : 22.1459514,
                  "lng" : -100.982302
               }
            }
         },
         "place_id" : "ChIJ-_-Q_AGiKoQR9k-t3_6ZgjE",
         "types" : [ "political", "sublocality", "sublocality_level_1" ]
      },
      {
         "address_components" : [
            {
               "long_name" : "San Luis Potosi",
               "short_name" : "San Luis Potosi",
               "types" : [ "locality", "political" ]
            },
            {
               "long_name" : "San Luis Potosi",
               "short_name" : "S.L.P.",
               "types" : [ "administrative_area_level_1", "political" ]
            },
            {
               "long_name" : "Mexico",
               "short_name" : "MX",
               "types" : [ "country", "political" ]
            }
         ],
         "formatted_address" : "San Luis Potosi, Mexico",
         "geometry" : {
            "bounds" : {
               "northeast" : {
                  "lat" : 22.2186053,
                  "lng" : -100.8561164
               },
               "southwest" : {
                  "lat" : 22.0068338,
                  "lng" : -101.0560226
               }
            },
            "location" : {
               "lat" : 22.1564699,
               "lng" : -100.9855409
            },
            "location_type" : "APPROXIMATE",
            "viewport" : {
               "northeast" : {
                  "lat" : 22.2186053,
                  "lng" : -100.8561164
               },
               "southwest" : {
                  "lat" : 22.0068338,
                  "lng" : -101.0560226
               }
            }
         },
         "place_id" : "ChIJefusBQCiKoQRV4Lhrynu0g4",
         "types" : [ "locality", "political" ]
      },
      {
         "address_components" : [
            {
               "long_name" : "San Luis Potosí",
               "short_name" : "San Luis Potosí",
               "types" : [ "administrative_area_level_2", "political" ]
            },
            {
               "long_name" : "San Luis Potosi",
               "short_name" : "S.L.P.",
               "types" : [ "administrative_area_level_1", "political" ]
            },
            {
               "long_name" : "Mexico",
               "short_name" : "MX",
               "types" : [ "country", "political" ]
            }
         ],
         "formatted_address" : "San Luis Potosí, San Luis Potosi, Mexico",
         "geometry" : {
            "bounds" : {
               "northeast" : {
                  "lat" : 22.6606601,
                  "lng" : -100.7420402
               },
               "southwest" : {
                  "lat" : 21.9576104,
                  "lng" : -101.1685066
               }
            },
            "location" : {
               "lat" : 22.1326503,
               "lng" : -100.9570575
            },
            "location_type" : "APPROXIMATE",
            "viewport" : {
               "northeast" : {
                  "lat" : 22.6606601,
                  "lng" : -100.7420402
               },
               "southwest" : {
                  "lat" : 21.9576104,
                  "lng" : -101.1685066
               }
            }
         },
         "place_id" : "ChIJHbzi9xIfgIYRXmKNYBbFP4g",
         "types" : [ "administrative_area_level_2", "political" ]
      },
      {
         "address_components" : [
            {
               "long_name" : "San Luis Potosi",
               "short_name" : "San Luis Potosi",
               "types" : [ "administrative_area_level_1", "political" ]
            },
            {
               "long_name" : "Mexico",
               "short_name" : "MX",
               "types" : [ "country", "political" ]
            }
         ],
         "formatted_address" : "San Luis Potosi, Mexico",
         "geometry" : {
            "bounds" : {
               "northeast" : {
                  "lat" : 24.4915218,
                  "lng" : -98.32596699999999
               },
               "southwest" : {
                  "lat" : 21.1601538,
                  "lng" : -102.2960383
               }
            },
            "location" : {
               "lat" : 22.1565651,
               "lng" : -100.9854628
            },
            "location_type" : "APPROXIMATE",
            "viewport" : {
               "northeast" : {
                  "lat" : 24.4915218,
                  "lng" : -98.32596699999999
               },
               "southwest" : {
                  "lat" : 21.1601538,
                  "lng" : -102.2960383
               }
            }
         },
         "place_id" : "ChIJefusBQCiKoQRXkEExEGyIOY",
         "types" : [ "administrative_area_level_1", "political" ]
      },
      {
         "address_components" : [
            {
               "long_name" : "Mexico",
               "short_name" : "MX",
               "types" : [ "country", "political" ]
            }
         ],
         "formatted_address" : "Mexico",
         "geometry" : {
            "bounds" : {
               "northeast" : {
                  "lat" : 32.7186534,
                  "lng" : -86.5887
               },
               "southwest" : {
                  "lat" : 14.3895,
                  "lng" : -118.6523001
               }
            },
            "location" : {
               "lat" : 23.634501,
               "lng" : -102.552784
            },
            "location_type" : "APPROXIMATE",
            "viewport" : {
               "northeast" : {
                  "lat" : 32.7186534,
                  "lng" : -86.5887
               },
               "southwest" : {
                  "lat" : 14.3895,
                  "lng" : -118.6523001
               }
            }
         },
         "place_id" : "ChIJU1NoiDs6BIQREZgJa760ZO0",
         "types" : [ "country", "political" ]
      }
   ],
   "status" : "OK"
}
