{
   "plus_code" : {
      "compound_code" : "38V7+G3 The Hague, Netherlands",
      "global_code" : "9F4638V7+G3"
   },
   "results" : [
      {
         "address_components" : [
            {
               "long_name" : "30",
               "short_name" : "30",
               "types" : [ "street_number" ]
            },
            {
               "long_name" : "Carel van Bylandtlaan",
               "short_name" : "Carel van Bylandtlaan",
               "types" : [ "route" ]
            },
            {
               "long_name" : "Haagse Hout",
               "short_name" : "Haagse Hout",
               "types" : [ "political", "sublocality", "sublocality_level_1" ]
            },
            {
               "long_name" : "Den Haag",
               "short_name" : "Den Haag",
               "types" : [ "locality", "political" ]
            },
            {
               "long_name" : "Den Haag",
               "short_name" : "Den Haag",
               "types" : [ "administrative_area_level_2", "political" ]
            },
            {
               "long_name" : "Zuid-Holland",
               "short_name" : "ZH",
               "types" : [ "administrative_area_level_1", "political" ]
            },
            {
               "long_name" : "Netherlands",
               "short_name" : "NL",
               "types" : [ "country", "political" ]
            },
            {
               "long_name" : "2596 HR",
               "short_name" : "2596 HR",
               "types" : [ "postal_code" ]
            }
         ],
         "formatted_address" : "Carel van Bylandtlaan 30, 2596 HR Den Haag, Netherlands",
         "geometry" : {
            "location" : {
               "lat" : 52.0937757,
               "lng" : 4.312630299999999
            },
            "location_type" : "ROOFTOP",
            "viewport" : {
               "northeast" : {
                  "lat" : 52.09512468029151,
                  "lng" : 4.313979280291502
               },
               "southwest" : {
                  "lat" : 52.09242671970851,
                  "lng" : 4.311281319708497
               }
            }
         },
         "place_id" : "ChIJa775rEe3xUcRh3K4qeuS6xk",
         "plus_code" : {
            "compound_code" : "38V7+G3 The Hague, Netherlands",
            "global_code" : "9F4638V7+G3"
         },
         "types" : [ "establishment", "point_of_interest" ]
      },
      {
         "address_components" : [
            {
               "long_name" : "30",
               "short_name" : "30",
               "types" : [ "street_number" ]
            },
            {
               "long_name" : "Carel van Bylandtlaan",
               "short_name" : "Carel van Bylandtlaan",
               "types" : [ "route" ]
            },
            {
               "long_name" : "Haagse Hout",
               "short_name" : "Haagse Hout",
               "types" : [ "political", "sublocality", "sublocality_level_1" ]
            },
            {
               "long_name" : "Den Haag",
               "short_name" : "Den Haag",
               "types" : [ "locality", "political" ]
            },
            {
               "long_name" : "Den Haag",
               "short_name" : "Den Haag",
               "types" : [ "administrative_area_level_2", "political" ]
            },
            {
               "long_name" : "Zuid-Holland",
               "short_name" : "ZH",
               "types" : [ "administrative_area_level_1", "political" ]
            },
            {
               "long_name" : "Netherlands",
               "short_name" : "NL",
               "types" : [ "country", "political" ]
            },
            {
               "long_name" : "2596 HR",
               "short_name" : "2596 HR",
               "types" : [ "postal_code" ]
            }
         ],
         "formatted_address" : "Carel van Bylandtlaan 30, 2596 HR Den Haag, Netherlands",
         "geometry" : {
            "bounds" : {
               "northeast" : {
                  "lat" : 52.0942444,
                  "lng" : 4.3134217
               },
               "southwest" : {
                  "lat" : 52.0933649,
                  "lng" : 4.3117958
               }
            },
            "location" : {
               "lat" : 52.0938015,
               "lng" : 4.3126419
            },
            "location_type" : "ROOFTOP",
            "viewport" : {
               "northeast" : {
                  "lat" : 52.0951536302915,
                  "lng" : 4.313957730291502
               },
               "southwest" : {
                  "lat" : 52.0924556697085,
                  "lng" : 4.311259769708498
               }
            }
         },
         "place_id" : "ChIJxWvmrEe3xUcRf6SlIkYP2Og",
         "types" : [ "premise" ]
      },
      {
         "address_components" : [
            {
               "long_name" : "Groenhovenstraat",
               "short_name" : "Groenhovenstraat",
               "types" : [ "route" ]
            },
            {
               "long_name" : "Haagse Hout",
               "short_name" : "Haagse Hout",
               "types" : [ "political", "sublocality", "sublocality_level_1" ]
            },
            {
               "long_name" : "Den Haag",
               "short_name" : "Den Haag",
               "types" : [ "locality", "political" ]
            },
            {
               "long_name" : "Den Haag",
               "short_name" : "Den Haag",
               "types" : [ "administrative_area_level_2", "political" ]
            },
            {
               "long_name" : "Zuid-Holland",
               "short_name" : "ZH",
               "types" : [ "administrative_area_level_1", "political" ]
            },
            {
               "long_name" : "Netherlands",
               "short_name" : "NL",
               "types" : [ "country", "political" ]
            },
            {
               "long_name" : "2596 HS",
               "short_name" : "2596 HS",
               "types" : [ "postal_code" ]
            }
         ],
         "formatted_address" : "Groenhovenstraat, 2596 HS Den Haag, Netherlands",
         "geometry" : {
            "bounds" : {
               "northeast" : {
                  "lat" : 52.0944104,
                  "lng" : 4.313212099999999
               },
               "southwest" : {
                  "lat" : 52.0936716,
                  "lng" : 4.3110975
               }
            },
            "location" : {
               "lat" : 52.094041,
               "lng" : 4.3121548
            },
            "location_type" : "GEOMETRIC_CENTER",
            "viewport" : {
               "northeast" : {
                  "lat" : 52.0953899802915,
                  "lng" : 4.313503780291501
               },
               "southwest" : {
                  "lat" : 52.0926920197085,
                  "lng" : 4.310805819708498
               }
            }
         },
         "place_id" : "ChIJnX76TEa3xUcR1DYwF8tP3jA",
         "types" : [ "route" ]
      },
      {
         "address_components" : [
            {
               "long_name" : "Arendsdorp",
               "short_name" : "Arendsdorp",
               "types" : [ "political", "sublocality", "sublocality_level_2" ]
            },
            {
               "long_name" : "Haagse Hout",
               "short_name" : "Haagse Hout",
               "types" : [ "political", "sublocality", "sublocality_level_1" ]
            },
            {
               "long_name" : "Den Haag",
               "short_name" : "Den Haag",
               "types" : [ "locality", "political" ]
            },
            {
               "long_name" : "Den Haag",
               "short_name" : "Den Haag",
               "types" : [ "administrative_area_level_2", "political" ]
            },
            {
               "long_name" : "Zuid-Holland",
               "short_name" : "ZH",
               "types" : [ "administrative_area_level_1", "political" ]
            },
            {
               "long_name" : "Netherlands",
               "short_name" : "NL",
               "types" : [ "country", "political" ]
            },
            {
               "long_name" : "2596",
               "short_name" : "2596",
               "types" : [ "postal_code", "postal_code_prefix" ]
            }
         ],
         "formatted_address" : "Arendsdorp, 2596 Den Haag, Netherlands",
         "geometry" : {
            "bounds" : {
               "northeast" : {
                  "lat" : 52.099028,
                  "lng" : 4.3274189
               },
               "southwest" : {
                  "lat" : 52.0899009,
                  "lng" : 4.309235999999999
               }
            },
            "location" : {
               "lat" : 52.09504769999999,
               "lng" : 4.3182794
            },
            "location_type" : "APPROXIMATE",
            "viewport" : {
               "northeast" : {
                  "lat" : 52.099028,
                  "lng" : 4.3274189
               },
               "southwest" : {
                  "lat" : 52.0899009,
                  "lng" : 4.309235999999999
               }
            }
         },
         "place_id" : "ChIJzRqbA2u3xUcRgqWuVSqVBzI",
         "types" : [ "political", "sublocality", "sublocality_level_2" ]
      },
      {
         "address_components" : [
            {
               "long_name" : "2596 JD",
               "short_name" : "2596 JD",
               "types" : [ "postal_code" ]
            },
            {
               "long_name" : "Haagse Hout",
               "short_name" : "Haagse Hout",
               "types" : [ "political", "sublocality", "sublocality_level_1" ]
            },
            {
               "long_name" : "The Hague",
               "short_name" : "The Hague",
               "types" : [ "locality", "political" ]
            },
            {
               "long_name" : "The Hague",
               "short_name" : "The Hague",
               "types" : [ "administrative_area_level_2", "political" ]
            },
            {
               "long_name" : "South Holland",
               "short_name" : "ZH",
               "types" : [ "administrative_area_level_1", "political" ]
            },
            {
               "long_name" : "Netherlands",
               "short_name" : "NL",
               "types" : [ "country", "political" ]
            }
         ],
         "formatted_address" : "2596 JD The Hague, Netherlands",
         "geometry" : {
            "bounds" : {
               "northeast" : {
                  "lat" : 52.09396419999999,
                  "lng" : 4.3132177
               },
               "southwest" : {
                  "lat" : 52.0912643,
                  "lng" : 4.3111881
               }
            },
            "location" : {
               "lat" : 52.0924056,
               "lng" : 4.3121642
            },
            "location_type" : "APPROXIMATE",
            "viewport" : {
               "northeast" : {
                  "lat" : 52.09396419999999,
                  "lng" : 4.313551880291502
               },
               "southwest" : {
                  "lat" : 52.0912643,
                  "lng" : 4.310853919708499
               }
            }
         },
         "place_id" : "ChIJS-Jpf0e3xUcRXRwZaWmODHM",
         "types" : [ "postal_code" ]
      },
      {
         "address_components" : [
            {
               "long_name" : "2596",
               "short_name" : "2596",
               "types" : [ "postal_code", "postal_code_prefix" ]
            },
            {
               "long_name" : "The Hague",
               "short_name" : "The Hague",
               "types" : [ "locality", "political" ]
            },
            {
               "long_name" : "The Hague",
               "short_name" : "The Hague",
               "types" : [ "administrative_area_level_2", "political" ]
            },
            {
               "long_name" : "South Holland",
               "short_name" : "ZH",
               "types" : [ "administrative_area_level_1", "political" ]
            },
            {
               "long_name" : "Netherlands",
               "short_name" : "NL",
               "types" : [ "country", "political" ]
            }
         ],
         "formatted_address" : "2596 The Hague, Netherlands",
         "geometry" : {
            "bounds" : {
               "northeast" : {
                  "lat" : 52.1007379,
                  "lng" : 4.346739299999999
               },
               "southwest" : {
                  "lat" : 52.0851657,
                  "lng" : 4.306140399999999
               }
            },
            "location" : {
               "lat" : 52.0936681,
               "lng" : 4.3196925
            },
            "location_type" : "APPROXIMATE",
            "viewport" : {
               "northeast" : {
                  "lat" : 52.1007379,
                  "lng" : 4.346739299999999
               },
               "southwest" : {
                  "lat" : 52.0851657,
                  "lng" : 4.306140399999999
               }
            }
         },
         "place_id" : "ChIJzRqbA2u3xUcRtWQrylNNH8c",
         "types" : [ "postal_code", "postal_code_prefix" ]
      },
      {
         "address_components" : [
            {
               "long_name" : "Haagse Hout",
               "short_name" : "Haagse Hout",
               "types" : [ "political", "sublocality", "sublocality_level_1" ]
            },
            {
               "long_name" : "The Hague",
               "short_name" : "The Hague",
               "types" : [ "locality", "political" ]
            },
            {
               "long_name" : "The Hague",
               "short_name" : "The Hague",
               "types" : [ "administrative_area_level_2", "political" ]
            },
            {
               "long_name" : "South Holland",
               "short_name" : "ZH",
               "types" : [ "administrative_area_level_1", "political" ]
            },
            {
               "long_name" : "Netherlands",
               "short_name" : "NL",
               "types" : [ "country", "political" ]
            }
         ],
         "formatted_address" : "Haagse Hout, The Hague, Netherlands",
         "geometry" : {
            "bounds" : {
               "northeast" : {
                  "lat" : 52.109285,
                  "lng" : 4.374332
               },
               "southwest" : {
                  "lat" : 52.07602800000001,
                  "lng" : 4.306098
               }
            },
            "location" : {
               "lat" : 52.0895866,
               "lng" : 4.3454798
            },
            "location_type" : "APPROXIMATE",
            "viewport" : {
               "northeast" : {
                  "lat" : 52.109285,
                  "lng" : 4.374332
               },
               "southwest" : {
                  "lat" : 52.07602800000001,
                  "lng" : 4.306098
               }
            }
         },
         "place_id" : "ChIJaZxBCXO3xUcR24vL-OF4NcM",
         "types" : [ "political", "sublocality", "sublocality_level_1" ]
      },
      {
         "address_components" : [
            {
               "long_name" : "The Hague",
               "short_name" : "The Hague",
               "types" : [ "locality", "political" ]
            },
            {
               "long_name" : "The Hague",
               "short_name" : "The Hague",
               "types" : [ "administrative_area_level_2", "political" ]
            },
            {
               "long_name" : "South Holland",
               "short_name" : "ZH",
               "types" : [ "administrative_area_level_1", "political" ]
            },
            {
               "long_name" : "Netherlands",
               "short_name" : "NL",
               "types" : [ "country", "political" ]
            }
         ],
         "formatted_address" : "The Hague, Netherlands",
         "geometry" : {
            "bounds" : {
               "northeast" : {
                  "lat" : 52.1285368,
                  "lng" : 4.4230263
               },
               "southwest" : {
                  "lat" : 52.0147717,
                  "lng" : 4.1967104
               }
            },
            "location" : {
               "lat" : 52.0704978,
               "lng" : 4.3006999
            },
            "location_type" : "APPROXIMATE",
            "viewport" : {
               "northeast" : {
                  "lat" : 52.1285368,
                  "lng" : 4.4230263
               },
               "southwest" : {
                  "lat" : 52.0147717,
                  "lng" : 4.1967104
               }
            }
         },
         "place_id" : "ChIJcb2YQi-3xUcREGwejVreAAQ",
         "types" : [ "locality", "political" ]
      },
      {
         "address_components" : [
            {
               "long_name" : "The Hague",
               "short_name" : "The Hague",
               "types" : [ "administrative_area_level_2", "political" ]
            },
            {
               "long_name" : "South Holland",
               "short_name" : "ZH",
               "types" : [ "administrative_area_level_1", "political" ]
            },
            {
               "long_name" : "Netherlands",
               "short_name" : "NL",
               "types" : [ "country", "political" ]
            }
         ],
         "formatted_address" : "The Hague, Netherlands",
         "geometry" : {
            "bounds" : {
               "northeast" : {
                  "lat" : 52.1285368,
                  "lng" : 4.4230263
               },
               "southwest" : {
                  "lat" : 52.0147717,
                  "lng" : 4.1967104
               }
            },
            "location" : {
               "lat" : 52.0740136,
               "lng" : 4.3050834
            },
            "location_type" : "APPROXIMATE",
            "viewport" : {
               "northeast" : {
                  "lat" : 52.1285368,
                  "lng" : 4.4230263
               },
               "southwest" : {
                  "lat" : 52.0147717,
                  "lng" : 4.1967104
               }
            }
         },
         "place_id" : "ChIJ0SObOthMxEcR25HLLqC_lgw",
         "types" : [ "administrative_area_level_2", "political" ]
      },
      {
         "address_components" : [
            {
               "long_name" : "South Holland",
               "short_name" : "South Holland",
               "types" : [ "administrative_area_level_1", "locality", "political" ]
            },
            {
               "long_name" : "Netherlands",
               "short_name" : "NL",
               "types" : [ "country", "political" ]
            }
         ],
         "formatted_address" : "South Holland, Netherlands",
         "geometry" : {
            "bounds" : {
               "northeast" : {
                  "lat" : 52.3282742,
                  "lng" : 5.1492625
               },
               "southwest" : {
                  "lat" : 51.656067,
                  "lng" : 3.838909399999999
               }
            },
            "location" : {
               "lat" : 52.0207975,
               "lng" : 4.4937836
            },
            "location_type" : "APPROXIMATE",
            "viewport" : {
               "northeast" : {
                  "lat" : 52.3282742,
                  "lng" : 5.1492625
               },
               "southwest" : {
                  "lat" : 51.656067,
                  "lng" : 3.838909399999999
               }
            }
         },
         "place_id" : "ChIJ3xx5hqRHxEcRqpVxnOHVK_w",
         "types" : [ "administrative_area_level_1", "locality", "political" ]
      },
      {
         "address_components" : [
            {
               "long_name" : "Netherlands",
               "short_name" : "NL",
               "types" : [ "country", "political" ]
            }
         ],
         "formatted_address" : "Netherlands",
         "geometry" : {
            "bounds" : {
               "northeast" : {
                  "lat" : 53.6316,
                  "lng" : 7.227510199999999
               },
               "southwest" : {
                  "lat" : 50.75038379999999,
                  "lng" : 3.3316001
               }
            },
            "location" : {
               "lat" : 52.132633,
               "lng" : 5.291265999999999
            },
            "location_type" : "APPROXIMATE",
            "viewport" : {
               "northeast" : {
                  "lat" : 53.6316,
                  "lng" : 7.227510199999999
               },
               "southwest" : {
                  "lat" : 50.75038379999999,
                  "lng" : 3.3316001
               }
            }
         },
         "place_id" : "ChIJu-SH28MJxkcRnwq9_851obM",
         "types" : [ "country", "political" ]
      }
   ],
   "status" : "OK"
}
