{
   "plus_code" : {
      "compound_code" : "X8JG+PM Haidian, Beijing, China",
      "global_code" : "8PFRX8JG+PM"
   },
   "results" : [
      {
         "address_components" : [
            {
               "long_name" : "6",
               "short_name" : "6",
               "types" : [ "street_number" ]
            },
            {
               "long_name" : "Kexueyuan South Road",
               "short_name" : "Kexueyuan S Rd",
               "types" : [ "route" ]
            },
            {
               "long_name" : "Haidian Qu",
               "short_name" : "Haidian Qu",
               "types" : [ "political", "sublocality", "sublocality_level_1" ]
            },
            {
               "long_name" : "Beijing Shi",
               "short_name" : "Beijing Shi",
               "types" : [ "administrative_area_level_1", "political" ]
            },
            {
               "long_name" : "China",
               "short_name" : "CN",
               "types" : [ "country", "political" ]
            },
            {
               "long_name" : "100080",
               "short_name" : "100080",
               "types" : [ "postal_code" ]
            }
         ],
         "formatted_address" : "6 Kexueyuan S Rd, Haidian Qu, Beijing Shi, China, 100080",
         "geometry" : {
            "location" : {
               "lat" : 39.981852,
               "lng" : 116.326659
            },
            "location_type" : "ROOFTOP",
            "viewport" : {
               "northeast" : {
                  "lat" : 39.98320098029149,
                  "lng" : 116.3280079802915
               },
               "southwest" : {
                  "lat" : 39.98050301970849,
                  "lng" : 116.3253100197085
               }
            }
         },
         "place_id" : "ChIJqeJkSf5T8DURPANxUM3Pb40",
         "plus_code" : {
            "compound_code" : "X8JG+PM Haidian, Beijing, China",
            "global_code" : "8PFRX8JG+PM"
         },
         "types" : [ "street_address" ]
      },
      {
         "address_components" : [
            {
               "long_name" : "6号",
               "short_name" : "6号",
               "types" : [ "street_number" ]
            },
            {
               "long_name" : "Kexueyuan South Road",
               "short_name" : "Kexueyuan S Rd",
               "types" : [ "route" ]
            },
            {
               "long_name" : "Haidian Qu",
               "short_name" : "Haidian Qu",
               "types" : [ "political", "sublocality", "sublocality_level_1" ]
            },
            {
               "long_name" : "Beijing Shi",
               "short_name" : "Beijing Shi",
               "types" : [ "administrative_area_level_1", "political" ]
            },
            {
               "long_name" : "China",
               "short_name" : "CN",
               "types" : [ "country", "political" ]
            },
            {
               "long_name" : "100080",
               "short_name" : "100080",
               "types" : [ "postal_code" ]
            }
         ],
         "formatted_address" : "6 Kexueyuan S Rd, Haidian Qu, Beijing Shi, China, 100080",
         "geometry" : {
            "location" : {
               "lat" : 39.981869,
               "lng" : 116.32667
            },
            "location_type" : "ROOFTOP",
            "viewport" : {
               "northeast" : {
                  "lat" : 39.9832179802915,
                  "lng" : 116.3280189802915
               },
               "southwest" : {
                  "lat" : 39.9805200197085,
                  "lng" : 116.3253210197085
               }
            }
         },
         "place_id" : "ChIJMzJiSf5T8DUREuXVVVbCFCU",
         "plus_code" : {
            "compound_code" : "X8JG+PM Haidian, Beijing, China",
            "global_code" : "8PFRX8JG+PM"
         },
         "types" : [ "establishment", "point_of_interest" ]
      },
      {
         "address_components" : [
            {
               "long_name" : "Zhongguancun South 3rd Street",
               "short_name" : "Zhongguancun South 3rd St",
               "types" : [ "route" ]
            },
            {
               "long_name" : "Haidian Qu",
               "short_name" : "Haidian Qu",
               "types" : [ "political", "sublocality", "sublocality_level_1" ]
            },
            {
               "long_name" : "Beijing Shi",
               "short_name" : "Beijing Shi",
               "types" : [ "administrative_area_level_1", "political" ]
            },
            {
               "long_name" : "China",
               "short_name" : "CN",
               "types" : [ "country", "political" ]
            },
            {
               "long_name" : "100080",
               "short_name" : "100080",
               "types" : [ "postal_code" ]
            }
         ],
         "formatted_address" : "Zhongguancun South 3rd St, Haidian Qu, Beijing Shi, China, 100080",
         "geometry" : {
            "bounds" : {
               "northeast" : {
                  "lat" : 39.9821982,
                  "lng" : 116.327413
               },
               "southwest" : {
                  "lat" : 39.9814875,
                  "lng" : 116.327345
               }
            },
            "location" : {
               "lat" : 39.9818428,
               "lng" : 116.327379
            },
            "location_type" : "GEOMETRIC_CENTER",
            "viewport" : {
               "northeast" : {
                  "lat" : 39.9831918302915,
                  "lng" : 116.3287279802915
               },
               "southwest" : {
                  "lat" : 39.9804938697085,
                  "lng" : 116.3260300197085
               }
            }
         },
         "place_id" : "ChIJp8EmUf5T8DUReLvVKGmWdk4",
         "types" : [ "route" ]
      },
      {
         "address_components" : [
            {
               "long_name" : "100190",
               "short_name" : "100190",
               "types" : [ "postal_code" ]
            },
            {
               "long_name" : "Haidian",
               "short_name" : "Haidian",
               "types" : [ "political", "sublocality", "sublocality_level_1" ]
            },
            {
               "long_name" : "Beijing",
               "short_name" : "Beijing",
               "types" : [ "administrative_area_level_1", "political" ]
            },
            {
               "long_name" : "China",
               "short_name" : "CN",
               "types" : [ "country", "political" ]
            }
         ],
         "formatted_address" : "Haidian, Beijing, China, 100190",
         "geometry" : {
            "bounds" : {
               "northeast" : {
                  "lat" : 39.9889407,
                  "lng" : 116.3485587
               },
               "southwest" : {
                  "lat" : 39.96008399999999,
                  "lng" : 116.3205159
               }
            },
            "location" : {
               "lat" : 39.9834538,
               "lng" : 116.3266515
            },
            "location_type" : "APPROXIMATE",
            "viewport" : {
               "northeast" : {
                  "lat" : 39.9889407,
                  "lng" : 116.3485587
               },
               "southwest" : {
                  "lat" : 39.96008399999999,
                  "lng" : 116.3205159
               }
            }
         },
         "place_id" : "ChIJ2a6pt_9T8DURzx3EgDBoh5g",
         "types" : [ "postal_code" ]
      },
      {
         "address_components" : [
            {
               "long_name" : "Haidian",
               "short_name" : "Haidian",
               "types" : [ "political", "sublocality", "sublocality_level_1" ]
            },
            {
               "long_name" : "Beijing",
               "short_name" : "Beijing",
               "types" : [ "administrative_area_level_1", "political" ]
            },
            {
               "long_name" : "China",
               "short_name" : "CN",
               "types" : [ "country", "political" ]
            }
         ],
         "formatted_address" : "Haidian, Beijing, China",
         "geometry" : {
            "bounds" : {
               "northeast" : {
                  "lat" : 40.1609855,
                  "lng" : 116.3950925
               },
               "southwest" : {
                  "lat" : 39.8866432,
                  "lng" : 116.0488379
               }
            },
            "location" : {
               "lat" : 39.959953,
               "lng" : 116.298326
            },
            "location_type" : "APPROXIMATE",
            "viewport" : {
               "northeast" : {
                  "lat" : 40.1609855,
                  "lng" : 116.3950925
               },
               "southwest" : {
                  "lat" : 39.8866432,
                  "lng" : 116.0488379
               }
            }
         },
         "place_id" : "ChIJY61lyDdR8DURicN9xoOvSNM",
         "types" : [ "political", "sublocality", "sublocality_level_1" ]
      },
      {
         "address_components" : [
            {
               "long_name" : "Beijing",
               "short_name" : "Beijing",
               "types" : [ "locality", "political" ]
            },
            {
               "long_name" : "Beijing",
               "short_name" : "Beijing",
               "types" : [ "administrative_area_level_1", "political" ]
            },
            {
               "long_name" : "China",
               "short_name" : "CN",
               "types" : [ "country", "political" ]
            }
         ],
         "formatted_address" : "Beijing, China",
         "geometry" : {
            "bounds" : {
               "northeast" : {
                  "lat" : 41.0608157,
                  "lng" : 117.514625
               },
               "southwest" : {
                  "lat" : 39.442758,
                  "lng" : 115.4234112
               }
            },
            "location" : {
               "lat" : 39.90419989999999,
               "lng" : 116.4073963
            },
            "location_type" : "APPROXIMATE",
            "viewport" : {
               "northeast" : {
                  "lat" : 41.0608157,
                  "lng" : 117.514625
               },
               "southwest" : {
                  "lat" : 39.442758,
                  "lng" : 115.4234112
               }
            }
         },
         "place_id" : "ChIJuSwU55ZS8DURiqkPryBWYrk",
         "types" : [ "locality", "political" ]
      },
      {
         "address_components" : [
            {
               "long_name" : "Beijing",
               "short_name" : "Beijing",
               "types" : [ "administrative_area_level_1", "political" ]
            },
            {
               "long_name" : "China",
               "short_name" : "CN",
               "types" : [ "country", "political" ]
            }
         ],
         "formatted_address" : "Beijing, China",
         "geometry" : {
            "bounds" : {
               "northeast" : {
                  "lat" : 41.0608157,
                  "lng" : 117.514625
               },
               "southwest" : {
                  "lat" : 39.442758,
                  "lng" : 115.4234112
               }
            },
            "location" : {
               "lat" : 40.2373519,
               "lng" : 116.2304616
            },
            "location_type" : "APPROXIMATE",
            "viewport" : {
               "northeast" : {
                  "lat" : 41.0608157,
                  "lng" : 117.514625
               },
               "southwest" : {
                  "lat" : 39.442758,
                  "lng" : 115.4234112
               }
            }
         },
         "place_id" : "ChIJuSwU55ZS8DURp8_dOLuVd8A",
         "types" : [ "administrative_area_level_1", "political" ]
      },
      {
         "address_components" : [
            {
               "long_name" : "China",
               "short_name" : "CN",
               "types" : [ "country", "political" ]
            }
         ],
         "formatted_address" : "China",
         "geometry" : {
            "bounds" : {
               "northeast" : {
                  "lat" : 53.5609739,
                  "lng" : 134.7754563
               },
               "southwest" : {
                  "lat" : 17.9996,
                  "lng" : 73.4994136
               }
            },
            "location" : {
               "lat" : 35.86166,
               "lng" : 104.195397
            },
            "location_type" : "APPROXIMATE",
            "viewport" : {
               "northeast" : {
                  "lat" : 53.5609739,
                  "lng" : 134.7754563
               },
               "southwest" : {
                  "lat" : 17.9996,
                  "lng" : 73.4994136
               }
            }
         },
         "place_id" : "ChIJwULG5WSOUDERbzafNHyqHZU",
         "types" : [ "country", "political" ]
      }
   ],
   "status" : "OK"
}
