{
   "plus_code" : {
      "compound_code" : "5JRP+V9 Caen, France",
      "global_code" : "8CXX5JRP+V9"
   },
   "results" : [
      {
         "address_components" : [
            {
               "long_name" : "Esplanade de la Paix",
               "short_name" : "Espl. de la Paix",
               "types" : [ "route" ]
            },
            {
               "long_name" : "Caen",
               "short_name" : "Caen",
               "types" : [ "locality", "political" ]
            },
            {
               "long_name" : "Calvados",
               "short_name" : "Calvados",
               "types" : [ "administrative_area_level_2", "political" ]
            },
            {
               "long_name" : "Normandie",
               "short_name" : "Normandie",
               "types" : [ "administrative_area_level_1", "political" ]
            },
            {
               "long_name" : "France",
               "short_name" : "FR",
               "types" : [ "country", "political" ]
            },
            {
               "long_name" : "14032",
               "short_name" : "14032",
               "types" : [ "postal_code" ]
            }
         ],
         "formatted_address" : "Espl. de la Paix, 14032 Caen, France",
         "geometry" : {
            "location" : {
               "lat" : 49.1922157,
               "lng" : -0.3640725
            },
            "location_type" : "GEOMETRIC_CENTER",
            "viewport" : {
               "northeast" : {
                  "lat" : 49.19356468029149,
                  "lng" : -0.3627235197084979
               },
               "southwest" : {
                  "lat" : 49.1908667197085,
                  "lng" : -0.365421480291502
               }
            }
         },
         "place_id" : "ChIJe0UTWLdCCkgREy72XSUmltk",
         "plus_code" : {
            "compound_code" : "5JRP+V9 Caen, France",
            "global_code" : "8CXX5JRP+V9"
         },
         "types" : [ "establishment", "point_of_interest", "university" ]
      },
      {
         "address_components" : [
            {
               "long_name" : "Unnamed Road",
               "short_name" : "Unnamed Road",
               "types" : [ "route" ]
            },
            {
               "long_name" : "Caen",
               "short_name" : "Caen",
               "types" : [ "locality", "political" ]
            },
            {
               "long_name" : "Calvados",
               "short_name" : "Calvados",
               "types" : [ "administrative_area_level_2", "political" ]
            },
            {
               "long_name" : "Normandie",
               "short_name" : "Normandie",
               "types" : [ "administrative_area_level_1", "political" ]
            },
            {
               "long_name" : "France",
               "short_name" : "FR",
               "types" : [ "country", "political" ]
            },
            {
               "long_name" : "14000",
               "short_name" : "14000",
               "types" : [ "postal_code" ]
            }
         ],
         "formatted_address" : "Unnamed Road, 14000 Caen, France",
         "geometry" : {
            "bounds" : {
               "northeast" : {
                  "lat" : 49.19252969999999,
                  "lng" : -0.3642365
               },
               "southwest" : {
                  "lat" : 49.1921791,
                  "lng" : -0.3642901
               }
            },
            "location" : {
               "lat" : 49.1923544,
               "lng" : -0.3642633
            },
            "location_type" : "GEOMETRIC_CENTER",
            "viewport" : {
               "northeast" : {
                  "lat" : 49.1937033802915,
                  "lng" : -0.3629143197084979
               },
               "southwest" : {
                  "lat" : 49.1910054197085,
                  "lng" : -0.365612280291502
               }
            }
         },
         "place_id" : "ChIJs4oF4rlCCkgRZoH63VZtMwk",
         "types" : [ "route" ]
      },
      {
         "address_components" : [
            {
               "long_name" : "Calvaire Saint Pierre",
               "short_name" : "Calvaire St Pierre",
               "types" : [ "neighborhood", "political" ]
            },
            {
               "long_name" : "Caen",
               "short_name" : "Caen",
               "types" : [ "locality", "political" ]
            },
            {
               "long_name" : "Calvados",
               "short_name" : "Calvados",
               "types" : [ "administrative_area_level_2", "political" ]
            },
            {
               "long_name" : "Normandie",
               "short_name" : "Normandie",
               "types" : [ "administrative_area_level_1", "political" ]
            },
            {
               "long_name" : "France",
               "short_name" : "FR",
               "types" : [ "country", "political" ]
            },
            {
               "long_name" : "14000",
               "short_name" : "14000",
               "types" : [ "postal_code" ]
            }
         ],
         "formatted_address" : "Calvaire St Pierre, 14000 Caen, France",
         "geometry" : {
            "bounds" : {
               "northeast" : {
                  "lat" : 49.2022019,
                  "lng" : -0.3593516
               },
               "southwest" : {
                  "lat" : 49.1867455,
                  "lng" : -0.3702521
               }
            },
            "location" : {
               "lat" : 49.1961831,
               "lng" : -0.3647181
            },
            "location_type" : "APPROXIMATE",
            "viewport" : {
               "northeast" : {
                  "lat" : 49.2022019,
                  "lng" : -0.3593516
               },
               "southwest" : {
                  "lat" : 49.1867455,
                  "lng" : -0.3702521
               }
            }
         },
         "place_id" : "ChIJmZEV2rZCCkgRJtrRrdzzceI",
         "types" : [ "neighborhood", "political" ]
      },
      {
         "address_components" : [
            {
               "long_name" : "14000",
               "short_name" : "14000",
               "types" : [ "postal_code" ]
            },
            {
               "long_name" : "Caen",
               "short_name" : "Caen",
               "types" : [ "locality", "political" ]
            },
            {
               "long_name" : "Calvados",
               "short_name" : "Calvados",
               "types" : [ "administrative_area_level_2", "political" ]
            },
            {
               "long_name" : "Normandy",
               "short_name" : "Normandy",
               "types" : [ "administrative_area_level_1", "political" ]
            },
            {
               "long_name" : "France",
               "short_name" : "FR",
               "types" : [ "country", "political" ]
            }
         ],
         "formatted_address" : "14000 Caen, France",
         "geometry" : {
            "bounds" : {
               "northeast" : {
                  "lat" : 49.21617810000001,
                  "lng" : -0.3304896
               },
               "southwest" : {
                  "lat" : 49.1530906,
                  "lng" : -0.4134274
               }
            },
            "location" : {
               "lat" : 49.1923387,
               "lng" : -0.3796444
            },
            "location_type" : "APPROXIMATE",
            "viewport" : {
               "northeast" : {
                  "lat" : 49.21617810000001,
                  "lng" : -0.3304896
               },
               "southwest" : {
                  "lat" : 49.1530906,
                  "lng" : -0.4134274
               }
            }
         },
         "place_id" : "ChIJeytcqMFCCkgRMOPJj0sUDBw",
         "types" : [ "postal_code" ]
      },
      {
         "address_components" : [
            {
               "long_name" : "Caen",
               "short_name" : "Caen",
               "types" : [ "locality", "political" ]
            },
            {
               "long_name" : "Calvados",
               "short_name" : "Calvados",
               "types" : [ "administrative_area_level_2", "political" ]
            },
            {
               "long_name" : "Normandy",
               "short_name" : "Normandy",
               "types" : [ "administrative_area_level_1", "political" ]
            },
            {
               "long_name" : "France",
               "short_name" : "FR",
               "types" : [ "country", "political" ]
            },
            {
               "long_name" : "14000",
               "short_name" : "14000",
               "types" : [ "postal_code" ]
            }
         ],
         "formatted_address" : "14000 Caen, France",
         "geometry" : {
            "bounds" : {
               "northeast" : {
                  "lat" : 49.21626879999999,
                  "lng" : -0.3307391
               },
               "southwest" : {
                  "lat" : 49.15298689999999,
                  "lng" : -0.4137789000000001
               }
            },
            "location" : {
               "lat" : 49.182863,
               "lng" : -0.370679
            },
            "location_type" : "APPROXIMATE",
            "viewport" : {
               "northeast" : {
                  "lat" : 49.21626879999999,
                  "lng" : -0.3307391
               },
               "southwest" : {
                  "lat" : 49.15298689999999,
                  "lng" : -0.4137789000000001
               }
            }
         },
         "place_id" : "ChIJM8kETL1CCkgRWQjQMJ90pT0",
         "types" : [ "locality", "political" ]
      },
      {
         "address_components" : [
            {
               "long_name" : "Calvados",
               "short_name" : "Calvados",
               "types" : [ "administrative_area_level_2", "political" ]
            },
            {
               "long_name" : "Normandy",
               "short_name" : "Normandy",
               "types" : [ "administrative_area_level_1", "political" ]
            },
            {
               "long_name" : "France",
               "short_name" : "FR",
               "types" : [ "country", "political" ]
            }
         ],
         "formatted_address" : "Calvados, France",
         "geometry" : {
            "bounds" : {
               "northeast" : {
                  "lat" : 49.4299189,
                  "lng" : 0.4464769
               },
               "southwest" : {
                  "lat" : 48.751681,
                  "lng" : -1.159777
               }
            },
            "location" : {
               "lat" : 49.1213315,
               "lng" : -0.4330578
            },
            "location_type" : "APPROXIMATE",
            "viewport" : {
               "northeast" : {
                  "lat" : 49.4299189,
                  "lng" : 0.4464769
               },
               "southwest" : {
                  "lat" : 48.751681,
                  "lng" : -1.159777
               }
            }
         },
         "place_id" : "ChIJ7c9WzNpBCkgRUCa1T0gUDAM",
         "types" : [ "administrative_area_level_2", "political" ]
      },
      {
         "address_components" : [
            {
               "long_name" : "Normandy",
               "short_name" : "Normandy",
               "types" : [ "administrative_area_level_1", "political" ]
            },
            {
               "long_name" : "France",
               "short_name" : "FR",
               "types" : [ "country", "political" ]
            }
         ],
         "formatted_address" : "Normandy, France",
         "geometry" : {
            "bounds" : {
               "northeast" : {
                  "lat" : 50.072097,
                  "lng" : 1.8031111
               },
               "southwest" : {
                  "lat" : 48.1798839,
                  "lng" : -1.954995
               }
            },
            "location" : {
               "lat" : 48.87987039999999,
               "lng" : 0.1712529
            },
            "location_type" : "APPROXIMATE",
            "viewport" : {
               "northeast" : {
                  "lat" : 50.072097,
                  "lng" : 1.8031111
               },
               "southwest" : {
                  "lat" : 48.1798839,
                  "lng" : -1.954995
               }
            }
         },
         "place_id" : "ChIJh8D4I2y94UcRAuJIEVbx8iY",
         "types" : [ "administrative_area_level_1", "political" ]
      },
      {
         "address_components" : [
            {
               "long_name" : "France",
               "short_name" : "FR",
               "types" : [ "country", "political" ]
            }
         ],
         "formatted_address" : "France",
         "geometry" : {
            "bounds" : {
               "northeast" : {
                  "lat" : 51.1241999,
                  "lng" : 9.6624999
               },
               "southwest" : {
                  "lat" : 41.31433,
                  "lng" : -5.5591
               }
            },
            "location" : {
               "lat" : 46.227638,
               "lng" : 2.213749
            },
            "location_type" : "APPROXIMATE",
            "viewport" : {
               "northeast" : {
                  "lat" : 51.1241999,
                  "lng" : 9.6624999
               },
               "southwest" : {
                  "lat" : 41.31433,
                  "lng" : -5.5591
               }
            }
         },
         "place_id" : "ChIJMVd4MymgVA0R99lHx5Y__Ws",
         "types" : [ "country", "political" ]
      }
   ],
   "status" : "OK"
}
