{
   "plus_code" : {
      "compound_code" : "9PJ9+CW Tartu, Tartu County, Estonia",
      "global_code" : "9GC89PJ9+CW"
   },
   "results" : [
      {
         "address_components" : [
            {
               "long_name" : "18",
               "short_name" : "18",
               "types" : [ "street_number" ]
            },
            {
               "long_name" : "Ülikooli",
               "short_name" : "Ülikooli",
               "types" : [ "route" ]
            },
            {
               "long_name" : "Tartu",
               "short_name" : "Tartu",
               "types" : [ "locality", "political" ]
            },
            {
               "long_name" : "Tartu maakond",
               "short_name" : "Tartu maakond",
               "types" : [ "administrative_area_level_1", "political" ]
            },
            {
               "long_name" : "Estonia",
               "short_name" : "EE",
               "types" : [ "country", "political" ]
            },
            {
               "long_name" : "50090",
               "short_name" : "50090",
               "types" : [ "postal_code" ]
            }
         ],
         "formatted_address" : "Ülikooli 18, 50090 Tartu, Estonia",
         "geometry" : {
            "location" : {
               "lat" : 58.3810843,
               "lng" : 26.7198659
            },
            "location_type" : "ROOFTOP",
            "viewport" : {
               "northeast" : {
                  "lat" : 58.38243328029151,
                  "lng" : 26.7212148802915
               },
               "southwest" : {
                  "lat" : 58.37973531970849,
                  "lng" : 26.7185169197085
               }
            }
         },
         "place_id" : "ChIJxWY1NeE260YRHuhb4GPmQYM",
         "plus_code" : {
            "compound_code" : "9PJ9+CW Tartu, Tartu County, Estonia",
            "global_code" : "9GC89PJ9+CW"
         },
         "types" : [ "establishment", "point_of_interest", "university" ]
      },
      {
         "address_components" : [
            {
               "long_name" : "18",
               "short_name" : "18",
               "types" : [ "street_number" ]
            },
            {
               "long_name" : "Ülikooli",
               "short_name" : "Ülikooli",
               "types" : [ "route" ]
            },
            {
               "long_name" : "Tartu",
               "short_name" : "Tartu",
               "types" : [ "locality", "political" ]
            },
            {
               "long_name" : "Tartu maakond",
               "short_name" : "Tartu maakond",
               "types" : [ "administrative_area_level_1", "political" ]
            },
            {
               "long_name" : "Estonia",
               "short_name" : "EE",
               "types" : [ "country", "political" ]
            },
            {
               "long_name" : "51005",
               "short_name" : "51005",
               "types" : [ "postal_code" ]
            }
         ],
         "formatted_address" : "Ülikooli 18, 51005 Tartu, Estonia",
         "geometry" : {
            "bounds" : {
               "northeast" : {
                  "lat" : 58.3814218,
                  "lng" : 26.7201685
               },
               "southwest" : {
                  "lat" : 58.38066999999999,
                  "lng" : 26.7189439
               }
            },
            "location" : {
               "lat" : 58.38109110000001,
               "lng" : 26.7198662
            },
            "location_type" : "ROOFTOP",
            "viewport" : {
               "northeast" : {
                  "lat" : 58.3823948802915,
                  "lng" : 26.7209051802915
               },
               "southwest" : {
                  "lat" : 58.37969691970849,
                  "lng" : 26.7182072197085
               }
            }
         },
         "place_id" : "ChIJSVIsy-Y260YRSweDpDiyiO4",
         "types" : [ "premise" ]
      },
      {
         "address_components" : [
            {
               "long_name" : "18b",
               "short_name" : "18b",
               "types" : [ "street_number" ]
            },
            {
               "long_name" : "Ülikooli",
               "short_name" : "Ülikooli",
               "types" : [ "route" ]
            },
            {
               "long_name" : "Tartu",
               "short_name" : "Tartu",
               "types" : [ "locality", "political" ]
            },
            {
               "long_name" : "Tartu maakond",
               "short_name" : "Tartu maakond",
               "types" : [ "administrative_area_level_1", "political" ]
            },
            {
               "long_name" : "Estonia",
               "short_name" : "EE",
               "types" : [ "country", "political" ]
            },
            {
               "long_name" : "51005",
               "short_name" : "51005",
               "types" : [ "postal_code" ]
            }
         ],
         "formatted_address" : "Ülikooli 18b, 51005 Tartu, Estonia",
         "geometry" : {
            "location" : {
               "lat" : 58.38109710000001,
               "lng" : 26.7198981
            },
            "location_type" : "ROOFTOP",
            "viewport" : {
               "northeast" : {
                  "lat" : 58.38244608029151,
                  "lng" : 26.7212470802915
               },
               "southwest" : {
                  "lat" : 58.3797481197085,
                  "lng" : 26.7185491197085
               }
            }
         },
         "place_id" : "ChIJ5bQyyOY260YR3XnrWVDtOaw",
         "plus_code" : {
            "compound_code" : "9PJ9+CX Tartu, Tartu County, Estonia",
            "global_code" : "9GC89PJ9+CX"
         },
         "types" : [ "street_address" ]
      },
      {
         "address_components" : [
            {
               "long_name" : "15",
               "short_name" : "15",
               "types" : [ "street_number" ]
            },
            {
               "long_name" : "Ülikooli",
               "short_name" : "Ülikooli",
               "types" : [ "route" ]
            },
            {
               "long_name" : "Tartu",
               "short_name" : "Tartu",
               "types" : [ "locality", "political" ]
            },
            {
               "long_name" : "Estonia",
               "short_name" : "EE",
               "types" : [ "country", "political" ]
            },
            {
               "long_name" : "51005",
               "short_name" : "51005",
               "types" : [ "postal_code" ]
            }
         ],
         "formatted_address" : "Ülikooli 15, 51005 Tartu, Estonia",
         "geometry" : {
            "location" : {
               "lat" : 58.3811274,
               "lng" : 26.7204317
            },
            "location_type" : "RANGE_INTERPOLATED",
            "viewport" : {
               "northeast" : {
                  "lat" : 58.38247638029151,
                  "lng" : 26.7217806802915
               },
               "southwest" : {
                  "lat" : 58.37977841970849,
                  "lng" : 26.7190827197085
               }
            }
         },
         "place_id" : "EiDDnGxpa29vbGkgMTUsIDUxMDA1IFRhcnR1LCBFZXN0aSIaEhgKFAoSCS12u83mNutGERAmT3Ur74cyEA8",
         "types" : [ "street_address" ]
      },
      {
         "address_components" : [
            {
               "long_name" : "51005",
               "short_name" : "51005",
               "types" : [ "postal_code" ]
            },
            {
               "long_name" : "Tartu",
               "short_name" : "Tartu",
               "types" : [ "locality", "political" ]
            },
            {
               "long_name" : "Tartu County",
               "short_name" : "Tartu County",
               "types" : [ "administrative_area_level_1", "political" ]
            },
            {
               "long_name" : "Estonia",
               "short_name" : "EE",
               "types" : [ "country", "political" ]
            }
         ],
         "formatted_address" : "51005 Tartu, Estonia",
         "geometry" : {
            "bounds" : {
               "northeast" : {
                  "lat" : 58.384397,
                  "lng" : 26.7249691
               },
               "southwest" : {
                  "lat" : 58.377521,
                  "lng" : 26.6977569
               }
            },
            "location" : {
               "lat" : 58.3810559,
               "lng" : 26.7091357
            },
            "location_type" : "APPROXIMATE",
            "viewport" : {
               "northeast" : {
                  "lat" : 58.384397,
                  "lng" : 26.7249691
               },
               "southwest" : {
                  "lat" : 58.377521,
                  "lng" : 26.6977569
               }
            }
         },
         "place_id" : "ChIJLwT-dOM260YRUBSiLnCzABw",
         "types" : [ "postal_code" ]
      },
      {
         "address_components" : [
            {
               "long_name" : "Tartu",
               "short_name" : "Tartu",
               "types" : [ "locality", "political" ]
            },
            {
               "long_name" : "Tartu County",
               "short_name" : "Tartu County",
               "types" : [ "administrative_area_level_1", "political" ]
            },
            {
               "long_name" : "Estonia",
               "short_name" : "EE",
               "types" : [ "country", "political" ]
            }
         ],
         "formatted_address" : "Tartu, Estonia",
         "geometry" : {
            "bounds" : {
               "northeast" : {
                  "lat" : 58.41088429999999,
                  "lng" : 26.7980148
               },
               "southwest" : {
                  "lat" : 58.3390198,
                  "lng" : 26.6670753
               }
            },
            "location" : {
               "lat" : 58.37798299999999,
               "lng" : 26.7290383
            },
            "location_type" : "APPROXIMATE",
            "viewport" : {
               "northeast" : {
                  "lat" : 58.41088429999999,
                  "lng" : 26.7980148
               },
               "southwest" : {
                  "lat" : 58.3390198,
                  "lng" : 26.6670753
               }
            }
         },
         "place_id" : "ChIJ9z1d1dg260YREG38GG2zAAQ",
         "types" : [ "locality", "political" ]
      },
      {
         "address_components" : [
            {
               "long_name" : "Tartu linn",
               "short_name" : "Tartu linn",
               "types" : [ "administrative_area_level_2", "political" ]
            },
            {
               "long_name" : "Tartu maakond",
               "short_name" : "Tartu maakond",
               "types" : [ "administrative_area_level_1", "political" ]
            },
            {
               "long_name" : "Estonia",
               "short_name" : "EE",
               "types" : [ "country", "political" ]
            }
         ],
         "formatted_address" : "Tartu linn, Tartu maakond, Estonia",
         "geometry" : {
            "bounds" : {
               "northeast" : {
                  "lat" : 58.45920309999999,
                  "lng" : 26.7980146
               },
               "southwest" : {
                  "lat" : 58.33204449999999,
                  "lng" : 26.4570585
               }
            },
            "location" : {
               "lat" : 58.3853276,
               "lng" : 26.6179498
            },
            "location_type" : "APPROXIMATE",
            "viewport" : {
               "northeast" : {
                  "lat" : 58.45920309999999,
                  "lng" : 26.7980146
               },
               "southwest" : {
                  "lat" : 58.33204449999999,
                  "lng" : 26.4570585
               }
            }
         },
         "place_id" : "ChIJJR1n1dg260YR9g9jAMx3CWs",
         "types" : [ "administrative_area_level_2", "political" ]
      },
      {
         "address_components" : [
            {
               "long_name" : "Tartu County",
               "short_name" : "Tartu County",
               "types" : [ "administrative_area_level_1", "political" ]
            },
            {
               "long_name" : "Estonia",
               "short_name" : "EE",
               "types" : [ "country", "political" ]
            }
         ],
         "formatted_address" : "Tartu County, Estonia",
         "geometry" : {
            "bounds" : {
               "northeast" : {
                  "lat" : 58.7702425,
                  "lng" : 27.5336109
               },
               "southwest" : {
                  "lat" : 58.0451608,
                  "lng" : 26.0518702
               }
            },
            "location" : {
               "lat" : 58.40571279999999,
               "lng" : 26.801576
            },
            "location_type" : "APPROXIMATE",
            "viewport" : {
               "northeast" : {
                  "lat" : 58.7702425,
                  "lng" : 27.5336109
               },
               "southwest" : {
                  "lat" : 58.0451608,
                  "lng" : 26.0518702
               }
            }
         },
         "place_id" : "ChIJBWDePa0260YR0GD8GG2zAAM",
         "types" : [ "administrative_area_level_1", "political" ]
      },
      {
         "address_components" : [
            {
               "long_name" : "Estonia",
               "short_name" : "EE",
               "types" : [ "country", "political" ]
            }
         ],
         "formatted_address" : "Estonia",
         "geometry" : {
            "bounds" : {
               "northeast" : {
                  "lat" : 59.7315,
                  "lng" : 28.2101389
               },
               "southwest" : {
                  "lat" : 57.50931600000001,
                  "lng" : 21.6540999
               }
            },
            "location" : {
               "lat" : 58.595272,
               "lng" : 25.0136071
            },
            "location_type" : "APPROXIMATE",
            "viewport" : {
               "northeast" : {
                  "lat" : 59.7315,
                  "lng" : 28.2101389
               },
               "southwest" : {
                  "lat" : 57.50931600000001,
                  "lng" : 21.6540999
               }
            }
         },
         "place_id" : "ChIJ_UuggpyUkkYRwyW0T7qf6kA",
         "types" : [ "country", "political" ]
      }
   ],
   "status" : "OK"
}
