{
   "plus_code" : {
      "compound_code" : "R78F+HM Anderlecht, Belgium",
      "global_code" : "9F26R78F+HM"
   },
   "results" : [
      {
         "address_components" : [
            {
               "long_name" : "60",
               "short_name" : "60",
               "types" : [ "street_number" ]
            },
            {
               "long_name" : "Allée de la Recherche",
               "short_name" : "Allée de la Recherche",
               "types" : [ "route" ]
            },
            {
               "long_name" : "Anderlecht",
               "short_name" : "Anderlecht",
               "types" : [ "locality", "political" ]
            },
            {
               "long_name" : "Bruxelles",
               "short_name" : "Bruxelles",
               "types" : [ "administrative_area_level_1", "political" ]
            },
            {
               "long_name" : "Belgium",
               "short_name" : "BE",
               "types" : [ "country", "political" ]
            },
            {
               "long_name" : "1070",
               "short_name" : "1070",
               "types" : [ "postal_code" ]
            }
         ],
         "formatted_address" : "Allée de la Recherche 60, 1070 Anderlecht, Belgium",
         "geometry" : {
            "location" : {
               "lat" : 50.8163952,
               "lng" : 4.2741383
            },
            "location_type" : "ROOFTOP",
            "viewport" : {
               "northeast" : {
                  "lat" : 50.8177441802915,
                  "lng" : 4.275487280291502
               },
               "southwest" : {
                  "lat" : 50.8150462197085,
                  "lng" : 4.272789319708497
               }
            }
         },
         "place_id" : "ChIJ6w4utvPGw0cR_BI-66r_x2U",
         "plus_code" : {
            "compound_code" : "R78F+HM Anderlecht, Belgium",
            "global_code" : "9F26R78F+HM"
         },
         "types" : [ "establishment", "health", "point_of_interest" ]
      },
      {
         "address_components" : [
            {
               "long_name" : "60",
               "short_name" : "60",
               "types" : [ "street_number" ]
            },
            {
               "long_name" : "Researchdreef",
               "short_name" : "Researchdreef",
               "types" : [ "route" ]
            },
            {
               "long_name" : "Anderlecht",
               "short_name" : "Anderlecht",
               "types" : [ "locality", "political" ]
            },
            {
               "long_name" : "Brussels Hoofdstedelijk Gewest",
               "short_name" : "Brussels Hoofdstedelijk Gewest",
               "types" : [ "administrative_area_level_1", "political" ]
            },
            {
               "long_name" : "Belgium",
               "short_name" : "BE",
               "types" : [ "country", "political" ]
            },
            {
               "long_name" : "1070",
               "short_name" : "1070",
               "types" : [ "postal_code" ]
            }
         ],
         "formatted_address" : "Researchdreef 60, 1070 Anderlecht, Belgium",
         "geometry" : {
            "location" : {
               "lat" : 50.816483,
               "lng" : 4.274175000000001
            },
            "location_type" : "ROOFTOP",
            "viewport" : {
               "northeast" : {
                  "lat" : 50.8178319802915,
                  "lng" : 4.275523980291503
               },
               "southwest" : {
                  "lat" : 50.8151340197085,
                  "lng" : 4.272826019708498
               }
            }
         },
         "place_id" : "ChIJ6w4utvPGw0cRORxfeEWCRZM",
         "plus_code" : {
            "compound_code" : "R78F+HM Anderlecht, Belgium",
            "global_code" : "9F26R78F+HM"
         },
         "types" : [ "street_address" ]
      },
      {
         "address_components" : [
            {
               "long_name" : "Zomerviolierstraat",
               "short_name" : "Zomerviolierstraat",
               "types" : [ "route" ]
            },
            {
               "long_name" : "Anderlecht",
               "short_name" : "Anderlecht",
               "types" : [ "locality", "political" ]
            },
            {
               "long_name" : "Brussels Hoofdstedelijk Gewest",
               "short_name" : "Brussels Hoofdstedelijk Gewest",
               "types" : [ "administrative_area_level_1", "political" ]
            },
            {
               "long_name" : "Belgium",
               "short_name" : "BE",
               "types" : [ "country", "political" ]
            },
            {
               "long_name" : "1070",
               "short_name" : "1070",
               "types" : [ "postal_code" ]
            }
         ],
         "formatted_address" : "Zomerviolierstraat, 1070 Anderlecht, Belgium",
         "geometry" : {
            "bounds" : {
               "northeast" : {
                  "lat" : 50.81648269999999,
                  "lng" : 4.2742137
               },
               "southwest" : {
                  "lat" : 50.8159807,
                  "lng" : 4.2740483
               }
            },
            "location" : {
               "lat" : 50.8162317,
               "lng" : 4.274131
            },
            "location_type" : "GEOMETRIC_CENTER",
            "viewport" : {
               "northeast" : {
                  "lat" : 50.8175806802915,
                  "lng" : 4.275479980291503
               },
               "southwest" : {
                  "lat" : 50.8148827197085,
                  "lng" : 4.272782019708498
               }
            }
         },
         "place_id" : "ChIJ8wOTuPPGw0cRGE6E10fyG74",
         "types" : [ "route" ]
      },
      {
         "address_components" : [
            {
               "long_name" : "Vogelenzang",
               "short_name" : "Vogelenzang",
               "types" : [ "neighborhood", "political" ]
            },
            {
               "long_name" : "Anderlecht",
               "short_name" : "Anderlecht",
               "types" : [ "locality", "political" ]
            },
            {
               "long_name" : "Flemish Brabant",
               "short_name" : "VB",
               "types" : [ "administrative_area_level_2", "political" ]
            },
            {
               "long_name" : "Bruxelles",
               "short_name" : "Bruxelles",
               "types" : [ "administrative_area_level_1", "political" ]
            },
            {
               "long_name" : "Belgium",
               "short_name" : "BE",
               "types" : [ "country", "political" ]
            },
            {
               "long_name" : "1070",
               "short_name" : "1070",
               "types" : [ "postal_code" ]
            }
         ],
         "formatted_address" : "Vogelenzang, 1070 Anderlecht, Belgium",
         "geometry" : {
            "bounds" : {
               "northeast" : {
                  "lat" : 50.8224752,
                  "lng" : 4.2980265
               },
               "southwest" : {
                  "lat" : 50.80710089999999,
                  "lng" : 4.256365199999999
               }
            },
            "location" : {
               "lat" : 50.8168916,
               "lng" : 4.2757521
            },
            "location_type" : "APPROXIMATE",
            "viewport" : {
               "northeast" : {
                  "lat" : 50.8224752,
                  "lng" : 4.2980265
               },
               "southwest" : {
                  "lat" : 50.80710089999999,
                  "lng" : 4.256365199999999
               }
            }
         },
         "place_id" : "ChIJXVnzqfTGw0cRz9IlO3skcqU",
         "types" : [ "neighborhood", "political" ]
      },
      {
         "address_components" : [
            {
               "long_name" : "1070",
               "short_name" : "1070",
               "types" : [ "postal_code" ]
            },
            {
               "long_name" : "Brussels",
               "short_name" : "Brussels",
               "types" : [ "administrative_area_level_1", "political" ]
            },
            {
               "long_name" : "Belgium",
               "short_name" : "BE",
               "types" : [ "country", "political" ]
            }
         ],
         "formatted_address" : "1070, Belgium",
         "geometry" : {
            "bounds" : {
               "northeast" : {
                  "lat" : 50.8502409,
                  "lng" : 4.3402661
               },
               "southwest" : {
                  "lat" : 50.806981,
                  "lng" : 4.2441007
               }
            },
            "location" : {
               "lat" : 50.8238652,
               "lng" : 4.298658400000001
            },
            "location_type" : "APPROXIMATE",
            "viewport" : {
               "northeast" : {
                  "lat" : 50.8502409,
                  "lng" : 4.3402661
               },
               "southwest" : {
                  "lat" : 50.806981,
                  "lng" : 4.2441007
               }
            }
         },
         "place_id" : "ChIJFdHs09Gkw0cR4biZbyJ1gI8",
         "types" : [ "postal_code" ]
      },
      {
         "address_components" : [
            {
               "long_name" : "Anderlecht",
               "short_name" : "Anderlecht",
               "types" : [ "locality", "political" ]
            },
            {
               "long_name" : "Brussels",
               "short_name" : "Brussels",
               "types" : [ "administrative_area_level_1", "political" ]
            },
            {
               "long_name" : "Belgium",
               "short_name" : "BE",
               "types" : [ "country", "political" ]
            },
            {
               "long_name" : "1070",
               "short_name" : "1070",
               "types" : [ "postal_code" ]
            }
         ],
         "formatted_address" : "1070 Anderlecht, Belgium",
         "geometry" : {
            "bounds" : {
               "northeast" : {
                  "lat" : 50.85022,
                  "lng" : 4.34026
               },
               "southwest" : {
                  "lat" : 50.80707,
                  "lng" : 4.2446001
               }
            },
            "location" : {
               "lat" : 50.8365808,
               "lng" : 4.308187
            },
            "location_type" : "APPROXIMATE",
            "viewport" : {
               "northeast" : {
                  "lat" : 50.85022,
                  "lng" : 4.34026
               },
               "southwest" : {
                  "lat" : 50.80707,
                  "lng" : 4.2446001
               }
            }
         },
         "place_id" : "ChIJqQUDttGkw0cRb6C525B3p-s",
         "types" : [ "locality", "political" ]
      },
      {
         "address_components" : [
            {
               "long_name" : "Brussels",
               "short_name" : "Brussels",
               "types" : [ "administrative_area_level_1", "locality", "political" ]
            },
            {
               "long_name" : "Belgium",
               "short_name" : "BE",
               "types" : [ "country", "political" ]
            }
         ],
         "formatted_address" : "Brussels, Belgium",
         "geometry" : {
            "bounds" : {
               "northeast" : {
                  "lat" : 50.91370999999999,
                  "lng" : 4.4822099
               },
               "southwest" : {
                  "lat" : 50.76369,
                  "lng" : 4.2446001
               }
            },
            "location" : {
               "lat" : 50.8503463,
               "lng" : 4.3517211
            },
            "location_type" : "APPROXIMATE",
            "viewport" : {
               "northeast" : {
                  "lat" : 50.91370999999999,
                  "lng" : 4.4822099
               },
               "southwest" : {
                  "lat" : 50.76369,
                  "lng" : 4.2446001
               }
            }
         },
         "place_id" : "ChIJ_58PdIbEw0cRMIBML6uZAAE",
         "types" : [ "administrative_area_level_1", "locality", "political" ]
      },
      {
         "address_components" : [
            {
               "long_name" : "Belgium",
               "short_name" : "BE",
               "types" : [ "country", "political" ]
            }
         ],
         "formatted_address" : "Belgium",
         "geometry" : {
            "bounds" : {
               "northeast" : {
                  "lat" : 51.5051449,
                  "lng" : 6.408124099999999
               },
               "southwest" : {
                  "lat" : 49.497013,
                  "lng" : 2.5240999
               }
            },
            "location" : {
               "lat" : 50.503887,
               "lng" : 4.469936
            },
            "location_type" : "APPROXIMATE",
            "viewport" : {
               "northeast" : {
                  "lat" : 51.5051449,
                  "lng" : 6.408124099999999
               },
               "southwest" : {
                  "lat" : 49.497013,
                  "lng" : 2.5240999
               }
            }
         },
         "place_id" : "ChIJl5fz7WR9wUcR8g_mObTy60c",
         "types" : [ "country", "political" ]
      }
   ],
   "status" : "OK"
}
