{
   "plus_code" : {
      "compound_code" : "WQ58+4Q Muju-gun, Jeollabuk-do, South Korea",
      "global_code" : "8Q79WQ58+4Q"
   },
   "results" : [
      {
         "address_components" : [
            {
               "long_name" : "Gucheondong-ro",
               "short_name" : "Gucheondong-ro",
               "types" : [ "political", "sublocality", "sublocality_level_4" ]
            },
            {
               "long_name" : "Seolcheon-myeon",
               "short_name" : "Seolcheon-myeon",
               "types" : [ "political", "sublocality", "sublocality_level_2" ]
            },
            {
               "long_name" : "Muju-gun",
               "short_name" : "Muju-gun",
               "types" : [ "locality", "political" ]
            },
            {
               "long_name" : "Jeollabuk-do",
               "short_name" : "Jeollabuk-do",
               "types" : [ "administrative_area_level_1", "political" ]
            },
            {
               "long_name" : "South Korea",
               "short_name" : "KR",
               "types" : [ "country", "political" ]
            },
            {
               "long_name" : "568-810",
               "short_name" : "568-810",
               "types" : [ "postal_code" ]
            }
         ],
         "formatted_address" : "Gucheondong-ro, Seolcheon-myeon, Muju-gun, Jeollabuk-do, South Korea",
         "geometry" : {
            "bounds" : {
               "northeast" : {
                  "lat" : 35.9934651,
                  "lng" : 127.7940437
               },
               "southwest" : {
                  "lat" : 35.9029789,
                  "lng" : 127.7521633
               }
            },
            "location" : {
               "lat" : 35.93312420000001,
               "lng" : 127.7718841
            },
            "location_type" : "APPROXIMATE",
            "viewport" : {
               "northeast" : {
                  "lat" : 35.9934651,
                  "lng" : 127.7940437
               },
               "southwest" : {
                  "lat" : 35.9029789,
                  "lng" : 127.7521633
               }
            }
         },
         "place_id" : "ChIJB-oIXzaIbzURYy6zd8qn1D8",
         "types" : [ "political", "sublocality", "sublocality_level_4" ]
      },
      {
         "address_components" : [
            {
               "long_name" : "Samgong-ri",
               "short_name" : "Samgong-ri",
               "types" : [ "political", "sublocality", "sublocality_level_3" ]
            },
            {
               "long_name" : "Seolcheon-myeon",
               "short_name" : "Seolcheon-myeon",
               "types" : [ "political", "sublocality", "sublocality_level_2" ]
            },
            {
               "long_name" : "Muju-gun",
               "short_name" : "Muju-gun",
               "types" : [ "locality", "political" ]
            },
            {
               "long_name" : "Jeollabuk-do",
               "short_name" : "Jeollabuk-do",
               "types" : [ "administrative_area_level_1", "political" ]
            },
            {
               "long_name" : "South Korea",
               "short_name" : "KR",
               "types" : [ "country", "political" ]
            },
            {
               "long_name" : "568-810",
               "short_name" : "568-810",
               "types" : [ "postal_code" ]
            }
         ],
         "formatted_address" : "Samgong-ri, Seolcheon-myeon, Muju-gun, Jeollabuk-do, South Korea",
         "geometry" : {
            "bounds" : {
               "northeast" : {
                  "lat" : 35.9326496,
                  "lng" : 127.8102771
               },
               "southwest" : {
                  "lat" : 35.8325849,
                  "lng" : 127.7275177
               }
            },
            "location" : {
               "lat" : 35.8743585,
               "lng" : 127.7748193
            },
            "location_type" : "APPROXIMATE",
            "viewport" : {
               "northeast" : {
                  "lat" : 35.9326496,
                  "lng" : 127.8102771
               },
               "southwest" : {
                  "lat" : 35.8325849,
                  "lng" : 127.7275177
               }
            }
         },
         "place_id" : "ChIJEcS8VSiPbzURhGFf8ApYgeE",
         "types" : [ "political", "sublocality", "sublocality_level_3" ]
      },
      {
         "address_components" : [
            {
               "long_name" : "568-814",
               "short_name" : "568-814",
               "types" : [ "postal_code" ]
            },
            {
               "long_name" : "Samgong-ri",
               "short_name" : "Samgong-ri",
               "types" : [ "political", "sublocality", "sublocality_level_3" ]
            },
            {
               "long_name" : "Seolcheon-myeon",
               "short_name" : "Seolcheon-myeon",
               "types" : [ "political", "sublocality", "sublocality_level_2" ]
            },
            {
               "long_name" : "Muju-gun",
               "short_name" : "Muju-gun",
               "types" : [ "locality", "political" ]
            },
            {
               "long_name" : "Jeollabuk-do",
               "short_name" : "Jeollabuk-do",
               "types" : [ "administrative_area_level_1", "political" ]
            },
            {
               "long_name" : "South Korea",
               "short_name" : "KR",
               "types" : [ "country", "political" ]
            }
         ],
         "formatted_address" : "Samgong-ri, Seolcheon-myeon, Muju-gun, Jeollabuk-do, South Korea",
         "geometry" : {
            "bounds" : {
               "northeast" : {
                  "lat" : 35.9326496,
                  "lng" : 127.8102771
               },
               "southwest" : {
                  "lat" : 35.8325849,
                  "lng" : 127.7275177
               }
            },
            "location" : {
               "lat" : 35.8763279,
               "lng" : 127.771594
            },
            "location_type" : "APPROXIMATE",
            "viewport" : {
               "northeast" : {
                  "lat" : 35.9326496,
                  "lng" : 127.8102771
               },
               "southwest" : {
                  "lat" : 35.8325849,
                  "lng" : 127.7275177
               }
            }
         },
         "place_id" : "ChIJEcS8VSiPbzURgQes0NMLj-s",
         "types" : [ "postal_code" ]
      },
      {
         "address_components" : [
            {
               "long_name" : "Seolcheon-myeon",
               "short_name" : "Seolcheon-myeon",
               "types" : [ "political", "sublocality", "sublocality_level_2" ]
            },
            {
               "long_name" : "Muju-gun",
               "short_name" : "Muju-gun",
               "types" : [ "locality", "political" ]
            },
            {
               "long_name" : "Jeollabuk-do",
               "short_name" : "Jeollabuk-do",
               "types" : [ "administrative_area_level_1", "political" ]
            },
            {
               "long_name" : "South Korea",
               "short_name" : "KR",
               "types" : [ "country", "political" ]
            },
            {
               "long_name" : "568-810",
               "short_name" : "568-810",
               "types" : [ "postal_code" ]
            }
         ],
         "formatted_address" : "Seolcheon-myeon, Muju-gun, Jeollabuk-do, South Korea",
         "geometry" : {
            "bounds" : {
               "northeast" : {
                  "lat" : 36.0405517,
                  "lng" : 127.8834089
               },
               "southwest" : {
                  "lat" : 35.8325849,
                  "lng" : 127.7062488
               }
            },
            "location" : {
               "lat" : 36.0081479,
               "lng" : 127.7896811
            },
            "location_type" : "APPROXIMATE",
            "viewport" : {
               "northeast" : {
                  "lat" : 36.0405517,
                  "lng" : 127.8834089
               },
               "southwest" : {
                  "lat" : 35.8325849,
                  "lng" : 127.7062488
               }
            }
         },
         "place_id" : "ChIJ6xZJyWyIbzUR0g2PrNQ4hSk",
         "types" : [ "political", "sublocality", "sublocality_level_2" ]
      },
      {
         "address_components" : [
            {
               "long_name" : "Muju-gun",
               "short_name" : "Muju-gun",
               "types" : [ "locality", "political" ]
            },
            {
               "long_name" : "Jeollabuk-do",
               "short_name" : "Jeollabuk-do",
               "types" : [ "administrative_area_level_1", "political" ]
            },
            {
               "long_name" : "South Korea",
               "short_name" : "KR",
               "types" : [ "country", "political" ]
            }
         ],
         "formatted_address" : "Muju-gun, Jeollabuk-do, South Korea",
         "geometry" : {
            "bounds" : {
               "northeast" : {
                  "lat" : 36.0677873,
                  "lng" : 127.9120149
               },
               "southwest" : {
                  "lat" : 35.788634,
                  "lng" : 127.524693
               }
            },
            "location" : {
               "lat" : 36.0068191,
               "lng" : 127.6607805
            },
            "location_type" : "APPROXIMATE",
            "viewport" : {
               "northeast" : {
                  "lat" : 36.0677873,
                  "lng" : 127.9120149
               },
               "southwest" : {
                  "lat" : 35.788634,
                  "lng" : 127.524693
               }
            }
         },
         "place_id" : "ChIJT_6-EzJgZTURKMH-lfbs6d8",
         "types" : [ "locality", "political" ]
      },
      {
         "address_components" : [
            {
               "long_name" : "Jeollabuk-do",
               "short_name" : "Jeollabuk-do",
               "types" : [ "administrative_area_level_1", "political" ]
            },
            {
               "long_name" : "South Korea",
               "short_name" : "KR",
               "types" : [ "country", "political" ]
            }
         ],
         "formatted_address" : "Jeollabuk-do, South Korea",
         "geometry" : {
            "bounds" : {
               "northeast" : {
                  "lat" : 36.156531,
                  "lng" : 127.9120149
               },
               "southwest" : {
                  "lat" : 35.298636,
                  "lng" : 125.9480238
               }
            },
            "location" : {
               "lat" : 35.71750000000001,
               "lng" : 127.153
            },
            "location_type" : "APPROXIMATE",
            "viewport" : {
               "northeast" : {
                  "lat" : 36.156531,
                  "lng" : 127.9120149
               },
               "southwest" : {
                  "lat" : 35.298636,
                  "lng" : 125.9480238
               }
            }
         },
         "place_id" : "ChIJXbhMo3ZAcDUR15myiGSUjuw",
         "types" : [ "administrative_area_level_1", "political" ]
      },
      {
         "address_components" : [
            {
               "long_name" : "South Korea",
               "short_name" : "KR",
               "types" : [ "country", "political" ]
            }
         ],
         "formatted_address" : "South Korea",
         "geometry" : {
            "bounds" : {
               "northeast" : {
                  "lat" : 38.63400000000001,
                  "lng" : 131.1603
               },
               "southwest" : {
                  "lat" : 33.0041,
                  "lng" : 124.5863
               }
            },
            "location" : {
               "lat" : 35.907757,
               "lng" : 127.766922
            },
            "location_type" : "APPROXIMATE",
            "viewport" : {
               "northeast" : {
                  "lat" : 38.63400000000001,
                  "lng" : 131.1603
               },
               "southwest" : {
                  "lat" : 33.0041,
                  "lng" : 124.5863
               }
            }
         },
         "place_id" : "ChIJm7oRy-tVZDURS9uIugCbJJE",
         "types" : [ "country", "political" ]
      }
   ],
   "status" : "OK"
}
