{
   "plus_code" : {
      "compound_code" : "4985+4X Rennes, France",
      "global_code" : "8CWW4985+4X"
   },
   "results" : [
      {
         "address_components" : [
            {
               "long_name" : "261",
               "short_name" : "261",
               "types" : [ "street_number" ]
            },
            {
               "long_name" : "Avenue Général Leclerc",
               "short_name" : "Avenue Général Leclerc",
               "types" : [ "route" ]
            },
            {
               "long_name" : "Rennes",
               "short_name" : "Rennes",
               "types" : [ "locality", "political" ]
            },
            {
               "long_name" : "Ille-et-Vilaine",
               "short_name" : "Ille-et-Vilaine",
               "types" : [ "administrative_area_level_2", "political" ]
            },
            {
               "long_name" : "Bretagne",
               "short_name" : "Bretagne",
               "types" : [ "administrative_area_level_1", "political" ]
            },
            {
               "long_name" : "France",
               "short_name" : "FR",
               "types" : [ "country", "political" ]
            },
            {
               "long_name" : "35700",
               "short_name" : "35700",
               "types" : [ "postal_code" ]
            }
         ],
         "formatted_address" : "261 Avenue Général Leclerc, 35700 Rennes, France",
         "geometry" : {
            "location" : {
               "lat" : 48.1153736,
               "lng" : -1.6400426
            },
            "location_type" : "ROOFTOP",
            "viewport" : {
               "northeast" : {
                  "lat" : 48.11672258029149,
                  "lng" : -1.638693619708498
               },
               "southwest" : {
                  "lat" : 48.11402461970849,
                  "lng" : -1.641391580291502
               }
            }
         },
         "place_id" : "ChIJIYpX9-TeDkgRg0DLTaUwwy0",
         "plus_code" : {
            "compound_code" : "4985+4X Rennes, France",
            "global_code" : "8CWW4985+4X"
         },
         "types" : [ "establishment", "point_of_interest", "university" ]
      },
      {
         "address_components" : [
            {
               "long_name" : "100",
               "short_name" : "100",
               "types" : [ "street_number" ]
            },
            {
               "long_name" : "Allée Jean Perrin",
               "short_name" : "Allée Jean Perrin",
               "types" : [ "route" ]
            },
            {
               "long_name" : "Rennes",
               "short_name" : "Rennes",
               "types" : [ "locality", "political" ]
            },
            {
               "long_name" : "Ille-et-Vilaine",
               "short_name" : "Ille-et-Vilaine",
               "types" : [ "administrative_area_level_2", "political" ]
            },
            {
               "long_name" : "Bretagne",
               "short_name" : "Bretagne",
               "types" : [ "administrative_area_level_1", "political" ]
            },
            {
               "long_name" : "France",
               "short_name" : "FR",
               "types" : [ "country", "political" ]
            },
            {
               "long_name" : "35700",
               "short_name" : "35700",
               "types" : [ "postal_code" ]
            }
         ],
         "formatted_address" : "100 Allée Jean Perrin, 35700 Rennes, France",
         "geometry" : {
            "location" : {
               "lat" : 48.1155835,
               "lng" : -1.6400945
            },
            "location_type" : "ROOFTOP",
            "viewport" : {
               "northeast" : {
                  "lat" : 48.1169324802915,
                  "lng" : -1.638745519708498
               },
               "southwest" : {
                  "lat" : 48.1142345197085,
                  "lng" : -1.641443480291502
               }
            }
         },
         "place_id" : "ChIJ6zwi9-TeDkgRMPpJeJLtmMw",
         "plus_code" : {
            "compound_code" : "4985+6X Rennes, France",
            "global_code" : "8CWW4985+6X"
         },
         "types" : [ "street_address" ]
      },
      {
         "address_components" : [
            {
               "long_name" : "100",
               "short_name" : "100",
               "types" : [ "street_number" ]
            },
            {
               "long_name" : "Allée Jean Perrin",
               "short_name" : "Allée Jean Perrin",
               "types" : [ "route" ]
            },
            {
               "long_name" : "Rennes",
               "short_name" : "Rennes",
               "types" : [ "locality", "political" ]
            },
            {
               "long_name" : "France",
               "short_name" : "FR",
               "types" : [ "country", "political" ]
            },
            {
               "long_name" : "35700",
               "short_name" : "35700",
               "types" : [ "postal_code" ]
            }
         ],
         "formatted_address" : "100 Allée Jean Perrin, 35700 Rennes, France",
         "geometry" : {
            "location" : {
               "lat" : 48.1154668,
               "lng" : -1.6405558
            },
            "location_type" : "RANGE_INTERPOLATED",
            "viewport" : {
               "northeast" : {
                  "lat" : 48.1168157802915,
                  "lng" : -1.639206819708498
               },
               "southwest" : {
                  "lat" : 48.1141178197085,
                  "lng" : -1.641904780291502
               }
            }
         },
         "place_id" : "EiwxMDAgQWxsw6llIEplYW4gUGVycmluLCAzNTcwMCBSZW5uZXMsIEZyYW5jZSIaEhgKFAoSCecOP-Pk3g5IEYfLr7IPDmC-EGQ",
         "types" : [ "street_address" ]
      },
      {
         "address_components" : [
            {
               "long_name" : "Jeanne d'Arc-Longs-Champs-Beaulieu",
               "short_name" : "Jeanne d'Arc-Longs-Champs-Beaulieu",
               "types" : [ "neighborhood", "political" ]
            },
            {
               "long_name" : "Rennes",
               "short_name" : "Rennes",
               "types" : [ "locality", "political" ]
            },
            {
               "long_name" : "Ille-et-Vilaine",
               "short_name" : "Ille-et-Vilaine",
               "types" : [ "administrative_area_level_2", "political" ]
            },
            {
               "long_name" : "Bretagne",
               "short_name" : "Bretagne",
               "types" : [ "administrative_area_level_1", "political" ]
            },
            {
               "long_name" : "France",
               "short_name" : "FR",
               "types" : [ "country", "political" ]
            }
         ],
         "formatted_address" : "Jeanne d'Arc-Longs-Champs-Beaulieu, Rennes, France",
         "geometry" : {
            "bounds" : {
               "northeast" : {
                  "lat" : 48.1326859,
                  "lng" : -1.6279469
               },
               "southwest" : {
                  "lat" : 48.1061191,
                  "lng" : -1.6627499
               }
            },
            "location" : {
               "lat" : 48.1101664,
               "lng" : -1.6430316
            },
            "location_type" : "APPROXIMATE",
            "viewport" : {
               "northeast" : {
                  "lat" : 48.1326859,
                  "lng" : -1.6279469
               },
               "southwest" : {
                  "lat" : 48.1061191,
                  "lng" : -1.6627499
               }
            }
         },
         "place_id" : "ChIJAeTGy1reDkgRmfgq0bbDIuw",
         "types" : [ "neighborhood", "political" ]
      },
      {
         "address_components" : [
            {
               "long_name" : "35700",
               "short_name" : "35700",
               "types" : [ "postal_code" ]
            },
            {
               "long_name" : "Rennes",
               "short_name" : "Rennes",
               "types" : [ "locality", "political" ]
            },
            {
               "long_name" : "Ille-et-Vilaine",
               "short_name" : "Ille-et-Vilaine",
               "types" : [ "administrative_area_level_2", "political" ]
            },
            {
               "long_name" : "Brittany",
               "short_name" : "Brittany",
               "types" : [ "administrative_area_level_1", "political" ]
            },
            {
               "long_name" : "France",
               "short_name" : "FR",
               "types" : [ "country", "political" ]
            }
         ],
         "formatted_address" : "35700 Rennes, France",
         "geometry" : {
            "bounds" : {
               "northeast" : {
                  "lat" : 48.1549427,
                  "lng" : -1.6241969
               },
               "southwest" : {
                  "lat" : 48.1101108,
                  "lng" : -1.6824464
               }
            },
            "location" : {
               "lat" : 48.13309520000001,
               "lng" : -1.648998
            },
            "location_type" : "APPROXIMATE",
            "viewport" : {
               "northeast" : {
                  "lat" : 48.1549427,
                  "lng" : -1.6241969
               },
               "southwest" : {
                  "lat" : 48.1101108,
                  "lng" : -1.6824464
               }
            }
         },
         "place_id" : "ChIJtQWIGYreDkgRoBz0dtClDBw",
         "types" : [ "postal_code" ]
      },
      {
         "address_components" : [
            {
               "long_name" : "Rennes",
               "short_name" : "Rennes",
               "types" : [ "locality", "political" ]
            },
            {
               "long_name" : "Ille-et-Vilaine",
               "short_name" : "Ille-et-Vilaine",
               "types" : [ "administrative_area_level_2", "political" ]
            },
            {
               "long_name" : "Brittany",
               "short_name" : "Brittany",
               "types" : [ "administrative_area_level_1", "political" ]
            },
            {
               "long_name" : "France",
               "short_name" : "FR",
               "types" : [ "country", "political" ]
            }
         ],
         "formatted_address" : "Rennes, France",
         "geometry" : {
            "bounds" : {
               "northeast" : {
                  "lat" : 48.1549701,
                  "lng" : -1.624367
               },
               "southwest" : {
                  "lat" : 48.076861,
                  "lng" : -1.752542
               }
            },
            "location" : {
               "lat" : 48.117266,
               "lng" : -1.6777926
            },
            "location_type" : "APPROXIMATE",
            "viewport" : {
               "northeast" : {
                  "lat" : 48.1549701,
                  "lng" : -1.624367
               },
               "southwest" : {
                  "lat" : 48.076861,
                  "lng" : -1.752542
               }
            }
         },
         "place_id" : "ChIJhZDWpy_eDkgRMKvkNs2lDAQ",
         "types" : [ "locality", "political" ]
      },
      {
         "address_components" : [
            {
               "long_name" : "Ille-et-Vilaine",
               "short_name" : "Ille-et-Vilaine",
               "types" : [ "administrative_area_level_2", "political" ]
            },
            {
               "long_name" : "Brittany",
               "short_name" : "Brittany",
               "types" : [ "administrative_area_level_1", "political" ]
            },
            {
               "long_name" : "France",
               "short_name" : "FR",
               "types" : [ "country", "political" ]
            }
         ],
         "formatted_address" : "Ille-et-Vilaine, France",
         "geometry" : {
            "bounds" : {
               "northeast" : {
                  "lat" : 48.721737,
                  "lng" : -1.0156211
               },
               "southwest" : {
                  "lat" : 47.631614,
                  "lng" : -2.289611
               }
            },
            "location" : {
               "lat" : 48.2292016,
               "lng" : -1.5300695
            },
            "location_type" : "APPROXIMATE",
            "viewport" : {
               "northeast" : {
                  "lat" : 48.721737,
                  "lng" : -1.0156211
               },
               "southwest" : {
                  "lat" : 47.631614,
                  "lng" : -2.289611
               }
            }
         },
         "place_id" : "ChIJDaUlkkvcDkgRsCffNs2lDAM",
         "types" : [ "administrative_area_level_2", "political" ]
      },
      {
         "address_components" : [
            {
               "long_name" : "Brittany",
               "short_name" : "Brittany",
               "types" : [ "administrative_area_level_1", "political" ]
            },
            {
               "long_name" : "France",
               "short_name" : "FR",
               "types" : [ "country", "political" ]
            }
         ],
         "formatted_address" : "Brittany, France",
         "geometry" : {
            "bounds" : {
               "northeast" : {
                  "lat" : 48.90094209999999,
                  "lng" : -1.015621
               },
               "southwest" : {
                  "lat" : 47.27785290000001,
                  "lng" : -5.141292099999999
               }
            },
            "location" : {
               "lat" : 48.2020471,
               "lng" : -2.9326435
            },
            "location_type" : "APPROXIMATE",
            "viewport" : {
               "northeast" : {
                  "lat" : 48.90094209999999,
                  "lng" : -1.015621
               },
               "southwest" : {
                  "lat" : 47.27785290000001,
                  "lng" : -5.141292099999999
               }
            }
         },
         "place_id" : "ChIJr45-rmHKEUgRsCTfNs2lDAE",
         "types" : [ "administrative_area_level_1", "political" ]
      },
      {
         "address_components" : [
            {
               "long_name" : "France",
               "short_name" : "FR",
               "types" : [ "country", "political" ]
            }
         ],
         "formatted_address" : "France",
         "geometry" : {
            "bounds" : {
               "northeast" : {
                  "lat" : 51.1241999,
                  "lng" : 9.6624999
               },
               "southwest" : {
                  "lat" : 41.31433,
                  "lng" : -5.5591
               }
            },
            "location" : {
               "lat" : 46.227638,
               "lng" : 2.213749
            },
            "location_type" : "APPROXIMATE",
            "viewport" : {
               "northeast" : {
                  "lat" : 51.1241999,
                  "lng" : 9.6624999
               },
               "southwest" : {
                  "lat" : 41.31433,
                  "lng" : -5.5591
               }
            }
         },
         "place_id" : "ChIJMVd4MymgVA0R99lHx5Y__Ws",
         "types" : [ "country", "political" ]
      }
   ],
   "status" : "OK"
}
