{
   "results" : [
      {
         "address_components" : [
            {
               "long_name" : "1968",
               "short_name" : "1968",
               "types" : [ "street_number" ]
            },
            {
               "long_name" : "Avenida 18 de Julio",
               "short_name" : "Av. 18 de Julio",
               "types" : [ "route" ]
            },
            {
               "long_name" : "Montevideo",
               "short_name" : "Montevideo",
               "types" : [ "locality", "political" ]
            },
            {
               "long_name" : "Montevideo",
               "short_name" : "Montevideo",
               "types" : [ "administrative_area_level_1", "political" ]
            },
            {
               "long_name" : "Uruguay",
               "short_name" : "UY",
               "types" : [ "country", "political" ]
            },
            {
               "long_name" : "11200",
               "short_name" : "11200",
               "types" : [ "postal_code" ]
            }
         ],
         "formatted_address" : "Av. 18 de Julio 1968, 11200 Montevideo, Uruguay",
         "geometry" : {
            "bounds" : {
               "northeast" : {
                  "lat" : -34.9009854,
                  "lng" : -56.1731063
               },
               "southwest" : {
                  "lat" : -34.9012924,
                  "lng" : -56.1734537
               }
            },
            "location" : {
               "lat" : -34.9011226,
               "lng" : -56.1733073
            },
            "location_type" : "ROOFTOP",
            "viewport" : {
               "northeast" : {
                  "lat" : -34.8997899197085,
                  "lng" : -56.1719310197085
               },
               "southwest" : {
                  "lat" : -34.9024878802915,
                  "lng" : -56.17462898029149
               }
            }
         },
         "place_id" : "ChIJv1q0I7OBn5UR8HVA10S8Pik",
         "types" : [ "premise" ]
      },
      {
         "address_components" : [
            {
               "long_name" : "1500",
               "short_name" : "1500",
               "types" : [ "street_number" ]
            },
            {
               "long_name" : "Arenal Grande",
               "short_name" : "Arenal Grande",
               "types" : [ "route" ]
            },
            {
               "long_name" : "Montevideo",
               "short_name" : "Montevideo",
               "types" : [ "locality", "political" ]
            },
            {
               "long_name" : "Montevideo",
               "short_name" : "Montevideo",
               "types" : [ "administrative_area_level_1", "political" ]
            },
            {
               "long_name" : "Uruguay",
               "short_name" : "UY",
               "types" : [ "country", "political" ]
            },
            {
               "long_name" : "11200",
               "short_name" : "11200",
               "types" : [ "postal_code" ]
            }
         ],
         "formatted_address" : "Arenal Grande 1500, 11200 Montevideo, Uruguay",
         "geometry" : {
            "location" : {
               "lat" : -34.9011844,
               "lng" : -56.1736434
            },
            "location_type" : "ROOFTOP",
            "viewport" : {
               "northeast" : {
                  "lat" : -34.8998354197085,
                  "lng" : -56.1722944197085
               },
               "southwest" : {
                  "lat" : -34.90253338029149,
                  "lng" : -56.1749923802915
               }
            }
         },
         "place_id" : "ChIJcxmTPLOBn5URmj0bDkca2L0",
         "types" : [ "street_address" ]
      },
      {
         "address_components" : [
            {
               "long_name" : "Cordón",
               "short_name" : "Cordón",
               "types" : [ "neighborhood", "political" ]
            },
            {
               "long_name" : "Las Acacias",
               "short_name" : "Las Acacias",
               "types" : [ "political", "sublocality", "sublocality_level_1" ]
            },
            {
               "long_name" : "Montevideo",
               "short_name" : "Montevideo",
               "types" : [ "locality", "political" ]
            },
            {
               "long_name" : "Montevideo Department",
               "short_name" : "Montevideo Department",
               "types" : [ "administrative_area_level_1", "political" ]
            },
            {
               "long_name" : "Uruguay",
               "short_name" : "UY",
               "types" : [ "country", "political" ]
            }
         ],
         "formatted_address" : "Cordón, Montevideo, Montevideo Department, Uruguay",
         "geometry" : {
            "bounds" : {
               "northeast" : {
                  "lat" : -34.8932354,
                  "lng" : -56.1636113
               },
               "southwest" : {
                  "lat" : -34.9081939,
                  "lng" : -56.1870004
               }
            },
            "location" : {
               "lat" : -34.9041401,
               "lng" : -56.1784106
            },
            "location_type" : "APPROXIMATE",
            "viewport" : {
               "northeast" : {
                  "lat" : -34.8932354,
                  "lng" : -56.1636113
               },
               "southwest" : {
                  "lat" : -34.9081939,
                  "lng" : -56.1870004
               }
            }
         },
         "place_id" : "ChIJ-4fdYUuAn5URtk4HuFsRGKY",
         "types" : [ "neighborhood", "political" ]
      },
      {
         "address_components" : [
            {
               "long_name" : "Montevideo",
               "short_name" : "Montevideo",
               "types" : [ "locality", "political" ]
            },
            {
               "long_name" : "Montevideo Department",
               "short_name" : "Montevideo Department",
               "types" : [ "administrative_area_level_1", "political" ]
            },
            {
               "long_name" : "Uruguay",
               "short_name" : "UY",
               "types" : [ "country", "political" ]
            }
         ],
         "formatted_address" : "Montevideo, Montevideo Department, Uruguay",
         "geometry" : {
            "bounds" : {
               "northeast" : {
                  "lat" : -34.70193,
                  "lng" : -56.023407
               },
               "southwest" : {
                  "lat" : -34.9402666,
                  "lng" : -56.4494704
               }
            },
            "location" : {
               "lat" : -34.9011127,
               "lng" : -56.16453139999999
            },
            "location_type" : "APPROXIMATE",
            "viewport" : {
               "northeast" : {
                  "lat" : -34.70193,
                  "lng" : -56.023407
               },
               "southwest" : {
                  "lat" : -34.9402666,
                  "lng" : -56.4494704
               }
            }
         },
         "place_id" : "ChIJ0_c7xv-An5URmexbNS4bMms",
         "types" : [ "locality", "political" ]
      },
      {
         "address_components" : [
            {
               "long_name" : "11200",
               "short_name" : "11200",
               "types" : [ "postal_code" ]
            },
            {
               "long_name" : "Montevideo",
               "short_name" : "Montevideo",
               "types" : [ "locality", "political" ]
            },
            {
               "long_name" : "Montevideo Department",
               "short_name" : "Montevideo Department",
               "types" : [ "administrative_area_level_1", "political" ]
            },
            {
               "long_name" : "Uruguay",
               "short_name" : "UY",
               "types" : [ "country", "political" ]
            }
         ],
         "formatted_address" : "11200 Montevideo, Montevideo Department, Uruguay",
         "geometry" : {
            "bounds" : {
               "northeast" : {
                  "lat" : -34.8946478,
                  "lng" : -56.1611224
               },
               "southwest" : {
                  "lat" : -34.9298879,
                  "lng" : -56.1875958
               }
            },
            "location" : {
               "lat" : -34.9057062,
               "lng" : -56.175619
            },
            "location_type" : "APPROXIMATE",
            "viewport" : {
               "northeast" : {
                  "lat" : -34.8946478,
                  "lng" : -56.1611224
               },
               "southwest" : {
                  "lat" : -34.9298879,
                  "lng" : -56.1875958
               }
            }
         },
         "place_id" : "ChIJN8pnNrqBn5URvmih_BDqDB8",
         "types" : [ "postal_code" ]
      },
      {
         "address_components" : [
            {
               "long_name" : "Montevideo Department",
               "short_name" : "Montevideo Department",
               "types" : [ "administrative_area_level_1", "political" ]
            },
            {
               "long_name" : "Uruguay",
               "short_name" : "UY",
               "types" : [ "country", "political" ]
            }
         ],
         "formatted_address" : "Montevideo Department, Uruguay",
         "geometry" : {
            "bounds" : {
               "northeast" : {
                  "lat" : -34.673157,
                  "lng" : -56.0026629
               },
               "southwest" : {
                  "lat" : -34.93877,
                  "lng" : -56.42646389999999
               }
            },
            "location" : {
               "lat" : -34.8173171,
               "lng" : -56.1588712
            },
            "location_type" : "APPROXIMATE",
            "viewport" : {
               "northeast" : {
                  "lat" : -34.673157,
                  "lng" : -56.0026629
               },
               "southwest" : {
                  "lat" : -34.93877,
                  "lng" : -56.42646389999999
               }
            }
         },
         "place_id" : "ChIJ0_c7xv-An5URZKZVcui9b2g",
         "types" : [ "administrative_area_level_1", "political" ]
      },
      {
         "address_components" : [
            {
               "long_name" : "Uruguay",
               "short_name" : "UY",
               "types" : [ "country", "political" ]
            }
         ],
         "formatted_address" : "Uruguay",
         "geometry" : {
            "bounds" : {
               "northeast" : {
                  "lat" : -30.0852149,
                  "lng" : -53.0779284
               },
               "southwest" : {
                  "lat" : -35.1558001,
                  "lng" : -58.4913609
               }
            },
            "location" : {
               "lat" : -32.522779,
               "lng" : -55.765835
            },
            "location_type" : "APPROXIMATE",
            "viewport" : {
               "northeast" : {
                  "lat" : -30.0852149,
                  "lng" : -53.0779284
               },
               "southwest" : {
                  "lat" : -35.1558001,
                  "lng" : -58.4913609
               }
            }
         },
         "place_id" : "ChIJCd5f-zoHdZURSlIWYGGWVUo",
         "types" : [ "country", "political" ]
      }
   ],
   "status" : "OK"
}
