{
   "plus_code" : {
      "compound_code" : "59C9+7X Hoogland, Netherlands",
      "global_code" : "9F4759C9+7X"
   },
   "results" : [
      {
         "address_components" : [
            {
               "long_name" : "3",
               "short_name" : "3",
               "types" : [ "street_number" ]
            },
            {
               "long_name" : "Maatweg",
               "short_name" : "Maatweg",
               "types" : [ "route" ]
            },
            {
               "long_name" : "Buitengebied West",
               "short_name" : "Buitengebied West",
               "types" : [ "political", "sublocality", "sublocality_level_1" ]
            },
            {
               "long_name" : "Amersfoort",
               "short_name" : "Amersfoort",
               "types" : [ "locality", "political" ]
            },
            {
               "long_name" : "Amersfoort",
               "short_name" : "Amersfoort",
               "types" : [ "administrative_area_level_2", "political" ]
            },
            {
               "long_name" : "Utrecht",
               "short_name" : "UT",
               "types" : [ "administrative_area_level_1", "political" ]
            },
            {
               "long_name" : "Netherlands",
               "short_name" : "NL",
               "types" : [ "country", "political" ]
            },
            {
               "long_name" : "3813 TZ",
               "short_name" : "3813 TZ",
               "types" : [ "postal_code" ]
            }
         ],
         "formatted_address" : "Maatweg 3, 3813 TZ Amersfoort, Netherlands",
         "geometry" : {
            "location" : {
               "lat" : 52.1706932,
               "lng" : 5.369935799999999
            },
            "location_type" : "ROOFTOP",
            "viewport" : {
               "northeast" : {
                  "lat" : 52.17204218029149,
                  "lng" : 5.371284780291502
               },
               "southwest" : {
                  "lat" : 52.16934421970849,
                  "lng" : 5.368586819708497
               }
            }
         },
         "place_id" : "ChIJ9cf9ArRGxkcRXZo42s3PMVk",
         "plus_code" : {
            "compound_code" : "59C9+7X Hoogland, Netherlands",
            "global_code" : "9F4759C9+7X"
         },
         "types" : [ "establishment", "point_of_interest" ]
      },
      {
         "address_components" : [
            {
               "long_name" : "3",
               "short_name" : "3",
               "types" : [ "street_number" ]
            },
            {
               "long_name" : "Maatweg",
               "short_name" : "Maatweg",
               "types" : [ "route" ]
            },
            {
               "long_name" : "Buitengebied West",
               "short_name" : "Buitengebied West",
               "types" : [ "political", "sublocality", "sublocality_level_1" ]
            },
            {
               "long_name" : "Hoogland",
               "short_name" : "Hoogland",
               "types" : [ "locality", "political" ]
            },
            {
               "long_name" : "Amersfoort",
               "short_name" : "Amersfoort",
               "types" : [ "administrative_area_level_2", "political" ]
            },
            {
               "long_name" : "Utrecht",
               "short_name" : "UT",
               "types" : [ "administrative_area_level_1", "political" ]
            },
            {
               "long_name" : "Netherlands",
               "short_name" : "NL",
               "types" : [ "country", "political" ]
            },
            {
               "long_name" : "3828 NK",
               "short_name" : "3828 NK",
               "types" : [ "postal_code" ]
            }
         ],
         "formatted_address" : "Maatweg 3, 3828 NK Hoogland, Netherlands",
         "geometry" : {
            "location" : {
               "lat" : 52.1710198,
               "lng" : 5.3694049
            },
            "location_type" : "ROOFTOP",
            "viewport" : {
               "northeast" : {
                  "lat" : 52.1723687802915,
                  "lng" : 5.370753880291502
               },
               "southwest" : {
                  "lat" : 52.1696708197085,
                  "lng" : 5.368055919708498
               }
            }
         },
         "place_id" : "ChIJi6LgHrRGxkcRC43PtYf77M8",
         "plus_code" : {
            "compound_code" : "59C9+CQ Hoogland, Netherlands",
            "global_code" : "9F4759C9+CQ"
         },
         "types" : [ "street_address" ]
      },
      {
         "address_components" : [
            {
               "long_name" : "Maatweg",
               "short_name" : "Maatweg",
               "types" : [ "route" ]
            },
            {
               "long_name" : "Buitengebied West",
               "short_name" : "Buitengebied West",
               "types" : [ "political", "sublocality", "sublocality_level_1" ]
            },
            {
               "long_name" : "Hoogland",
               "short_name" : "Hoogland",
               "types" : [ "locality", "political" ]
            },
            {
               "long_name" : "Amersfoort",
               "short_name" : "Amersfoort",
               "types" : [ "administrative_area_level_2", "political" ]
            },
            {
               "long_name" : "Utrecht",
               "short_name" : "UT",
               "types" : [ "administrative_area_level_1", "political" ]
            },
            {
               "long_name" : "Netherlands",
               "short_name" : "NL",
               "types" : [ "country", "political" ]
            },
            {
               "long_name" : "3828 NK",
               "short_name" : "3828 NK",
               "types" : [ "postal_code" ]
            }
         ],
         "formatted_address" : "Maatweg, 3828 NK Hoogland, Netherlands",
         "geometry" : {
            "bounds" : {
               "northeast" : {
                  "lat" : 52.1717689,
                  "lng" : 5.3704567
               },
               "southwest" : {
                  "lat" : 52.1714271,
                  "lng" : 5.3700391
               }
            },
            "location" : {
               "lat" : 52.171598,
               "lng" : 5.3702479
            },
            "location_type" : "GEOMETRIC_CENTER",
            "viewport" : {
               "northeast" : {
                  "lat" : 52.17294698029149,
                  "lng" : 5.371596880291502
               },
               "southwest" : {
                  "lat" : 52.17024901970849,
                  "lng" : 5.368898919708498
               }
            }
         },
         "place_id" : "ChIJU_C3IbRGxkcROGLi_OWuH50",
         "types" : [ "route" ]
      },
      {
         "address_components" : [
            {
               "long_name" : "3828 NK",
               "short_name" : "3828 NK",
               "types" : [ "postal_code" ]
            },
            {
               "long_name" : "Hoogland",
               "short_name" : "Hoogland",
               "types" : [ "locality", "political" ]
            },
            {
               "long_name" : "Amersfoort",
               "short_name" : "Amersfoort",
               "types" : [ "administrative_area_level_2", "political" ]
            },
            {
               "long_name" : "Utrecht",
               "short_name" : "UT",
               "types" : [ "administrative_area_level_1", "political" ]
            },
            {
               "long_name" : "Netherlands",
               "short_name" : "NL",
               "types" : [ "country", "political" ]
            }
         ],
         "formatted_address" : "3828 NK Hoogland, Netherlands",
         "geometry" : {
            "bounds" : {
               "northeast" : {
                  "lat" : 52.17566559999999,
                  "lng" : 5.3721932
               },
               "southwest" : {
                  "lat" : 52.1701639,
                  "lng" : 5.3658508
               }
            },
            "location" : {
               "lat" : 52.1720504,
               "lng" : 5.3704659
            },
            "location_type" : "APPROXIMATE",
            "viewport" : {
               "northeast" : {
                  "lat" : 52.17566559999999,
                  "lng" : 5.3721932
               },
               "southwest" : {
                  "lat" : 52.1701639,
                  "lng" : 5.3658508
               }
            }
         },
         "place_id" : "ChIJ-4v-vbZGxkcRRFIKaBBiq5w",
         "types" : [ "postal_code" ]
      },
      {
         "address_components" : [
            {
               "long_name" : "Weerhorst",
               "short_name" : "Weerhorst",
               "types" : [ "political", "sublocality", "sublocality_level_2" ]
            },
            {
               "long_name" : "Buitengebied West",
               "short_name" : "Buitengebied West",
               "types" : [ "political", "sublocality", "sublocality_level_1" ]
            },
            {
               "long_name" : "Hoogland",
               "short_name" : "Hoogland",
               "types" : [ "locality", "political" ]
            },
            {
               "long_name" : "Amersfoort",
               "short_name" : "Amersfoort",
               "types" : [ "administrative_area_level_2", "political" ]
            },
            {
               "long_name" : "Utrecht",
               "short_name" : "UT",
               "types" : [ "administrative_area_level_1", "political" ]
            },
            {
               "long_name" : "Netherlands",
               "short_name" : "NL",
               "types" : [ "country", "political" ]
            }
         ],
         "formatted_address" : "Weerhorst, Hoogland, Netherlands",
         "geometry" : {
            "bounds" : {
               "northeast" : {
                  "lat" : 52.18177,
                  "lng" : 5.375432900000001
               },
               "southwest" : {
                  "lat" : 52.165992,
                  "lng" : 5.344112099999999
               }
            },
            "location" : {
               "lat" : 52.17464649999999,
               "lng" : 5.3592525
            },
            "location_type" : "APPROXIMATE",
            "viewport" : {
               "northeast" : {
                  "lat" : 52.18177,
                  "lng" : 5.375432900000001
               },
               "southwest" : {
                  "lat" : 52.165992,
                  "lng" : 5.344112099999999
               }
            }
         },
         "place_id" : "ChIJ3UqtijVBxkcRNwt1nET96iw",
         "types" : [ "political", "sublocality", "sublocality_level_2" ]
      },
      {
         "address_components" : [
            {
               "long_name" : "Buitengebied West",
               "short_name" : "Buitengebied West",
               "types" : [ "political", "sublocality", "sublocality_level_1" ]
            },
            {
               "long_name" : "Hoogland",
               "short_name" : "Hoogland",
               "types" : [ "locality", "political" ]
            },
            {
               "long_name" : "Amersfoort",
               "short_name" : "Amersfoort",
               "types" : [ "administrative_area_level_2", "political" ]
            },
            {
               "long_name" : "Utrecht",
               "short_name" : "UT",
               "types" : [ "administrative_area_level_1", "political" ]
            },
            {
               "long_name" : "Netherlands",
               "short_name" : "NL",
               "types" : [ "country", "political" ]
            },
            {
               "long_name" : "3828",
               "short_name" : "3828",
               "types" : [ "postal_code", "postal_code_prefix" ]
            }
         ],
         "formatted_address" : "Buitengebied West, 3828 Hoogland, Netherlands",
         "geometry" : {
            "bounds" : {
               "northeast" : {
                  "lat" : 52.214599,
                  "lng" : 5.375432900000001
               },
               "southwest" : {
                  "lat" : 52.165992,
                  "lng" : 5.309400999999999
               }
            },
            "location" : {
               "lat" : 52.1924723,
               "lng" : 5.347722699999999
            },
            "location_type" : "APPROXIMATE",
            "viewport" : {
               "northeast" : {
                  "lat" : 52.214599,
                  "lng" : 5.375432900000001
               },
               "southwest" : {
                  "lat" : 52.165992,
                  "lng" : 5.309400999999999
               }
            }
         },
         "place_id" : "ChIJ7UUp7itBxkcRAFcPjATWF1k",
         "types" : [ "political", "sublocality", "sublocality_level_1" ]
      },
      {
         "address_components" : [
            {
               "long_name" : "3828",
               "short_name" : "3828",
               "types" : [ "postal_code", "postal_code_prefix" ]
            },
            {
               "long_name" : "Hoogland",
               "short_name" : "Hoogland",
               "types" : [ "locality", "political" ]
            },
            {
               "long_name" : "Amersfoort",
               "short_name" : "Amersfoort",
               "types" : [ "administrative_area_level_2", "political" ]
            },
            {
               "long_name" : "Utrecht",
               "short_name" : "UT",
               "types" : [ "administrative_area_level_1", "political" ]
            },
            {
               "long_name" : "Netherlands",
               "short_name" : "NL",
               "types" : [ "country", "political" ]
            }
         ],
         "formatted_address" : "3828 Hoogland, Netherlands",
         "geometry" : {
            "bounds" : {
               "northeast" : {
                  "lat" : 52.2190129,
                  "lng" : 5.415352299999999
               },
               "southwest" : {
                  "lat" : 52.1681496,
                  "lng" : 5.3088837
               }
            },
            "location" : {
               "lat" : 52.1924723,
               "lng" : 5.347722699999999
            },
            "location_type" : "APPROXIMATE",
            "viewport" : {
               "northeast" : {
                  "lat" : 52.2190129,
                  "lng" : 5.415352299999999
               },
               "southwest" : {
                  "lat" : 52.1681496,
                  "lng" : 5.3088837
               }
            }
         },
         "place_id" : "ChIJa2jJxCtBxkcR3LAyGADE7G4",
         "types" : [ "postal_code", "postal_code_prefix" ]
      },
      {
         "address_components" : [
            {
               "long_name" : "Hoogland",
               "short_name" : "Hoogland",
               "types" : [ "locality", "political" ]
            },
            {
               "long_name" : "Amersfoort",
               "short_name" : "Amersfoort",
               "types" : [ "administrative_area_level_2", "political" ]
            },
            {
               "long_name" : "Utrecht",
               "short_name" : "UT",
               "types" : [ "administrative_area_level_1", "political" ]
            },
            {
               "long_name" : "Netherlands",
               "short_name" : "NL",
               "types" : [ "country", "political" ]
            },
            {
               "long_name" : "3828",
               "short_name" : "3828",
               "types" : [ "postal_code", "postal_code_prefix" ]
            }
         ],
         "formatted_address" : "3828 Hoogland, Netherlands",
         "geometry" : {
            "bounds" : {
               "northeast" : {
                  "lat" : 52.2190129,
                  "lng" : 5.415352299999999
               },
               "southwest" : {
                  "lat" : 52.1681496,
                  "lng" : 5.3088837
               }
            },
            "location" : {
               "lat" : 52.1842738,
               "lng" : 5.374608299999999
            },
            "location_type" : "APPROXIMATE",
            "viewport" : {
               "northeast" : {
                  "lat" : 52.2190129,
                  "lng" : 5.415352299999999
               },
               "southwest" : {
                  "lat" : 52.1681496,
                  "lng" : 5.3088837
               }
            }
         },
         "place_id" : "ChIJpyob3dVGxkcR1k1CFhU8Lcs",
         "types" : [ "locality", "political" ]
      },
      {
         "address_components" : [
            {
               "long_name" : "Amersfoort",
               "short_name" : "Amersfoort",
               "types" : [ "administrative_area_level_2", "political" ]
            },
            {
               "long_name" : "Utrecht",
               "short_name" : "UT",
               "types" : [ "administrative_area_level_1", "political" ]
            },
            {
               "long_name" : "Netherlands",
               "short_name" : "NL",
               "types" : [ "country", "political" ]
            }
         ],
         "formatted_address" : "Amersfoort, Netherlands",
         "geometry" : {
            "bounds" : {
               "northeast" : {
                  "lat" : 52.2190129,
                  "lng" : 5.4842476
               },
               "southwest" : {
                  "lat" : 52.1086799,
                  "lng" : 5.306943299999999
               }
            },
            "location" : {
               "lat" : 52.1745369,
               "lng" : 5.3908559
            },
            "location_type" : "APPROXIMATE",
            "viewport" : {
               "northeast" : {
                  "lat" : 52.2190129,
                  "lng" : 5.4842476
               },
               "southwest" : {
                  "lat" : 52.1086799,
                  "lng" : 5.306943299999999
               }
            }
         },
         "place_id" : "ChIJ8XuXeZ1axkcRmN9tyn4auu8",
         "types" : [ "administrative_area_level_2", "political" ]
      },
      {
         "address_components" : [
            {
               "long_name" : "Utrecht",
               "short_name" : "Utrecht",
               "types" : [ "administrative_area_level_1", "political" ]
            },
            {
               "long_name" : "Netherlands",
               "short_name" : "NL",
               "types" : [ "country", "political" ]
            }
         ],
         "formatted_address" : "Utrecht, Netherlands",
         "geometry" : {
            "bounds" : {
               "northeast" : {
                  "lat" : 52.3036272,
                  "lng" : 5.6274095
               },
               "southwest" : {
                  "lat" : 51.9334774,
                  "lng" : 4.792025199999999
               }
            },
            "location" : {
               "lat" : 52.119508,
               "lng" : 5.1943653
            },
            "location_type" : "APPROXIMATE",
            "viewport" : {
               "northeast" : {
                  "lat" : 52.3036272,
                  "lng" : 5.6274095
               },
               "southwest" : {
                  "lat" : 51.9334774,
                  "lng" : 4.792025199999999
               }
            }
         },
         "place_id" : "ChIJPzM8M01oxkcRsFwejVreAAM",
         "types" : [ "administrative_area_level_1", "political" ]
      },
      {
         "address_components" : [
            {
               "long_name" : "Netherlands",
               "short_name" : "NL",
               "types" : [ "country", "political" ]
            }
         ],
         "formatted_address" : "Netherlands",
         "geometry" : {
            "bounds" : {
               "northeast" : {
                  "lat" : 53.6316,
                  "lng" : 7.227510199999999
               },
               "southwest" : {
                  "lat" : 50.75038379999999,
                  "lng" : 3.3316001
               }
            },
            "location" : {
               "lat" : 52.132633,
               "lng" : 5.291265999999999
            },
            "location_type" : "APPROXIMATE",
            "viewport" : {
               "northeast" : {
                  "lat" : 53.6316,
                  "lng" : 7.227510199999999
               },
               "southwest" : {
                  "lat" : 50.75038379999999,
                  "lng" : 3.3316001
               }
            }
         },
         "place_id" : "ChIJu-SH28MJxkcRnwq9_851obM",
         "types" : [ "country", "political" ]
      }
   ],
   "status" : "OK"
}
