{
   "results" : [
      {
         "address_components" : [
            {
               "long_name" : "Edificio Román Baldorioty de Castro",
               "short_name" : "Edificio Román Baldorioty de Castro",
               "types" : [ "premise" ]
            },
            {
               "long_name" : "Universidad",
               "short_name" : "Universidad",
               "types" : [ "neighborhood", "political" ]
            },
            {
               "long_name" : "Rio Piedras",
               "short_name" : "Rio Piedras",
               "types" : [ "political", "sublocality", "sublocality_level_1" ]
            },
            {
               "long_name" : "San Juan",
               "short_name" : "San Juan",
               "types" : [ "locality", "political" ]
            },
            {
               "long_name" : "San Juan",
               "short_name" : "San Juan",
               "types" : [ "administrative_area_level_1", "political" ]
            },
            {
               "long_name" : "Puerto Rico",
               "short_name" : "PR",
               "types" : [ "country", "political" ]
            },
            {
               "long_name" : "00925",
               "short_name" : "00925",
               "types" : [ "postal_code" ]
            }
         ],
         "formatted_address" : "Edificio Román Baldorioty de Castro, San Juan, 00925, Puerto Rico",
         "geometry" : {
            "bounds" : {
               "northeast" : {
                  "lat" : 18.4031851,
                  "lng" : -66.0497737
               },
               "southwest" : {
                  "lat" : 18.4025101,
                  "lng" : -66.0501656
               }
            },
            "location" : {
               "lat" : 18.4028416,
               "lng" : -66.050094
            },
            "location_type" : "ROOFTOP",
            "viewport" : {
               "northeast" : {
                  "lat" : 18.4041965802915,
                  "lng" : -66.0486206697085
               },
               "southwest" : {
                  "lat" : 18.4014986197085,
                  "lng" : -66.0513186302915
               }
            }
         },
         "place_id" : "ChIJNyM1z4NoA4wR6c_b2Z4Dv7U",
         "types" : [ "premise" ]
      },
      {
         "address_components" : [
            {
               "long_name" : "Puente Henry Klumb",
               "short_name" : "Puente Henry Klumb",
               "types" : [ "route" ]
            },
            {
               "long_name" : "Universidad",
               "short_name" : "Universidad",
               "types" : [ "neighborhood", "political" ]
            },
            {
               "long_name" : "Rio Piedras",
               "short_name" : "Rio Piedras",
               "types" : [ "political", "sublocality", "sublocality_level_1" ]
            },
            {
               "long_name" : "San Juan",
               "short_name" : "San Juan",
               "types" : [ "locality", "political" ]
            },
            {
               "long_name" : "San Juan",
               "short_name" : "San Juan",
               "types" : [ "administrative_area_level_1", "political" ]
            },
            {
               "long_name" : "Puerto Rico",
               "short_name" : "PR",
               "types" : [ "country", "political" ]
            },
            {
               "long_name" : "00925",
               "short_name" : "00925",
               "types" : [ "postal_code" ]
            }
         ],
         "formatted_address" : "Puente Henry Klumb, San Juan, 00925, Puerto Rico",
         "geometry" : {
            "bounds" : {
               "northeast" : {
                  "lat" : 18.4018485,
                  "lng" : -66.05023129999999
               },
               "southwest" : {
                  "lat" : 18.4013342,
                  "lng" : -66.0506517
               }
            },
            "location" : {
               "lat" : 18.4015947,
               "lng" : -66.05044699999999
            },
            "location_type" : "GEOMETRIC_CENTER",
            "viewport" : {
               "northeast" : {
                  "lat" : 18.4029403302915,
                  "lng" : -66.04909251970848
               },
               "southwest" : {
                  "lat" : 18.4002423697085,
                  "lng" : -66.0517904802915
               }
            }
         },
         "place_id" : "ChIJJ_T9Y4FoA4wRI4R5cfR66YY",
         "types" : [ "route" ]
      },
      {
         "address_components" : [
            {
               "long_name" : "Universidad",
               "short_name" : "Universidad",
               "types" : [ "neighborhood", "political" ]
            },
            {
               "long_name" : "San Juan",
               "short_name" : "San Juan",
               "types" : [ "locality", "political" ]
            },
            {
               "long_name" : "San Juan",
               "short_name" : "San Juan",
               "types" : [ "administrative_area_level_1", "political" ]
            },
            {
               "long_name" : "Puerto Rico",
               "short_name" : "PR",
               "types" : [ "country", "political" ]
            }
         ],
         "formatted_address" : "Universidad, San Juan, Puerto Rico",
         "geometry" : {
            "bounds" : {
               "northeast" : {
                  "lat" : 18.4140969,
                  "lng" : -66.038113
               },
               "southwest" : {
                  "lat" : 18.401106,
                  "lng" : -66.05421609999999
               }
            },
            "location" : {
               "lat" : 18.4081071,
               "lng" : -66.0448665
            },
            "location_type" : "APPROXIMATE",
            "viewport" : {
               "northeast" : {
                  "lat" : 18.4140969,
                  "lng" : -66.038113
               },
               "southwest" : {
                  "lat" : 18.401106,
                  "lng" : -66.05421609999999
               }
            }
         },
         "place_id" : "ChIJmWh_9ydmA4wRMIt4aC_CYJQ",
         "types" : [ "neighborhood", "political" ]
      },
      {
         "address_components" : [
            {
               "long_name" : "Río Piedras",
               "short_name" : "Río Piedras",
               "types" : [ "political", "sublocality", "sublocality_level_1" ]
            },
            {
               "long_name" : "San Juan",
               "short_name" : "San Juan",
               "types" : [ "locality", "political" ]
            },
            {
               "long_name" : "San Juan",
               "short_name" : "San Juan",
               "types" : [ "administrative_area_level_1", "political" ]
            },
            {
               "long_name" : "Puerto Rico",
               "short_name" : "PR",
               "types" : [ "country", "political" ]
            }
         ],
         "formatted_address" : "Río Piedras, San Juan, Puerto Rico",
         "geometry" : {
            "bounds" : {
               "northeast" : {
                  "lat" : 18.4112968,
                  "lng" : -66.025257
               },
               "southwest" : {
                  "lat" : 18.3773339,
                  "lng" : -66.06920239999999
               }
            },
            "location" : {
               "lat" : 18.3894791,
               "lng" : -66.04040569999999
            },
            "location_type" : "APPROXIMATE",
            "viewport" : {
               "northeast" : {
                  "lat" : 18.4112968,
                  "lng" : -66.025257
               },
               "southwest" : {
                  "lat" : 18.3773339,
                  "lng" : -66.06920239999999
               }
            }
         },
         "place_id" : "ChIJqz8Pd39oA4wRL0GyKLAPk2Q",
         "types" : [ "political", "sublocality", "sublocality_level_1" ]
      },
      {
         "address_components" : [
            {
               "long_name" : "San Juan",
               "short_name" : "San Juan",
               "types" : [ "locality", "political" ]
            },
            {
               "long_name" : "El Cinco",
               "short_name" : "El Cinco",
               "types" : [ "administrative_area_level_2", "political" ]
            },
            {
               "long_name" : "San Juan",
               "short_name" : "San Juan",
               "types" : [ "administrative_area_level_1", "political" ]
            },
            {
               "long_name" : "Puerto Rico",
               "short_name" : "PR",
               "types" : [ "country", "political" ]
            }
         ],
         "formatted_address" : "San Juan, Puerto Rico",
         "geometry" : {
            "bounds" : {
               "northeast" : {
                  "lat" : 18.4808269,
                  "lng" : -65.991542
               },
               "southwest" : {
                  "lat" : 18.297648,
                  "lng" : -66.1294029
               }
            },
            "location" : {
               "lat" : 18.4655394,
               "lng" : -66.10573549999999
            },
            "location_type" : "APPROXIMATE",
            "viewport" : {
               "northeast" : {
                  "lat" : 18.4808269,
                  "lng" : -65.991542
               },
               "southwest" : {
                  "lat" : 18.297648,
                  "lng" : -66.1294029
               }
            }
         },
         "place_id" : "ChIJbxlo4m9oA4wR3FqTXA9_a60",
         "types" : [ "locality", "political" ]
      },
      {
         "address_components" : [
            {
               "long_name" : "00931",
               "short_name" : "00931",
               "types" : [ "postal_code" ]
            },
            {
               "long_name" : "San Juan",
               "short_name" : "San Juan",
               "types" : [ "locality", "political" ]
            },
            {
               "long_name" : "San Juan",
               "short_name" : "San Juan",
               "types" : [ "administrative_area_level_1", "political" ]
            },
            {
               "long_name" : "Puerto Rico",
               "short_name" : "PR",
               "types" : [ "country", "political" ]
            }
         ],
         "formatted_address" : "San Juan, 00931, Puerto Rico",
         "geometry" : {
            "bounds" : {
               "northeast" : {
                  "lat" : 18.4128631,
                  "lng" : -66.0389187
               },
               "southwest" : {
                  "lat" : 18.3985937,
                  "lng" : -66.0552752
               }
            },
            "location" : {
               "lat" : 18.4,
               "lng" : -66.05
            },
            "location_type" : "APPROXIMATE",
            "viewport" : {
               "northeast" : {
                  "lat" : 18.4128631,
                  "lng" : -66.0389187
               },
               "southwest" : {
                  "lat" : 18.3985937,
                  "lng" : -66.0552752
               }
            }
         },
         "place_id" : "ChIJw4E5DoFoA4wRbY1s_Y1qNV8",
         "types" : [ "postal_code" ]
      },
      {
         "address_components" : [
            {
               "long_name" : "00925",
               "short_name" : "00925",
               "types" : [ "postal_code" ]
            },
            {
               "long_name" : "San Juan",
               "short_name" : "San Juan",
               "types" : [ "locality", "political" ]
            },
            {
               "long_name" : "San Juan",
               "short_name" : "San Juan",
               "types" : [ "administrative_area_level_1", "political" ]
            },
            {
               "long_name" : "Puerto Rico",
               "short_name" : "PR",
               "types" : [ "country", "political" ]
            }
         ],
         "formatted_address" : "San Juan, 00925, Puerto Rico",
         "geometry" : {
            "bounds" : {
               "northeast" : {
                  "lat" : 18.4522559,
                  "lng" : -66.040791
               },
               "southwest" : {
                  "lat" : 18.3948259,
                  "lng" : -66.09762309999999
               }
            },
            "location" : {
               "lat" : 18.403745,
               "lng" : -66.05378809999999
            },
            "location_type" : "APPROXIMATE",
            "viewport" : {
               "northeast" : {
                  "lat" : 18.4522559,
                  "lng" : -66.040791
               },
               "southwest" : {
                  "lat" : 18.3948259,
                  "lng" : -66.09762309999999
               }
            }
         },
         "place_id" : "ChIJqy28T4xoA4wRRS_WctuMu7o",
         "types" : [ "postal_code" ]
      },
      {
         "address_components" : [
            {
               "long_name" : "San Juan",
               "short_name" : "San Juan",
               "types" : [ "administrative_area_level_1", "political" ]
            },
            {
               "long_name" : "Puerto Rico",
               "short_name" : "PR",
               "types" : [ "country", "political" ]
            }
         ],
         "formatted_address" : "San Juan, Puerto Rico",
         "geometry" : {
            "bounds" : {
               "northeast" : {
                  "lat" : 18.4720048,
                  "lng" : -65.991542
               },
               "southwest" : {
                  "lat" : 18.2965209,
                  "lng" : -66.12514089999999
               }
            },
            "location" : {
               "lat" : 18.4077226,
               "lng" : -66.0565206
            },
            "location_type" : "APPROXIMATE",
            "viewport" : {
               "northeast" : {
                  "lat" : 18.4720048,
                  "lng" : -65.991542
               },
               "southwest" : {
                  "lat" : 18.2965209,
                  "lng" : -66.12514089999999
               }
            }
         },
         "place_id" : "ChIJJZ95DGVoA4wRfE4aUPoNFNI",
         "types" : [ "administrative_area_level_1", "political" ]
      },
      {
         "address_components" : [
            {
               "long_name" : "San Juan-Caguas-Guaynabo, PR",
               "short_name" : "San Juan-Caguas-Guaynabo, PR",
               "types" : [ "political" ]
            },
            {
               "long_name" : "Puerto Rico",
               "short_name" : "PR",
               "types" : [ "country", "political" ]
            }
         ],
         "formatted_address" : "San Juan-Caguas-Guaynabo, PR, Puerto Rico",
         "geometry" : {
            "bounds" : {
               "northeast" : {
                  "lat" : 18.494199,
                  "lng" : -65.65807099999999
               },
               "southwest" : {
                  "lat" : 17.9818544,
                  "lng" : -66.9684281
               }
            },
            "location" : {
               "lat" : 18.2752311,
               "lng" : -66.1415263
            },
            "location_type" : "APPROXIMATE",
            "viewport" : {
               "northeast" : {
                  "lat" : 18.494199,
                  "lng" : -65.65807099999999
               },
               "southwest" : {
                  "lat" : 17.9818544,
                  "lng" : -66.9684281
               }
            }
         },
         "place_id" : "ChIJe2ZaMKlAA4wRvncfBTLz5bU",
         "types" : [ "political" ]
      },
      {
         "address_components" : [
            {
               "long_name" : "Puerto Rico",
               "short_name" : "PR",
               "types" : [ "country", "political" ]
            }
         ],
         "formatted_address" : "Puerto Rico",
         "geometry" : {
            "bounds" : {
               "northeast" : {
                  "lat" : 18.5720479,
                  "lng" : -65.2105715
               },
               "southwest" : {
                  "lat" : 17.8449191,
                  "lng" : -67.96118439999999
               }
            },
            "location" : {
               "lat" : 18.220833,
               "lng" : -66.590149
            },
            "location_type" : "APPROXIMATE",
            "viewport" : {
               "northeast" : {
                  "lat" : 18.5720479,
                  "lng" : -65.2105715
               },
               "southwest" : {
                  "lat" : 17.8449191,
                  "lng" : -67.96118439999999
               }
            }
         },
         "place_id" : "ChIJ-aeSGyaWAowRGpsEGCjsNvM",
         "types" : [ "country", "political" ]
      }
   ],
   "status" : "OK"
}
