{
   "plus_code" : {
      "compound_code" : "2RW2+Q5 Nghĩa Đô, Cầu Giấy, Hà Nội, Vietnam",
      "global_code" : "7PH72RW2+Q5"
   },
   "results" : [
      {
         "address_components" : [
            {
               "long_name" : "18",
               "short_name" : "18",
               "types" : [ "street_number" ]
            },
            {
               "long_name" : "Hoàng Quốc Việt",
               "short_name" : "Hoàng Quốc Việt",
               "types" : [ "route" ]
            },
            {
               "long_name" : "Cầu Giấy",
               "short_name" : "Cầu Giấy",
               "types" : [ "administrative_area_level_2", "political" ]
            },
            {
               "long_name" : "Hà Nội",
               "short_name" : "Hà Nội",
               "types" : [ "administrative_area_level_1", "political" ]
            },
            {
               "long_name" : "Vietnam",
               "short_name" : "VN",
               "types" : [ "country", "political" ]
            }
         ],
         "formatted_address" : "18 Hoàng Quốc Việt, Nghĩa Đô, Cầu Giấy, Hà Nội, Vietnam",
         "geometry" : {
            "location" : {
               "lat" : 21.0469527,
               "lng" : 105.8004621
            },
            "location_type" : "ROOFTOP",
            "viewport" : {
               "northeast" : {
                  "lat" : 21.0483016802915,
                  "lng" : 105.8018110802915
               },
               "southwest" : {
                  "lat" : 21.0456037197085,
                  "lng" : 105.7991131197085
               }
            }
         },
         "place_id" : "ChIJBxrfKT2rNTERlZzo_uBCxsU",
         "plus_code" : {
            "compound_code" : "2RW2+Q5 Nghĩa Đô, Cầu Giấy, Hanoi, Vietnam",
            "global_code" : "7PH72RW2+Q5"
         },
         "types" : [ "establishment", "point_of_interest" ]
      },
      {
         "address_components" : [
            {
               "long_name" : "35",
               "short_name" : "35",
               "types" : [ "street_number" ]
            },
            {
               "long_name" : "Hoàng Quốc Việt",
               "short_name" : "Hoàng Quốc Việt",
               "types" : [ "route" ]
            },
            {
               "long_name" : "Cầu Giấy",
               "short_name" : "Cầu Giấy",
               "types" : [ "administrative_area_level_2", "political" ]
            },
            {
               "long_name" : "Hà Nội",
               "short_name" : "Hà Nội",
               "types" : [ "administrative_area_level_1", "political" ]
            },
            {
               "long_name" : "Vietnam",
               "short_name" : "VN",
               "types" : [ "country", "political" ]
            }
         ],
         "formatted_address" : "35 Hoàng Quốc Việt, Nghĩa Đô, Cầu Giấy, Hà Nội, Vietnam",
         "geometry" : {
            "location" : {
               "lat" : 21.0463024,
               "lng" : 105.7995307
            },
            "location_type" : "RANGE_INTERPOLATED",
            "viewport" : {
               "northeast" : {
                  "lat" : 21.0476513802915,
                  "lng" : 105.8008796802915
               },
               "southwest" : {
                  "lat" : 21.0449534197085,
                  "lng" : 105.7981817197085
               }
            }
         },
         "place_id" : "EkkzNSBIb8OgbmcgUXXhu5FjIFZp4buHdCwgTmdoxKlhIMSQw7QsIEPhuqd1IEdp4bqleSwgSMOgIE7hu5lpLCBWaeG7h3QgTmFtIhoSGAoUChIJW5QppjyrNTER0qbSaojOaZAQIw",
         "types" : [ "street_address" ]
      },
      {
         "address_components" : [
            {
               "long_name" : "Nghĩa Đô",
               "short_name" : "Nghĩa Đô",
               "types" : [ "administrative_area_level_3", "political" ]
            },
            {
               "long_name" : "Cầu Giấy",
               "short_name" : "Cầu Giấy",
               "types" : [ "administrative_area_level_2", "political" ]
            },
            {
               "long_name" : "Hà Nội",
               "short_name" : "Hà Nội",
               "types" : [ "administrative_area_level_1", "political" ]
            },
            {
               "long_name" : "Vietnam",
               "short_name" : "VN",
               "types" : [ "country", "political" ]
            }
         ],
         "formatted_address" : "Nghĩa Đô, Cầu Giấy, Hà Nội, Vietnam",
         "geometry" : {
            "bounds" : {
               "northeast" : {
                  "lat" : 21.0562211,
                  "lng" : 105.809209
               },
               "southwest" : {
                  "lat" : 21.0395451,
                  "lng" : 105.7936169
               }
            },
            "location" : {
               "lat" : 21.0438759,
               "lng" : 105.802612
            },
            "location_type" : "APPROXIMATE",
            "viewport" : {
               "northeast" : {
                  "lat" : 21.0562211,
                  "lng" : 105.809209
               },
               "southwest" : {
                  "lat" : 21.0395451,
                  "lng" : 105.7936169
               }
            }
         },
         "place_id" : "ChIJBWEVOSOrNTER5gSUpOWUiXQ",
         "types" : [ "administrative_area_level_3", "political" ]
      },
      {
         "address_components" : [
            {
               "long_name" : "Nghĩa Đô",
               "short_name" : "Nghĩa Đô",
               "types" : [ "political", "sublocality", "sublocality_level_1" ]
            },
            {
               "long_name" : "Cầu Giấy",
               "short_name" : "Cầu Giấy",
               "types" : [ "administrative_area_level_2", "political" ]
            },
            {
               "long_name" : "Hà Nội",
               "short_name" : "Hà Nội",
               "types" : [ "administrative_area_level_1", "political" ]
            },
            {
               "long_name" : "Vietnam",
               "short_name" : "VN",
               "types" : [ "country", "political" ]
            }
         ],
         "formatted_address" : "Nghĩa Đô, Cầu Giấy, Hà Nội, Vietnam",
         "geometry" : {
            "bounds" : {
               "northeast" : {
                  "lat" : 21.0592714,
                  "lng" : 105.8090634
               },
               "southwest" : {
                  "lat" : 21.0380156,
                  "lng" : 105.7941448
               }
            },
            "location" : {
               "lat" : 21.0454641,
               "lng" : 105.8011445
            },
            "location_type" : "APPROXIMATE",
            "viewport" : {
               "northeast" : {
                  "lat" : 21.0592714,
                  "lng" : 105.8090634
               },
               "southwest" : {
                  "lat" : 21.0380156,
                  "lng" : 105.7941448
               }
            }
         },
         "place_id" : "ChIJjWe96SKrNTERtAxJRADKxZM",
         "types" : [ "political", "sublocality", "sublocality_level_1" ]
      },
      {
         "address_components" : [
            {
               "long_name" : "Cầu Giấy",
               "short_name" : "Cầu Giấy",
               "types" : [ "administrative_area_level_2", "political" ]
            },
            {
               "long_name" : "Hanoi",
               "short_name" : "Hanoi",
               "types" : [ "administrative_area_level_1", "political" ]
            },
            {
               "long_name" : "Vietnam",
               "short_name" : "VN",
               "types" : [ "country", "political" ]
            }
         ],
         "formatted_address" : "Cầu Giấy, Hanoi, Vietnam",
         "geometry" : {
            "bounds" : {
               "northeast" : {
                  "lat" : 21.0562211,
                  "lng" : 105.8139039
               },
               "southwest" : {
                  "lat" : 21.001137,
                  "lng" : 105.7679239
               }
            },
            "location" : {
               "lat" : 21.0362368,
               "lng" : 105.7905825
            },
            "location_type" : "APPROXIMATE",
            "viewport" : {
               "northeast" : {
                  "lat" : 21.0562211,
                  "lng" : 105.8139039
               },
               "southwest" : {
                  "lat" : 21.001137,
                  "lng" : 105.7679239
               }
            }
         },
         "place_id" : "ChIJMxD5VlerNTER_UtnLUQXaVc",
         "types" : [ "administrative_area_level_2", "political" ]
      },
      {
         "address_components" : [
            {
               "long_name" : "Hanoi",
               "short_name" : "Hanoi",
               "types" : [ "administrative_area_level_1", "political" ]
            },
            {
               "long_name" : "Vietnam",
               "short_name" : "VN",
               "types" : [ "country", "political" ]
            }
         ],
         "formatted_address" : "Hanoi, Vietnam",
         "geometry" : {
            "bounds" : {
               "northeast" : {
                  "lat" : 21.3850271,
                  "lng" : 106.0198859
               },
               "southwest" : {
                  "lat" : 20.5623231,
                  "lng" : 105.2854659
               }
            },
            "location" : {
               "lat" : 21.0031177,
               "lng" : 105.8201408
            },
            "location_type" : "APPROXIMATE",
            "viewport" : {
               "northeast" : {
                  "lat" : 21.3850271,
                  "lng" : 106.0198859
               },
               "southwest" : {
                  "lat" : 20.5623231,
                  "lng" : 105.2854659
               }
            }
         },
         "place_id" : "ChIJKQqAE44ANTERDbkQYkF-mAI",
         "types" : [ "administrative_area_level_1", "political" ]
      },
      {
         "address_components" : [
            {
               "long_name" : "Vietnam",
               "short_name" : "VN",
               "types" : [ "country", "political" ]
            }
         ],
         "formatted_address" : "Vietnam",
         "geometry" : {
            "bounds" : {
               "northeast" : {
                  "lat" : 23.3926504,
                  "lng" : 109.6765
               },
               "southwest" : {
                  "lat" : 8.195200099999999,
                  "lng" : 102.1439156
               }
            },
            "location" : {
               "lat" : 14.058324,
               "lng" : 108.277199
            },
            "location_type" : "APPROXIMATE",
            "viewport" : {
               "northeast" : {
                  "lat" : 23.3926504,
                  "lng" : 109.6765
               },
               "southwest" : {
                  "lat" : 8.195200099999999,
                  "lng" : 102.1439156
               }
            }
         },
         "place_id" : "ChIJXx5qc016FTERvmL-4smwO7A",
         "types" : [ "country", "political" ]
      }
   ],
   "status" : "OK"
}
