{
   "plus_code" : {
      "compound_code" : "PR5C+5Q Nairobi, Kenya",
      "global_code" : "6GCRPR5C+5Q"
   },
   "results" : [
      {
         "address_components" : [
            {
               "long_name" : "Nairobi",
               "short_name" : "Nairobi",
               "types" : [ "locality", "political" ]
            },
            {
               "long_name" : "Kenya",
               "short_name" : "KE",
               "types" : [ "country", "political" ]
            }
         ],
         "formatted_address" : "Chaka Court, Shop 11, Nairobi, Kenya",
         "geometry" : {
            "location" : {
               "lat" : -1.2920658,
               "lng" : 36.8219462
            },
            "location_type" : "GEOMETRIC_CENTER",
            "viewport" : {
               "northeast" : {
                  "lat" : -1.290716819708498,
                  "lng" : 36.8232951802915
               },
               "southwest" : {
                  "lat" : -1.293414780291502,
                  "lng" : 36.8205972197085
               }
            }
         },
         "place_id" : "ChIJs9UW3N4QLxgRoLPkGbepPAc",
         "plus_code" : {
            "compound_code" : "PR5C+5Q Nairobi, Kenya",
            "global_code" : "6GCRPR5C+5Q"
         },
         "types" : [ "clothing_store", "establishment", "point_of_interest", "store" ]
      },
      {
         "address_components" : [
            {
               "long_name" : "City Square",
               "short_name" : "City Square",
               "types" : [ "political", "sublocality", "sublocality_level_1" ]
            },
            {
               "long_name" : "Nairobi",
               "short_name" : "Nairobi",
               "types" : [ "locality", "political" ]
            },
            {
               "long_name" : "Nairobi County",
               "short_name" : "Nairobi County",
               "types" : [ "administrative_area_level_1", "political" ]
            },
            {
               "long_name" : "Kenya",
               "short_name" : "KE",
               "types" : [ "country", "political" ]
            }
         ],
         "formatted_address" : "City Square, Nairobi, Kenya",
         "geometry" : {
            "bounds" : {
               "northeast" : {
                  "lat" : -1.2805602,
                  "lng" : 36.8361781
               },
               "southwest" : {
                  "lat" : -1.2953558,
                  "lng" : 36.81786779999999
               }
            },
            "location" : {
               "lat" : -1.2893422,
               "lng" : 36.8223358
            },
            "location_type" : "APPROXIMATE",
            "viewport" : {
               "northeast" : {
                  "lat" : -1.2805602,
                  "lng" : 36.8361781
               },
               "southwest" : {
                  "lat" : -1.2953558,
                  "lng" : 36.81786779999999
               }
            }
         },
         "place_id" : "ChIJ2yXfzicRLxgR0NraPmaPBTA",
         "types" : [ "political", "sublocality", "sublocality_level_1" ]
      },
      {
         "address_components" : [
            {
               "long_name" : "Nairobi",
               "short_name" : "Nairobi",
               "types" : [ "locality", "political" ]
            },
            {
               "long_name" : "Nairobi County",
               "short_name" : "Nairobi County",
               "types" : [ "administrative_area_level_1", "political" ]
            },
            {
               "long_name" : "Kenya",
               "short_name" : "KE",
               "types" : [ "country", "political" ]
            }
         ],
         "formatted_address" : "Nairobi, Kenya",
         "geometry" : {
            "bounds" : {
               "northeast" : {
                  "lat" : -1.164744,
                  "lng" : 37.0493746
               },
               "southwest" : {
                  "lat" : -1.4416739,
                  "lng" : 36.6454191
               }
            },
            "location" : {
               "lat" : -1.2920659,
               "lng" : 36.8219462
            },
            "location_type" : "APPROXIMATE",
            "viewport" : {
               "northeast" : {
                  "lat" : -1.164744,
                  "lng" : 37.0493746
               },
               "southwest" : {
                  "lat" : -1.4416739,
                  "lng" : 36.6454191
               }
            }
         },
         "place_id" : "ChIJp0lN2HIRLxgRTJKXslQCz_c",
         "types" : [ "locality", "political" ]
      },
      {
         "address_components" : [
            {
               "long_name" : "Nairobi County",
               "short_name" : "Nairobi County",
               "types" : [ "administrative_area_level_1", "political" ]
            },
            {
               "long_name" : "Kenya",
               "short_name" : "KE",
               "types" : [ "country", "political" ]
            }
         ],
         "formatted_address" : "Nairobi County, Kenya",
         "geometry" : {
            "bounds" : {
               "northeast" : {
                  "lat" : -1.165677,
                  "lng" : 37.1050441
               },
               "southwest" : {
                  "lat" : -1.4522759,
                  "lng" : 36.6511271
               }
            },
            "location" : {
               "lat" : -1.2915364,
               "lng" : 36.8457361
            },
            "location_type" : "APPROXIMATE",
            "viewport" : {
               "northeast" : {
                  "lat" : -1.165677,
                  "lng" : 37.1050441
               },
               "southwest" : {
                  "lat" : -1.4522759,
                  "lng" : 36.6511271
               }
            }
         },
         "place_id" : "ChIJQRUxXGURLxgRl7gQHKxp150",
         "types" : [ "administrative_area_level_1", "political" ]
      },
      {
         "address_components" : [
            {
               "long_name" : "Kenya",
               "short_name" : "KE",
               "types" : [ "country", "political" ]
            }
         ],
         "formatted_address" : "Kenya",
         "geometry" : {
            "bounds" : {
               "northeast" : {
                  "lat" : 5.033420899999999,
                  "lng" : 41.9069449
               },
               "southwest" : {
                  "lat" : -4.724299999999999,
                  "lng" : 33.90982109999999
               }
            },
            "location" : {
               "lat" : -0.023559,
               "lng" : 37.906193
            },
            "location_type" : "APPROXIMATE",
            "viewport" : {
               "northeast" : {
                  "lat" : 5.033420899999999,
                  "lng" : 41.9069449
               },
               "southwest" : {
                  "lat" : -4.724299999999999,
                  "lng" : 33.90982109999999
               }
            }
         },
         "place_id" : "ChIJD5BQg9CAJxgR2W2XobAOO0A",
         "types" : [ "country", "political" ]
      }
   ],
   "status" : "OK"
}
