{
   "plus_code" : {
      "compound_code" : "MQWW+48 El Diamantico, Mosquera, Cundinamarca, Colombia",
      "global_code" : "67P7MQWW+48"
   },
   "results" : [
      {
         "address_components" : [
            {
               "long_name" : "Mosquera",
               "short_name" : "Mosquera",
               "types" : [ "locality", "political" ]
            },
            {
               "long_name" : "Cundinamarca",
               "short_name" : "Cundinamarca",
               "types" : [ "administrative_area_level_1", "political" ]
            },
            {
               "long_name" : "Colombia",
               "short_name" : "CO",
               "types" : [ "country", "political" ]
            },
            {
               "long_name" : "250047",
               "short_name" : "250047",
               "types" : [ "postal_code" ]
            }
         ],
         "formatted_address" : "Viaa Mosquera Kilometrom 14, Mosquera, Cundinamarca, Colombia",
         "geometry" : {
            "location" : {
               "lat" : 4.695368,
               "lng" : -74.20420799999999
            },
            "location_type" : "GEOMETRIC_CENTER",
            "viewport" : {
               "northeast" : {
                  "lat" : 4.696716980291503,
                  "lng" : -74.2028590197085
               },
               "southwest" : {
                  "lat" : 4.694019019708498,
                  "lng" : -74.2055569802915
               }
            }
         },
         "place_id" : "ChIJbxHBxwmdP44RVKSf2J27wZY",
         "types" : [ "atm", "establishment", "finance", "point_of_interest" ]
      },
      {
         "address_components" : [
            {
               "long_name" : "Bogotá-Mosquera",
               "short_name" : "Bogotá-Mosquera",
               "types" : [ "route" ]
            },
            {
               "long_name" : "Mosquera",
               "short_name" : "Mosquera",
               "types" : [ "administrative_area_level_2", "political" ]
            },
            {
               "long_name" : "Cundinamarca",
               "short_name" : "Cundinamarca",
               "types" : [ "administrative_area_level_1", "political" ]
            },
            {
               "long_name" : "Colombia",
               "short_name" : "CO",
               "types" : [ "country", "political" ]
            },
            {
               "long_name" : "250047",
               "short_name" : "250047",
               "types" : [ "postal_code" ]
            }
         ],
         "formatted_address" : "Bogotá-Mosquera, Mosquera, Cundinamarca, Colombia",
         "geometry" : {
            "bounds" : {
               "northeast" : {
                  "lat" : 4.6968863,
                  "lng" : -74.20196279999999
               },
               "southwest" : {
                  "lat" : 4.6966518,
                  "lng" : -74.2046374
               }
            },
            "location" : {
               "lat" : 4.696769,
               "lng" : -74.20330009999999
            },
            "location_type" : "GEOMETRIC_CENTER",
            "viewport" : {
               "northeast" : {
                  "lat" : 4.698118030291503,
                  "lng" : -74.2019511197085
               },
               "southwest" : {
                  "lat" : 4.695420069708498,
                  "lng" : -74.2046490802915
               }
            }
         },
         "place_id" : "ChIJG7yo-ESdP44Rxg-lce6qPQo",
         "types" : [ "route" ]
      },
      {
         "address_components" : [
            {
               "long_name" : "El Diamantico",
               "short_name" : "El Diamantico",
               "types" : [ "neighborhood", "political" ]
            },
            {
               "long_name" : "Mosquera",
               "short_name" : "Mosquera",
               "types" : [ "locality", "political" ]
            },
            {
               "long_name" : "Mosquera",
               "short_name" : "Mosquera",
               "types" : [ "administrative_area_level_2", "political" ]
            },
            {
               "long_name" : "Cundinamarca",
               "short_name" : "Cundinamarca",
               "types" : [ "administrative_area_level_1", "political" ]
            },
            {
               "long_name" : "Colombia",
               "short_name" : "CO",
               "types" : [ "country", "political" ]
            },
            {
               "long_name" : "250047",
               "short_name" : "250047",
               "types" : [ "postal_code" ]
            }
         ],
         "formatted_address" : "El Diamantico, Mosquera, Cundinamarca, Colombia",
         "geometry" : {
            "location" : {
               "lat" : 4.695368,
               "lng" : -74.20420799999999
            },
            "location_type" : "APPROXIMATE",
            "viewport" : {
               "northeast" : {
                  "lat" : 4.7064885,
                  "lng" : -74.1882006
               },
               "southwest" : {
                  "lat" : 4.684247399999999,
                  "lng" : -74.2202154
               }
            }
         },
         "place_id" : "ChIJJ_HwkESdP44RdB1Bo4TcVmE",
         "types" : [ "neighborhood", "political" ]
      },
      {
         "address_components" : [
            {
               "long_name" : "250047",
               "short_name" : "250047",
               "types" : [ "postal_code" ]
            },
            {
               "long_name" : "Mosquera",
               "short_name" : "Mosquera",
               "types" : [ "administrative_area_level_2", "political" ]
            },
            {
               "long_name" : "Cundinamarca",
               "short_name" : "Cundinamarca",
               "types" : [ "administrative_area_level_1", "political" ]
            },
            {
               "long_name" : "Colombia",
               "short_name" : "CO",
               "types" : [ "country", "political" ]
            }
         ],
         "formatted_address" : "Mosquera, Cundinamarca, Colombia",
         "geometry" : {
            "bounds" : {
               "northeast" : {
                  "lat" : 4.7369869,
                  "lng" : -74.15686409999999
               },
               "southwest" : {
                  "lat" : 4.617203,
                  "lng" : -74.30048099999999
               }
            },
            "location" : {
               "lat" : 4.6802367,
               "lng" : -74.22967129999999
            },
            "location_type" : "APPROXIMATE",
            "viewport" : {
               "northeast" : {
                  "lat" : 4.7369869,
                  "lng" : -74.15686409999999
               },
               "southwest" : {
                  "lat" : 4.617203,
                  "lng" : -74.30048099999999
               }
            }
         },
         "place_id" : "ChIJCS5gz9F3P44RAZhIwcpbPMM",
         "types" : [ "postal_code" ]
      },
      {
         "address_components" : [
            {
               "long_name" : "Mosquera",
               "short_name" : "Mosquera",
               "types" : [ "administrative_area_level_2", "political" ]
            },
            {
               "long_name" : "Cundinamarca",
               "short_name" : "Cundinamarca",
               "types" : [ "administrative_area_level_1", "political" ]
            },
            {
               "long_name" : "Colombia",
               "short_name" : "CO",
               "types" : [ "country", "political" ]
            }
         ],
         "formatted_address" : "Mosquera, Cundinamarca, Colombia",
         "geometry" : {
            "bounds" : {
               "northeast" : {
                  "lat" : 4.737039999999999,
                  "lng" : -74.15831799999999
               },
               "southwest" : {
                  "lat" : 4.6172559,
                  "lng" : -74.300466
               }
            },
            "location" : {
               "lat" : 4.706035,
               "lng" : -74.23010099999999
            },
            "location_type" : "APPROXIMATE",
            "viewport" : {
               "northeast" : {
                  "lat" : 4.737039999999999,
                  "lng" : -74.15831799999999
               },
               "southwest" : {
                  "lat" : 4.6172559,
                  "lng" : -74.300466
               }
            }
         },
         "place_id" : "ChIJNVE00PZ3P44RrlWvM8U7oGg",
         "types" : [ "administrative_area_level_2", "political" ]
      },
      {
         "address_components" : [
            {
               "long_name" : "Cundinamarca",
               "short_name" : "Cundinamarca",
               "types" : [ "administrative_area_level_1", "political" ]
            },
            {
               "long_name" : "Colombia",
               "short_name" : "CO",
               "types" : [ "country", "political" ]
            }
         ],
         "formatted_address" : "Cundinamarca, Colombia",
         "geometry" : {
            "bounds" : {
               "northeast" : {
                  "lat" : 5.8372401,
                  "lng" : -73.05116
               },
               "southwest" : {
                  "lat" : 3.727751,
                  "lng" : -74.89025199999999
               }
            },
            "location" : {
               "lat" : 5.026002999999999,
               "lng" : -74.0300122
            },
            "location_type" : "APPROXIMATE",
            "viewport" : {
               "northeast" : {
                  "lat" : 5.8372401,
                  "lng" : -73.05116
               },
               "southwest" : {
                  "lat" : 3.727751,
                  "lng" : -74.89025199999999
               }
            }
         },
         "place_id" : "ChIJK68WFusoP44R7QjR-rW8PJM",
         "types" : [ "administrative_area_level_1", "political" ]
      },
      {
         "address_components" : [
            {
               "long_name" : "Colombia",
               "short_name" : "CO",
               "types" : [ "country", "political" ]
            }
         ],
         "formatted_address" : "Colombia",
         "geometry" : {
            "bounds" : {
               "northeast" : {
                  "lat" : 13.5177999,
                  "lng" : -66.8463122
               },
               "southwest" : {
                  "lat" : -4.227109899999999,
                  "lng" : -81.8317
               }
            },
            "location" : {
               "lat" : 4.570868,
               "lng" : -74.29733299999999
            },
            "location_type" : "APPROXIMATE",
            "viewport" : {
               "northeast" : {
                  "lat" : 13.5177999,
                  "lng" : -66.8463122
               },
               "southwest" : {
                  "lat" : -4.227109899999999,
                  "lng" : -81.8317
               }
            }
         },
         "place_id" : "ChIJo5QVrjqkFY4RQKPy7wSaDZo",
         "types" : [ "country", "political" ]
      }
   ],
   "status" : "OK"
}
