{
   "plus_code" : {
      "compound_code" : "PVG2+99 Lisbon, Portugal",
      "global_code" : "8CCGPVG2+99"
   },
   "results" : [
      {
         "address_components" : [
            {
               "long_name" : "12A",
               "short_name" : "12A",
               "types" : [ "street_number" ]
            },
            {
               "long_name" : "Praça Marquês de Pombal",
               "short_name" : "Praça Marquês de Pombal",
               "types" : [ "route" ]
            },
            {
               "long_name" : "Lisboa",
               "short_name" : "Lisboa",
               "types" : [ "locality", "political" ]
            },
            {
               "long_name" : "Lisboa",
               "short_name" : "Lisboa",
               "types" : [ "administrative_area_level_1", "political" ]
            },
            {
               "long_name" : "Portugal",
               "short_name" : "PT",
               "types" : [ "country", "political" ]
            },
            {
               "long_name" : "1050-045",
               "short_name" : "1050-045",
               "types" : [ "postal_code" ]
            }
         ],
         "formatted_address" : "Praça Marquês de Pombal 12A, 1050-045 Lisboa, Portugal",
         "geometry" : {
            "location" : {
               "lat" : 38.7259349,
               "lng" : -9.149117799999999
            },
            "location_type" : "ROOFTOP",
            "viewport" : {
               "northeast" : {
                  "lat" : 38.72728388029149,
                  "lng" : -9.147768819708498
               },
               "southwest" : {
                  "lat" : 38.7245859197085,
                  "lng" : -9.150466780291502
               }
            }
         },
         "place_id" : "ChIJzYQq_3YzGQ0RtJXcyjvoupk",
         "plus_code" : {
            "compound_code" : "PVG2+99 Lisbon, Portugal",
            "global_code" : "8CCGPVG2+99"
         },
         "types" : [ "establishment", "point_of_interest" ]
      },
      {
         "address_components" : [
            {
               "long_name" : "12A",
               "short_name" : "12A",
               "types" : [ "street_number" ]
            },
            {
               "long_name" : "Praça Marquês de Pombal",
               "short_name" : "Praça Marquês de Pombal",
               "types" : [ "route" ]
            },
            {
               "long_name" : "Lisboa",
               "short_name" : "Lisboa",
               "types" : [ "locality", "political" ]
            },
            {
               "long_name" : "Lisboa",
               "short_name" : "Lisboa",
               "types" : [ "administrative_area_level_1", "political" ]
            },
            {
               "long_name" : "Portugal",
               "short_name" : "PT",
               "types" : [ "country", "political" ]
            },
            {
               "long_name" : "1050-045",
               "short_name" : "1050-045",
               "types" : [ "postal_code" ]
            }
         ],
         "formatted_address" : "Praça Marquês de Pombal 12A, 1050-045 Lisboa, Portugal",
         "geometry" : {
            "location" : {
               "lat" : 38.7258963,
               "lng" : -9.149160699999999
            },
            "location_type" : "ROOFTOP",
            "viewport" : {
               "northeast" : {
                  "lat" : 38.72724528029149,
                  "lng" : -9.147811719708498
               },
               "southwest" : {
                  "lat" : 38.7245473197085,
                  "lng" : -9.150509680291503
               }
            }
         },
         "place_id" : "ChIJFSCg5HYzGQ0RP0M28e9i2xI",
         "plus_code" : {
            "compound_code" : "PVG2+98 Lisbon, Portugal",
            "global_code" : "8CCGPVG2+98"
         },
         "types" : [ "street_address" ]
      },
      {
         "address_components" : [
            {
               "long_name" : "4",
               "short_name" : "4",
               "types" : [ "street_number" ]
            },
            {
               "long_name" : "Avenida Fontes Pereira de Melo",
               "short_name" : "Av. Fontes Pereira de Melo",
               "types" : [ "route" ]
            },
            {
               "long_name" : "Lisboa",
               "short_name" : "Lisboa",
               "types" : [ "locality", "political" ]
            },
            {
               "long_name" : "Portugal",
               "short_name" : "PT",
               "types" : [ "country", "political" ]
            }
         ],
         "formatted_address" : "Av. Fontes Pereira de Melo 4, Lisboa, Portugal",
         "geometry" : {
            "location" : {
               "lat" : 38.72648969999999,
               "lng" : -9.1492614
            },
            "location_type" : "RANGE_INTERPOLATED",
            "viewport" : {
               "northeast" : {
                  "lat" : 38.7278386802915,
                  "lng" : -9.147912419708499
               },
               "southwest" : {
                  "lat" : 38.7251407197085,
                  "lng" : -9.150610380291504
               }
            }
         },
         "place_id" : "Ei5Bdi4gRm9udGVzIFBlcmVpcmEgZGUgTWVsbyA0LCBMaXNib2EsIFBvcnR1Z2FsIhoSGAoUChIJ-YUy6XYzGQ0RYzAB-AHDHnsQBA",
         "types" : [ "street_address" ]
      },
      {
         "address_components" : [
            {
               "long_name" : "Coração de Jesus",
               "short_name" : "Coração de Jesus",
               "types" : [ "administrative_area_level_3", "political" ]
            },
            {
               "long_name" : "Lisbon",
               "short_name" : "Lisbon",
               "types" : [ "locality", "political" ]
            },
            {
               "long_name" : "Lisbon",
               "short_name" : "Lisbon",
               "types" : [ "administrative_area_level_1", "political" ]
            },
            {
               "long_name" : "Portugal",
               "short_name" : "PT",
               "types" : [ "country", "political" ]
            }
         ],
         "formatted_address" : "Coração de Jesus, Lisbon, Portugal",
         "geometry" : {
            "bounds" : {
               "northeast" : {
                  "lat" : 38.7284797,
                  "lng" : -9.141936099999999
               },
               "southwest" : {
                  "lat" : 38.7193417,
                  "lng" : -9.1535841
               }
            },
            "location" : {
               "lat" : 38.7244377,
               "lng" : -9.146998999999999
            },
            "location_type" : "APPROXIMATE",
            "viewport" : {
               "northeast" : {
                  "lat" : 38.7284797,
                  "lng" : -9.141936099999999
               },
               "southwest" : {
                  "lat" : 38.7193417,
                  "lng" : -9.1535841
               }
            }
         },
         "place_id" : "ChIJk1z0mXczGQ0RgEGQ5L3rAAU",
         "types" : [ "administrative_area_level_3", "political" ]
      },
      {
         "address_components" : [
            {
               "long_name" : "1050-045",
               "short_name" : "1050-045",
               "types" : [ "postal_code" ]
            },
            {
               "long_name" : "Lisbon",
               "short_name" : "Lisbon",
               "types" : [ "locality", "political" ]
            },
            {
               "long_name" : "Lisbon",
               "short_name" : "Lisbon",
               "types" : [ "administrative_area_level_1", "political" ]
            },
            {
               "long_name" : "Portugal",
               "short_name" : "PT",
               "types" : [ "country", "political" ]
            }
         ],
         "formatted_address" : "1050-045 Lisbon, Portugal",
         "geometry" : {
            "bounds" : {
               "northeast" : {
                  "lat" : 38.7270346,
                  "lng" : -9.146998999999999
               },
               "southwest" : {
                  "lat" : 38.7255186,
                  "lng" : -9.1497663
               }
            },
            "location" : {
               "lat" : 38.7262547,
               "lng" : -9.148628100000002
            },
            "location_type" : "APPROXIMATE",
            "viewport" : {
               "northeast" : {
                  "lat" : 38.7276255802915,
                  "lng" : -9.146998999999999
               },
               "southwest" : {
                  "lat" : 38.7249276197085,
                  "lng" : -9.1497663
               }
            }
         },
         "place_id" : "ChIJkW_f-XYzGQ0R8h3rFjbdaiY",
         "types" : [ "postal_code" ]
      },
      {
         "address_components" : [
            {
               "long_name" : "1050",
               "short_name" : "1050",
               "types" : [ "postal_code", "postal_code_prefix" ]
            },
            {
               "long_name" : "Lisbon",
               "short_name" : "Lisbon",
               "types" : [ "locality", "political" ]
            },
            {
               "long_name" : "Lisbon",
               "short_name" : "Lisbon",
               "types" : [ "administrative_area_level_1", "political" ]
            },
            {
               "long_name" : "Portugal",
               "short_name" : "PT",
               "types" : [ "country", "political" ]
            }
         ],
         "formatted_address" : "1050 Lisbon, Portugal",
         "geometry" : {
            "bounds" : {
               "northeast" : {
                  "lat" : 38.74488710000001,
                  "lng" : -9.1435069
               },
               "southwest" : {
                  "lat" : 38.7248402,
                  "lng" : -9.1593734
               }
            },
            "location" : {
               "lat" : 38.7346077,
               "lng" : -9.149766399999999
            },
            "location_type" : "APPROXIMATE",
            "viewport" : {
               "northeast" : {
                  "lat" : 38.74488710000001,
                  "lng" : -9.1435069
               },
               "southwest" : {
                  "lat" : 38.7248402,
                  "lng" : -9.1593734
               }
            }
         },
         "place_id" : "ChIJ8RHjYgszGQ0RYJw7DsHrABw",
         "types" : [ "postal_code", "postal_code_prefix" ]
      },
      {
         "address_components" : [
            {
               "long_name" : "Lisbon",
               "short_name" : "Lisbon",
               "types" : [ "administrative_area_level_2", "political" ]
            },
            {
               "long_name" : "Lisbon",
               "short_name" : "Lisbon",
               "types" : [ "locality", "political" ]
            },
            {
               "long_name" : "Lisbon",
               "short_name" : "Lisbon",
               "types" : [ "administrative_area_level_1", "political" ]
            },
            {
               "long_name" : "Portugal",
               "short_name" : "PT",
               "types" : [ "country", "political" ]
            }
         ],
         "formatted_address" : "Lisbon, Portugal",
         "geometry" : {
            "bounds" : {
               "northeast" : {
                  "lat" : 38.7958538,
                  "lng" : -9.090570899999999
               },
               "southwest" : {
                  "lat" : 38.6913994,
                  "lng" : -9.229835599999999
               }
            },
            "location" : {
               "lat" : 38.7222986,
               "lng" : -9.1393188
            },
            "location_type" : "APPROXIMATE",
            "viewport" : {
               "northeast" : {
                  "lat" : 38.7958538,
                  "lng" : -9.090570899999999
               },
               "southwest" : {
                  "lat" : 38.6913994,
                  "lng" : -9.229835599999999
               }
            }
         },
         "place_id" : "ChIJMabWPRAzGQ0RRFqNEqmj6AI",
         "types" : [ "administrative_area_level_2", "political" ]
      },
      {
         "address_components" : [
            {
               "long_name" : "Lisbon",
               "short_name" : "Lisbon",
               "types" : [ "locality", "political" ]
            },
            {
               "long_name" : "Lisbon",
               "short_name" : "Lisbon",
               "types" : [ "administrative_area_level_1", "political" ]
            },
            {
               "long_name" : "Portugal",
               "short_name" : "PT",
               "types" : [ "country", "political" ]
            }
         ],
         "formatted_address" : "Lisbon, Portugal",
         "geometry" : {
            "bounds" : {
               "northeast" : {
                  "lat" : 38.7958538,
                  "lng" : -9.090570899999999
               },
               "southwest" : {
                  "lat" : 38.6913994,
                  "lng" : -9.229835599999999
               }
            },
            "location" : {
               "lat" : 38.7222524,
               "lng" : -9.1393366
            },
            "location_type" : "APPROXIMATE",
            "viewport" : {
               "northeast" : {
                  "lat" : 38.7958538,
                  "lng" : -9.090570899999999
               },
               "southwest" : {
                  "lat" : 38.6913994,
                  "lng" : -9.229835599999999
               }
            }
         },
         "place_id" : "ChIJO_PkYRozGQ0R0DaQ5L3rAAQ",
         "types" : [ "locality", "political" ]
      },
      {
         "address_components" : [
            {
               "long_name" : "Lisbon",
               "short_name" : "Lisbon",
               "types" : [ "administrative_area_level_1", "political" ]
            },
            {
               "long_name" : "Portugal",
               "short_name" : "PT",
               "types" : [ "country", "political" ]
            }
         ],
         "formatted_address" : "Lisbon, Portugal",
         "geometry" : {
            "bounds" : {
               "northeast" : {
                  "lat" : 39.3177286,
                  "lng" : -8.781860999999999
               },
               "southwest" : {
                  "lat" : 38.6731469,
                  "lng" : -9.500526599999999
               }
            },
            "location" : {
               "lat" : 38.7223263,
               "lng" : -9.1392714
            },
            "location_type" : "APPROXIMATE",
            "viewport" : {
               "northeast" : {
                  "lat" : 39.3177286,
                  "lng" : -8.781860999999999
               },
               "southwest" : {
                  "lat" : 38.6731469,
                  "lng" : -9.500526599999999
               }
            }
         },
         "place_id" : "ChIJWxIr4ajVGA0RwCyQ5L3rAAM",
         "types" : [ "administrative_area_level_1", "political" ]
      },
      {
         "address_components" : [
            {
               "long_name" : "Portugal",
               "short_name" : "PT",
               "types" : [ "country", "political" ]
            }
         ],
         "formatted_address" : "Portugal",
         "geometry" : {
            "bounds" : {
               "northeast" : {
                  "lat" : 42.1543111,
                  "lng" : -6.189159200000001
               },
               "southwest" : {
                  "lat" : 32.2895,
                  "lng" : -31.4647999
               }
            },
            "location" : {
               "lat" : 39.39987199999999,
               "lng" : -8.224454
            },
            "location_type" : "APPROXIMATE",
            "viewport" : {
               "northeast" : {
                  "lat" : 42.1543111,
                  "lng" : -6.189159200000001
               },
               "southwest" : {
                  "lat" : 32.2895,
                  "lng" : -31.4647999
               }
            }
         },
         "place_id" : "ChIJ1SZCvy0kMgsRQfBOHAlLuCo",
         "types" : [ "country", "political" ]
      }
   ],
   "status" : "OK"
}
