{
   "plus_code" : {
      "compound_code" : "2P8C+8P London, ON, Canada",
      "global_code" : "86MW2P8C+8P"
   },
   "results" : [
      {
         "address_components" : [
            {
               "long_name" : "800 Collip Cir",
               "short_name" : "800 Collip Cir",
               "types" : [ "route" ]
            },
            {
               "long_name" : "Masonville",
               "short_name" : "Masonville",
               "types" : [ "neighborhood", "political" ]
            },
            {
               "long_name" : "London",
               "short_name" : "London",
               "types" : [ "locality", "political" ]
            },
            {
               "long_name" : "Middlesex County",
               "short_name" : "Middlesex County",
               "types" : [ "administrative_area_level_2", "political" ]
            },
            {
               "long_name" : "Ontario",
               "short_name" : "ON",
               "types" : [ "administrative_area_level_1", "political" ]
            },
            {
               "long_name" : "Canada",
               "short_name" : "CA",
               "types" : [ "country", "political" ]
            },
            {
               "long_name" : "N6G 4X8",
               "short_name" : "N6G 4X8",
               "types" : [ "postal_code" ]
            }
         ],
         "formatted_address" : "800 Collip Cir, London, ON N6G 4X8, Canada",
         "geometry" : {
            "location" : {
               "lat" : 43.0158659,
               "lng" : -81.2781966
            },
            "location_type" : "GEOMETRIC_CENTER",
            "viewport" : {
               "northeast" : {
                  "lat" : 43.0172148802915,
                  "lng" : -81.27684761970849
               },
               "southwest" : {
                  "lat" : 43.0145169197085,
                  "lng" : -81.27954558029151
               }
            }
         },
         "place_id" : "ChIJrTZvsjjuLogRoBtbUIErQyg",
         "types" : [ "establishment", "point_of_interest" ]
      },
      {
         "address_components" : [
            {
               "long_name" : "800",
               "short_name" : "800",
               "types" : [ "street_number" ]
            },
            {
               "long_name" : "Collip Circle",
               "short_name" : "Collip Cir",
               "types" : [ "route" ]
            },
            {
               "long_name" : "Masonville",
               "short_name" : "Masonville",
               "types" : [ "neighborhood", "political" ]
            },
            {
               "long_name" : "London",
               "short_name" : "London",
               "types" : [ "locality", "political" ]
            },
            {
               "long_name" : "Middlesex County",
               "short_name" : "Middlesex County",
               "types" : [ "administrative_area_level_2", "political" ]
            },
            {
               "long_name" : "Ontario",
               "short_name" : "ON",
               "types" : [ "administrative_area_level_1", "political" ]
            },
            {
               "long_name" : "Canada",
               "short_name" : "CA",
               "types" : [ "country", "political" ]
            },
            {
               "long_name" : "N6G 4M3",
               "short_name" : "N6G 4M3",
               "types" : [ "postal_code" ]
            }
         ],
         "formatted_address" : "800 Collip Cir, London, ON N6G 4M3, Canada",
         "geometry" : {
            "location" : {
               "lat" : 43.0159958,
               "lng" : -81.2779764
            },
            "location_type" : "ROOFTOP",
            "viewport" : {
               "northeast" : {
                  "lat" : 43.0173447802915,
                  "lng" : -81.27662741970849
               },
               "southwest" : {
                  "lat" : 43.0146468197085,
                  "lng" : -81.27932538029151
               }
            }
         },
         "place_id" : "ChIJrTZvsjjuLogRLjTb_6LhCrM",
         "types" : [ "street_address" ]
      },
      {
         "address_components" : [
            {
               "long_name" : "Stiller Centre",
               "short_name" : "Stiller Centre",
               "types" : [ "premise" ]
            },
            {
               "long_name" : "700",
               "short_name" : "700",
               "types" : [ "street_number" ]
            },
            {
               "long_name" : "Collip Circle",
               "short_name" : "Collip Cir",
               "types" : [ "route" ]
            },
            {
               "long_name" : "Masonville",
               "short_name" : "Masonville",
               "types" : [ "neighborhood", "political" ]
            },
            {
               "long_name" : "London",
               "short_name" : "London",
               "types" : [ "locality", "political" ]
            },
            {
               "long_name" : "Middlesex County",
               "short_name" : "Middlesex County",
               "types" : [ "administrative_area_level_2", "political" ]
            },
            {
               "long_name" : "Ontario",
               "short_name" : "ON",
               "types" : [ "administrative_area_level_1", "political" ]
            },
            {
               "long_name" : "Canada",
               "short_name" : "CA",
               "types" : [ "country", "political" ]
            },
            {
               "long_name" : "N6G 4C4",
               "short_name" : "N6G 4C4",
               "types" : [ "postal_code" ]
            }
         ],
         "formatted_address" : "Stiller Centre, 700 Collip Cir, London, ON N6G 4C4, Canada",
         "geometry" : {
            "bounds" : {
               "northeast" : {
                  "lat" : 43.0169384,
                  "lng" : -81.278249
               },
               "southwest" : {
                  "lat" : 43.0165504,
                  "lng" : -81.27906399999999
               }
            },
            "location" : {
               "lat" : 43.01666489999999,
               "lng" : -81.2788102
            },
            "location_type" : "ROOFTOP",
            "viewport" : {
               "northeast" : {
                  "lat" : 43.0180933802915,
                  "lng" : -81.2773075197085
               },
               "southwest" : {
                  "lat" : 43.0153954197085,
                  "lng" : -81.28000548029151
               }
            }
         },
         "place_id" : "ChIJZVSepUDuLogRN0oa03iWzFc",
         "types" : [ "premise" ]
      },
      {
         "address_components" : [
            {
               "long_name" : "1514",
               "short_name" : "1514",
               "types" : [ "street_number" ]
            },
            {
               "long_name" : "Western Road",
               "short_name" : "Western Rd",
               "types" : [ "route" ]
            },
            {
               "long_name" : "London",
               "short_name" : "London",
               "types" : [ "locality", "political" ]
            },
            {
               "long_name" : "Ontario",
               "short_name" : "ON",
               "types" : [ "administrative_area_level_1", "political" ]
            },
            {
               "long_name" : "Canada",
               "short_name" : "CA",
               "types" : [ "country", "political" ]
            },
            {
               "long_name" : "N6G 1H4",
               "short_name" : "N6G 1H4",
               "types" : [ "postal_code" ]
            }
         ],
         "formatted_address" : "1514 Western Rd, London, ON N6G 1H4, Canada",
         "geometry" : {
            "location" : {
               "lat" : 43.0164897,
               "lng" : -81.27733119999999
            },
            "location_type" : "RANGE_INTERPOLATED",
            "viewport" : {
               "northeast" : {
                  "lat" : 43.0178386802915,
                  "lng" : -81.2759822197085
               },
               "southwest" : {
                  "lat" : 43.0151407197085,
                  "lng" : -81.2786801802915
               }
            }
         },
         "place_id" : "EisxNTE0IFdlc3Rlcm4gUmQsIExvbmRvbiwgT04gTjZHIDFINCwgQ2FuYWRhIhsSGQoUChIJwyTrmkDuLogRrsc95A25w5AQ6gs",
         "types" : [ "street_address" ]
      },
      {
         "address_components" : [
            {
               "long_name" : "N6G 4C4",
               "short_name" : "N6G 4C4",
               "types" : [ "postal_code" ]
            },
            {
               "long_name" : "Masonville",
               "short_name" : "Masonville",
               "types" : [ "neighborhood", "political" ]
            },
            {
               "long_name" : "London",
               "short_name" : "London",
               "types" : [ "locality", "political" ]
            },
            {
               "long_name" : "Middlesex County",
               "short_name" : "Middlesex County",
               "types" : [ "administrative_area_level_2", "political" ]
            },
            {
               "long_name" : "Ontario",
               "short_name" : "ON",
               "types" : [ "administrative_area_level_1", "political" ]
            },
            {
               "long_name" : "Canada",
               "short_name" : "CA",
               "types" : [ "country", "political" ]
            }
         ],
         "formatted_address" : "London, ON N6G 4C4, Canada",
         "geometry" : {
            "bounds" : {
               "northeast" : {
                  "lat" : 43.018298,
                  "lng" : -81.2766829
               },
               "southwest" : {
                  "lat" : 43.0147193,
                  "lng" : -81.2801836
               }
            },
            "location" : {
               "lat" : 43.0165566,
               "lng" : -81.27838009999999
            },
            "location_type" : "APPROXIMATE",
            "viewport" : {
               "northeast" : {
                  "lat" : 43.018298,
                  "lng" : -81.2766829
               },
               "southwest" : {
                  "lat" : 43.0147193,
                  "lng" : -81.2801836
               }
            }
         },
         "place_id" : "ChIJ-xH6rkDuLogRtZhfJKneSvM",
         "types" : [ "postal_code" ]
      },
      {
         "address_components" : [
            {
               "long_name" : "Masonville",
               "short_name" : "Masonville",
               "types" : [ "neighborhood", "political" ]
            },
            {
               "long_name" : "London",
               "short_name" : "London",
               "types" : [ "locality", "political" ]
            },
            {
               "long_name" : "Middlesex County",
               "short_name" : "Middlesex County",
               "types" : [ "administrative_area_level_2", "political" ]
            },
            {
               "long_name" : "Ontario",
               "short_name" : "ON",
               "types" : [ "administrative_area_level_1", "political" ]
            },
            {
               "long_name" : "Canada",
               "short_name" : "CA",
               "types" : [ "country", "political" ]
            }
         ],
         "formatted_address" : "Masonville, London, ON, Canada",
         "geometry" : {
            "bounds" : {
               "northeast" : {
                  "lat" : 43.029225,
                  "lng" : -81.252157
               },
               "southwest" : {
                  "lat" : 43.0052059,
                  "lng" : -81.30624019999999
               }
            },
            "location" : {
               "lat" : 43.0189562,
               "lng" : -81.2821647
            },
            "location_type" : "APPROXIMATE",
            "viewport" : {
               "northeast" : {
                  "lat" : 43.029225,
                  "lng" : -81.252157
               },
               "southwest" : {
                  "lat" : 43.0052059,
                  "lng" : -81.30624019999999
               }
            }
         },
         "place_id" : "ChIJh9mHs0DuLogRJPVZpm0ByEU",
         "types" : [ "neighborhood", "political" ]
      },
      {
         "address_components" : [
            {
               "long_name" : "N6G",
               "short_name" : "N6G",
               "types" : [ "postal_code", "postal_code_prefix" ]
            },
            {
               "long_name" : "London",
               "short_name" : "London",
               "types" : [ "locality", "political" ]
            },
            {
               "long_name" : "Middlesex County",
               "short_name" : "Middlesex County",
               "types" : [ "administrative_area_level_2", "political" ]
            },
            {
               "long_name" : "Ontario",
               "short_name" : "ON",
               "types" : [ "administrative_area_level_1", "political" ]
            },
            {
               "long_name" : "Canada",
               "short_name" : "CA",
               "types" : [ "country", "political" ]
            }
         ],
         "formatted_address" : "London, ON N6G, Canada",
         "geometry" : {
            "bounds" : {
               "northeast" : {
                  "lat" : 43.047733,
                  "lng" : -81.260516
               },
               "southwest" : {
                  "lat" : 42.991705,
                  "lng" : -81.34788399999999
               }
            },
            "location" : {
               "lat" : 43.0140325,
               "lng" : -81.31243409999999
            },
            "location_type" : "APPROXIMATE",
            "viewport" : {
               "northeast" : {
                  "lat" : 43.047733,
                  "lng" : -81.260516
               },
               "southwest" : {
                  "lat" : 42.991705,
                  "lng" : -81.34788399999999
               }
            }
         },
         "place_id" : "ChIJVeOrtLfvLogRJUO-gB-gKRg",
         "types" : [ "postal_code", "postal_code_prefix" ]
      },
      {
         "address_components" : [
            {
               "long_name" : "London",
               "short_name" : "London",
               "types" : [ "locality", "political" ]
            },
            {
               "long_name" : "Middlesex County",
               "short_name" : "Middlesex County",
               "types" : [ "administrative_area_level_2", "political" ]
            },
            {
               "long_name" : "Ontario",
               "short_name" : "ON",
               "types" : [ "administrative_area_level_1", "political" ]
            },
            {
               "long_name" : "Canada",
               "short_name" : "CA",
               "types" : [ "country", "political" ]
            }
         ],
         "formatted_address" : "London, ON, Canada",
         "geometry" : {
            "bounds" : {
               "northeast" : {
                  "lat" : 43.073245,
                  "lng" : -81.1063879
               },
               "southwest" : {
                  "lat" : 42.824517,
                  "lng" : -81.390852
               }
            },
            "location" : {
               "lat" : 42.9849233,
               "lng" : -81.2452768
            },
            "location_type" : "APPROXIMATE",
            "viewport" : {
               "northeast" : {
                  "lat" : 43.073245,
                  "lng" : -81.1063879
               },
               "southwest" : {
                  "lat" : 42.824517,
                  "lng" : -81.390852
               }
            }
         },
         "place_id" : "ChIJC5uNqA7yLogRlWsFmmnXxyg",
         "types" : [ "locality", "political" ]
      },
      {
         "address_components" : [
            {
               "long_name" : "Middlesex County",
               "short_name" : "Middlesex County",
               "types" : [ "administrative_area_level_2", "political" ]
            },
            {
               "long_name" : "Ontario",
               "short_name" : "ON",
               "types" : [ "administrative_area_level_1", "political" ]
            },
            {
               "long_name" : "Canada",
               "short_name" : "CA",
               "types" : [ "country", "political" ]
            }
         ],
         "formatted_address" : "Middlesex County, ON, Canada",
         "geometry" : {
            "bounds" : {
               "northeast" : {
                  "lat" : 43.292973,
                  "lng" : -80.8987659
               },
               "southwest" : {
                  "lat" : 42.607479,
                  "lng" : -81.83562289999999
               }
            },
            "location" : {
               "lat" : 42.9310419,
               "lng" : -81.42789839999999
            },
            "location_type" : "APPROXIMATE",
            "viewport" : {
               "northeast" : {
                  "lat" : 43.292973,
                  "lng" : -80.8987659
               },
               "southwest" : {
                  "lat" : 42.607479,
                  "lng" : -81.83562289999999
               }
            }
         },
         "place_id" : "ChIJv8s7RyYdLIgRQTOl7qAHfRw",
         "types" : [ "administrative_area_level_2", "political" ]
      },
      {
         "address_components" : [
            {
               "long_name" : "Ontario",
               "short_name" : "Ontario",
               "types" : [ "administrative_area_level_1", "political" ]
            },
            {
               "long_name" : "Canada",
               "short_name" : "CA",
               "types" : [ "country", "political" ]
            }
         ],
         "formatted_address" : "Ontario, Canada",
         "geometry" : {
            "bounds" : {
               "northeast" : {
                  "lat" : 56.931393,
                  "lng" : -74.3206479
               },
               "southwest" : {
                  "lat" : 41.6765559,
                  "lng" : -95.1562271
               }
            },
            "location" : {
               "lat" : 51.253775,
               "lng" : -85.32321399999999
            },
            "location_type" : "APPROXIMATE",
            "viewport" : {
               "northeast" : {
                  "lat" : 56.931393,
                  "lng" : -74.3206479
               },
               "southwest" : {
                  "lat" : 41.6765559,
                  "lng" : -95.1562271
               }
            }
         },
         "place_id" : "ChIJrxNRX7IFzkwRCR5iKVZC-HA",
         "types" : [ "administrative_area_level_1", "political" ]
      },
      {
         "address_components" : [
            {
               "long_name" : "Canada",
               "short_name" : "CA",
               "types" : [ "country", "political" ]
            }
         ],
         "formatted_address" : "Canada",
         "geometry" : {
            "bounds" : {
               "northeast" : {
                  "lat" : 83.63809999999999,
                  "lng" : -50.9766
               },
               "southwest" : {
                  "lat" : 41.6765559,
                  "lng" : -141.00187
               }
            },
            "location" : {
               "lat" : 56.130366,
               "lng" : -106.346771
            },
            "location_type" : "APPROXIMATE",
            "viewport" : {
               "northeast" : {
                  "lat" : 83.63809999999999,
                  "lng" : -50.9766
               },
               "southwest" : {
                  "lat" : 41.6765559,
                  "lng" : -141.00187
               }
            }
         },
         "place_id" : "ChIJ2WrMN9MDDUsRpY9Doiq3aJk",
         "types" : [ "country", "political" ]
      }
   ],
   "status" : "OK"
}
