{
   "plus_code" : {
      "compound_code" : "MVJ4+R9 Jimma, Ethiopia",
      "global_code" : "6GVRMVJ4+R9"
   },
   "results" : [
      {
         "address_components" : [
            {
               "long_name" : "Unnamed Road",
               "short_name" : "Unnamed Road",
               "types" : [ "route" ]
            },
            {
               "long_name" : "Jima",
               "short_name" : "Jima",
               "types" : [ "locality", "political" ]
            },
            {
               "long_name" : "Jimma",
               "short_name" : "Jimma",
               "types" : [ "administrative_area_level_2", "political" ]
            },
            {
               "long_name" : "Oromia",
               "short_name" : "Oromia",
               "types" : [ "administrative_area_level_1", "political" ]
            },
            {
               "long_name" : "Ethiopia",
               "short_name" : "ET",
               "types" : [ "country", "political" ]
            }
         ],
         "formatted_address" : "Unnamed Road, Jima, Ethiopia",
         "geometry" : {
            "bounds" : {
               "northeast" : {
                  "lat" : 7.683342999999999,
                  "lng" : 36.8567697
               },
               "southwest" : {
                  "lat" : 7.6813815,
                  "lng" : 36.8553353
               }
            },
            "location" : {
               "lat" : 7.682362199999999,
               "lng" : 36.8560525
            },
            "location_type" : "GEOMETRIC_CENTER",
            "viewport" : {
               "northeast" : {
                  "lat" : 7.6837112302915,
                  "lng" : 36.8574014802915
               },
               "southwest" : {
                  "lat" : 7.681013269708497,
                  "lng" : 36.8547035197085
               }
            }
         },
         "place_id" : "ChIJ1Wprx8e4rRcRcDD5WPAyL98",
         "types" : [ "route" ]
      },
      {
         "address_components" : [
            {
               "long_name" : "Jimma",
               "short_name" : "Jimma",
               "types" : [ "locality", "political" ]
            },
            {
               "long_name" : "Jimma",
               "short_name" : "Jimma",
               "types" : [ "administrative_area_level_2", "political" ]
            },
            {
               "long_name" : "Oromia",
               "short_name" : "Oromia",
               "types" : [ "administrative_area_level_1", "political" ]
            },
            {
               "long_name" : "Ethiopia",
               "short_name" : "ET",
               "types" : [ "country", "political" ]
            }
         ],
         "formatted_address" : "Jimma, Ethiopia",
         "geometry" : {
            "bounds" : {
               "northeast" : {
                  "lat" : 7.7007851,
                  "lng" : 36.8705463
               },
               "southwest" : {
                  "lat" : 7.6492375,
                  "lng" : 36.8054008
               }
            },
            "location" : {
               "lat" : 7.673890800000001,
               "lng" : 36.8357927
            },
            "location_type" : "APPROXIMATE",
            "viewport" : {
               "northeast" : {
                  "lat" : 7.7007851,
                  "lng" : 36.8705463
               },
               "southwest" : {
                  "lat" : 7.6492375,
                  "lng" : 36.8054008
               }
            }
         },
         "place_id" : "ChIJI6fm9oK4rRcR2I8gkLuDWvQ",
         "types" : [ "locality", "political" ]
      },
      {
         "address_components" : [
            {
               "long_name" : "Jimma",
               "short_name" : "Jimma",
               "types" : [ "administrative_area_level_2", "political" ]
            },
            {
               "long_name" : "Oromia",
               "short_name" : "Oromia",
               "types" : [ "administrative_area_level_1", "political" ]
            },
            {
               "long_name" : "Ethiopia",
               "short_name" : "ET",
               "types" : [ "country", "political" ]
            }
         ],
         "formatted_address" : "Jimma, Ethiopia",
         "geometry" : {
            "bounds" : {
               "northeast" : {
                  "lat" : 8.904914399999999,
                  "lng" : 37.57839209999999
               },
               "southwest" : {
                  "lat" : 7.2470251,
                  "lng" : 35.8108806
               }
            },
            "location" : {
               "lat" : 7.814373499999999,
               "lng" : 36.7819505
            },
            "location_type" : "APPROXIMATE",
            "viewport" : {
               "northeast" : {
                  "lat" : 8.904914399999999,
                  "lng" : 37.57839209999999
               },
               "southwest" : {
                  "lat" : 7.2470251,
                  "lng" : 35.8108806
               }
            }
         },
         "place_id" : "ChIJu-O_QQGqrRcRzcFF2vvMk3A",
         "types" : [ "administrative_area_level_2", "political" ]
      },
      {
         "address_components" : [
            {
               "long_name" : "Oromia",
               "short_name" : "Oromia",
               "types" : [ "administrative_area_level_1", "political" ]
            },
            {
               "long_name" : "Ethiopia",
               "short_name" : "ET",
               "types" : [ "country", "political" ]
            }
         ],
         "formatted_address" : "Oromia, Ethiopia",
         "geometry" : {
            "bounds" : {
               "northeast" : {
                  "lat" : 10.3866009,
                  "lng" : 42.933914
               },
               "southwest" : {
                  "lat" : 3.402422,
                  "lng" : 34.13031
               }
            },
            "location" : {
               "lat" : 7.546037699999999,
               "lng" : 40.6346851
            },
            "location_type" : "APPROXIMATE",
            "viewport" : {
               "northeast" : {
                  "lat" : 10.3866009,
                  "lng" : 42.933914
               },
               "southwest" : {
                  "lat" : 3.402422,
                  "lng" : 34.13031
               }
            }
         },
         "place_id" : "ChIJAWBCajDyxhcRWSCyY9XOGMA",
         "types" : [ "administrative_area_level_1", "political" ]
      },
      {
         "address_components" : [
            {
               "long_name" : "Ethiopia",
               "short_name" : "ET",
               "types" : [ "country", "political" ]
            }
         ],
         "formatted_address" : "Ethiopia",
         "geometry" : {
            "bounds" : {
               "northeast" : {
                  "lat" : 14.8942141,
                  "lng" : 48.0010561
               },
               "southwest" : {
                  "lat" : 3.4041369,
                  "lng" : 32.997734
               }
            },
            "location" : {
               "lat" : 9.145000000000001,
               "lng" : 40.489673
            },
            "location_type" : "APPROXIMATE",
            "viewport" : {
               "northeast" : {
                  "lat" : 14.8942141,
                  "lng" : 48.0010561
               },
               "southwest" : {
                  "lat" : 3.4041369,
                  "lng" : 32.997734
               }
            }
         },
         "place_id" : "ChIJK_1s3c7QNRYRWsVIU3-m9ns",
         "types" : [ "country", "political" ]
      }
   ],
   "status" : "OK"
}
