{
   "plus_code" : {
      "compound_code" : "3QRV+2V Karaikudi, Tamil Nadu, India",
      "global_code" : "7J2W3QRV+2V"
   },
   "results" : [
      {
         "address_components" : [
            {
               "long_name" : "Karaikudi",
               "short_name" : "Karaikudi",
               "types" : [ "locality", "political" ]
            },
            {
               "long_name" : "Tamil Nadu",
               "short_name" : "TN",
               "types" : [ "administrative_area_level_1", "political" ]
            },
            {
               "long_name" : "India",
               "short_name" : "IN",
               "types" : [ "country", "political" ]
            },
            {
               "long_name" : "630004",
               "short_name" : "630004",
               "types" : [ "postal_code" ]
            }
         ],
         "formatted_address" : "Near Kendriya Vidhyalaya, College Road, Karaikudi, Tamil Nadu 630004, India",
         "geometry" : {
            "location" : {
               "lat" : 10.090038,
               "lng" : 78.79471199999999
            },
            "location_type" : "GEOMETRIC_CENTER",
            "viewport" : {
               "northeast" : {
                  "lat" : 10.0913869802915,
                  "lng" : 78.7960609802915
               },
               "southwest" : {
                  "lat" : 10.0886890197085,
                  "lng" : 78.79336301970848
               }
            }
         },
         "place_id" : "ChIJ-aj4KKBnADsRJvvwbUxIwgk",
         "types" : [ "establishment", "point_of_interest", "university" ]
      },
      {
         "address_components" : [
            {
               "long_name" : "College Road",
               "short_name" : "MDR148",
               "types" : [ "route" ]
            },
            {
               "long_name" : "Karaikudi",
               "short_name" : "Karaikudi",
               "types" : [ "locality", "political" ]
            },
            {
               "long_name" : "Sivaganga",
               "short_name" : "Sivaganga",
               "types" : [ "administrative_area_level_2", "political" ]
            },
            {
               "long_name" : "Tamil Nadu",
               "short_name" : "TN",
               "types" : [ "administrative_area_level_1", "political" ]
            },
            {
               "long_name" : "India",
               "short_name" : "IN",
               "types" : [ "country", "political" ]
            },
            {
               "long_name" : "630004",
               "short_name" : "630004",
               "types" : [ "postal_code" ]
            }
         ],
         "formatted_address" : "MDR148, Karaikudi, Tamil Nadu 630004, India",
         "geometry" : {
            "bounds" : {
               "northeast" : {
                  "lat" : 10.0914149,
                  "lng" : 78.7940127
               },
               "southwest" : {
                  "lat" : 10.0893832,
                  "lng" : 78.7939827
               }
            },
            "location" : {
               "lat" : 10.0903991,
               "lng" : 78.79399769999999
            },
            "location_type" : "GEOMETRIC_CENTER",
            "viewport" : {
               "northeast" : {
                  "lat" : 10.0917480302915,
                  "lng" : 78.7953466802915
               },
               "southwest" : {
                  "lat" : 10.0890500697085,
                  "lng" : 78.7926487197085
               }
            }
         },
         "place_id" : "ChIJ0QgT9p9nADsRUhK4lTOy_Jg",
         "types" : [ "route" ]
      },
      {
         "address_components" : [
            {
               "long_name" : "630004",
               "short_name" : "630004",
               "types" : [ "postal_code" ]
            },
            {
               "long_name" : "Sivaganga",
               "short_name" : "Sivaganga",
               "types" : [ "administrative_area_level_2", "political" ]
            },
            {
               "long_name" : "Tamil Nadu",
               "short_name" : "TN",
               "types" : [ "administrative_area_level_1", "political" ]
            },
            {
               "long_name" : "India",
               "short_name" : "IN",
               "types" : [ "country", "political" ]
            }
         ],
         "formatted_address" : "Tamil Nadu 630004, India",
         "geometry" : {
            "bounds" : {
               "northeast" : {
                  "lat" : 10.0968768,
                  "lng" : 78.80619009999999
               },
               "southwest" : {
                  "lat" : 10.072179,
                  "lng" : 78.7867538
               }
            },
            "location" : {
               "lat" : 10.0767664,
               "lng" : 78.7957856
            },
            "location_type" : "APPROXIMATE",
            "viewport" : {
               "northeast" : {
                  "lat" : 10.0968768,
                  "lng" : 78.80619009999999
               },
               "southwest" : {
                  "lat" : 10.072179,
                  "lng" : 78.7867538
               }
            }
         },
         "place_id" : "ChIJW9aDL5xnADsRD8ImBncfwkI",
         "types" : [ "postal_code" ]
      },
      {
         "address_components" : [
            {
               "long_name" : "Karaikudi",
               "short_name" : "Karaikudi",
               "types" : [ "locality", "political" ]
            },
            {
               "long_name" : "Sivaganga",
               "short_name" : "Sivaganga",
               "types" : [ "administrative_area_level_2", "political" ]
            },
            {
               "long_name" : "Tamil Nadu",
               "short_name" : "TN",
               "types" : [ "administrative_area_level_1", "political" ]
            },
            {
               "long_name" : "India",
               "short_name" : "IN",
               "types" : [ "country", "political" ]
            }
         ],
         "formatted_address" : "Karaikudi, Tamil Nadu, India",
         "geometry" : {
            "bounds" : {
               "northeast" : {
                  "lat" : 10.0923747,
                  "lng" : 78.8062406
               },
               "southwest" : {
                  "lat" : 10.0496559,
                  "lng" : 78.76023529999999
               }
            },
            "location" : {
               "lat" : 10.0731315,
               "lng" : 78.7801544
            },
            "location_type" : "APPROXIMATE",
            "viewport" : {
               "northeast" : {
                  "lat" : 10.0923747,
                  "lng" : 78.8062406
               },
               "southwest" : {
                  "lat" : 10.0496559,
                  "lng" : 78.76023529999999
               }
            }
         },
         "place_id" : "ChIJO0_eCItdADsR-IRFuAr8JB8",
         "types" : [ "locality", "political" ]
      },
      {
         "address_components" : [
            {
               "long_name" : "Sivaganga",
               "short_name" : "Sivaganga",
               "types" : [ "administrative_area_level_2", "political" ]
            },
            {
               "long_name" : "Tamil Nadu",
               "short_name" : "TN",
               "types" : [ "administrative_area_level_1", "political" ]
            },
            {
               "long_name" : "India",
               "short_name" : "IN",
               "types" : [ "country", "political" ]
            }
         ],
         "formatted_address" : "Sivaganga, Tamil Nadu, India",
         "geometry" : {
            "bounds" : {
               "northeast" : {
                  "lat" : 10.407162,
                  "lng" : 79.000168
               },
               "southwest" : {
                  "lat" : 9.522736999999999,
                  "lng" : 78.12653399999999
               }
            },
            "location" : {
               "lat" : 9.972576999999999,
               "lng" : 78.5660852
            },
            "location_type" : "APPROXIMATE",
            "viewport" : {
               "northeast" : {
                  "lat" : 10.407162,
                  "lng" : 79.000168
               },
               "southwest" : {
                  "lat" : 9.522736999999999,
                  "lng" : 78.12653399999999
               }
            }
         },
         "place_id" : "ChIJuc2IQNH6ADsRiJf5HpkSMCY",
         "types" : [ "administrative_area_level_2", "political" ]
      },
      {
         "address_components" : [
            {
               "long_name" : "Tamil Nadu",
               "short_name" : "Tamil Nadu",
               "types" : [ "administrative_area_level_1", "political" ]
            },
            {
               "long_name" : "India",
               "short_name" : "IN",
               "types" : [ "country", "political" ]
            }
         ],
         "formatted_address" : "Tamil Nadu, India",
         "geometry" : {
            "bounds" : {
               "northeast" : {
                  "lat" : 13.496666,
                  "lng" : 80.3464511
               },
               "southwest" : {
                  "lat" : 8.0690069,
                  "lng" : 76.23055409999999
               }
            },
            "location" : {
               "lat" : 11.1271225,
               "lng" : 78.6568942
            },
            "location_type" : "APPROXIMATE",
            "viewport" : {
               "northeast" : {
                  "lat" : 13.496666,
                  "lng" : 80.3464511
               },
               "southwest" : {
                  "lat" : 8.0690069,
                  "lng" : 76.23055409999999
               }
            }
         },
         "place_id" : "ChIJM5YYsYLFADsR8GEzRsx1lFU",
         "types" : [ "administrative_area_level_1", "political" ]
      },
      {
         "address_components" : [
            {
               "long_name" : "India",
               "short_name" : "IN",
               "types" : [ "country", "political" ]
            }
         ],
         "formatted_address" : "India",
         "geometry" : {
            "bounds" : {
               "northeast" : {
                  "lat" : 35.513327,
                  "lng" : 97.39535869999999
               },
               "southwest" : {
                  "lat" : 6.4626999,
                  "lng" : 68.1097
               }
            },
            "location" : {
               "lat" : 20.593684,
               "lng" : 78.96288
            },
            "location_type" : "APPROXIMATE",
            "viewport" : {
               "northeast" : {
                  "lat" : 35.513327,
                  "lng" : 97.39535869999999
               },
               "southwest" : {
                  "lat" : 6.4626999,
                  "lng" : 68.1097
               }
            }
         },
         "place_id" : "ChIJkbeSa_BfYzARphNChaFPjNc",
         "types" : [ "country", "political" ]
      }
   ],
   "status" : "OK"
}
