{
   "plus_code" : {
      "compound_code" : "2G9X+V6 Yuhua, Shijiazhuang, Hebei, China",
      "global_code" : "8PCP2G9X+V6"
   },
   "results" : [
      {
         "address_components" : [
            {
               "long_name" : "Unnamed Road",
               "short_name" : "Unnamed Road",
               "types" : [ "route" ]
            },
            {
               "long_name" : "Yuhua Qu",
               "short_name" : "Yuhua Qu",
               "types" : [ "political", "sublocality", "sublocality_level_1" ]
            },
            {
               "long_name" : "Shijiazhuang Shi",
               "short_name" : "Shijiazhuang Shi",
               "types" : [ "locality", "political" ]
            },
            {
               "long_name" : "Hebei Sheng",
               "short_name" : "Hebei Sheng",
               "types" : [ "administrative_area_level_1", "political" ]
            },
            {
               "long_name" : "China",
               "short_name" : "CN",
               "types" : [ "country", "political" ]
            },
            {
               "long_name" : "050000",
               "short_name" : "050000",
               "types" : [ "postal_code" ]
            }
         ],
         "formatted_address" : "Unnamed Road, Yuhua Qu, Shijiazhuang Shi, Hebei Sheng, China, 050000",
         "geometry" : {
            "bounds" : {
               "northeast" : {
                  "lat" : 38.0199298,
                  "lng" : 114.5487881
               },
               "southwest" : {
                  "lat" : 38.0199169,
                  "lng" : 114.5479809
               }
            },
            "location" : {
               "lat" : 38.0199234,
               "lng" : 114.5483845
            },
            "location_type" : "GEOMETRIC_CENTER",
            "viewport" : {
               "northeast" : {
                  "lat" : 38.0212723302915,
                  "lng" : 114.5497334802915
               },
               "southwest" : {
                  "lat" : 38.0185743697085,
                  "lng" : 114.5470355197085
               }
            }
         },
         "place_id" : "ChIJvVkAqvTg5jUR8P96yAIlGps",
         "types" : [ "route" ]
      },
      {
         "address_components" : [
            {
               "long_name" : "050031",
               "short_name" : "050031",
               "types" : [ "postal_code" ]
            },
            {
               "long_name" : "Chang'an",
               "short_name" : "Chang'an",
               "types" : [ "political", "sublocality", "sublocality_level_1" ]
            },
            {
               "long_name" : "Shijiazhuang",
               "short_name" : "Shijiazhuang",
               "types" : [ "locality", "political" ]
            },
            {
               "long_name" : "Hebei",
               "short_name" : "Hebei",
               "types" : [ "administrative_area_level_1", "political" ]
            },
            {
               "long_name" : "China",
               "short_name" : "CN",
               "types" : [ "country", "political" ]
            }
         ],
         "formatted_address" : "Chang'an, Shijiazhuang, Hebei, China, 050031",
         "geometry" : {
            "bounds" : {
               "northeast" : {
                  "lat" : 38.0601348,
                  "lng" : 114.583658
               },
               "southwest" : {
                  "lat" : 38.0097757,
                  "lng" : 114.5242641
               }
            },
            "location" : {
               "lat" : 38.0442486,
               "lng" : 114.5553122
            },
            "location_type" : "APPROXIMATE",
            "viewport" : {
               "northeast" : {
                  "lat" : 38.0601348,
                  "lng" : 114.583658
               },
               "southwest" : {
                  "lat" : 38.0097757,
                  "lng" : 114.5242641
               }
            }
         },
         "place_id" : "ChIJS7mIQc_g5jURZ1T9Tpyw8CI",
         "types" : [ "postal_code" ]
      },
      {
         "address_components" : [
            {
               "long_name" : "Yuhua",
               "short_name" : "Yuhua",
               "types" : [ "political", "sublocality", "sublocality_level_1" ]
            },
            {
               "long_name" : "Shijiazhuang",
               "short_name" : "Shijiazhuang",
               "types" : [ "locality", "political" ]
            },
            {
               "long_name" : "Hebei",
               "short_name" : "Hebei",
               "types" : [ "administrative_area_level_1", "political" ]
            },
            {
               "long_name" : "China",
               "short_name" : "CN",
               "types" : [ "country", "political" ]
            }
         ],
         "formatted_address" : "Yuhua, Shijiazhuang, Hebei, China",
         "geometry" : {
            "bounds" : {
               "northeast" : {
                  "lat" : 38.0588872,
                  "lng" : 114.6826923
               },
               "southwest" : {
                  "lat" : 37.9678991,
                  "lng" : 114.4900836
               }
            },
            "location" : {
               "lat" : 38.006452,
               "lng" : 114.531362
            },
            "location_type" : "APPROXIMATE",
            "viewport" : {
               "northeast" : {
                  "lat" : 38.0588872,
                  "lng" : 114.6826923
               },
               "southwest" : {
                  "lat" : 37.9678991,
                  "lng" : 114.4900836
               }
            }
         },
         "place_id" : "ChIJk2ETGgbh5jUR8H89mbpHbno",
         "types" : [ "political", "sublocality", "sublocality_level_1" ]
      },
      {
         "address_components" : [
            {
               "long_name" : "Shijiazhuang",
               "short_name" : "Shijiazhuang",
               "types" : [ "locality", "political" ]
            },
            {
               "long_name" : "Hebei",
               "short_name" : "Hebei",
               "types" : [ "administrative_area_level_1", "political" ]
            },
            {
               "long_name" : "China",
               "short_name" : "CN",
               "types" : [ "country", "political" ]
            }
         ],
         "formatted_address" : "Shijiazhuang, Hebei, China",
         "geometry" : {
            "bounds" : {
               "northeast" : {
                  "lat" : 38.7632982,
                  "lng" : 115.4836116
               },
               "southwest" : {
                  "lat" : 37.4348722,
                  "lng" : 113.5254376
               }
            },
            "location" : {
               "lat" : 38.042805,
               "lng" : 114.514893
            },
            "location_type" : "APPROXIMATE",
            "viewport" : {
               "northeast" : {
                  "lat" : 38.7632982,
                  "lng" : 115.4836116
               },
               "southwest" : {
                  "lat" : 37.4348722,
                  "lng" : 113.5254376
               }
            }
         },
         "place_id" : "ChIJPQ5ioJjd5jURUA2kznO_WBw",
         "types" : [ "locality", "political" ]
      },
      {
         "address_components" : [
            {
               "long_name" : "Hebei",
               "short_name" : "Hebei",
               "types" : [ "administrative_area_level_1", "political" ]
            },
            {
               "long_name" : "China",
               "short_name" : "CN",
               "types" : [ "country", "political" ]
            }
         ],
         "formatted_address" : "Hebei, China",
         "geometry" : {
            "bounds" : {
               "northeast" : {
                  "lat" : 42.6197176,
                  "lng" : 119.872577
               },
               "southwest" : {
                  "lat" : 36.0482063,
                  "lng" : 113.4653687
               }
            },
            "location" : {
               "lat" : 37.8956594,
               "lng" : 114.9042208
            },
            "location_type" : "APPROXIMATE",
            "viewport" : {
               "northeast" : {
                  "lat" : 42.6197176,
                  "lng" : 119.872577
               },
               "southwest" : {
                  "lat" : 36.0482063,
                  "lng" : 113.4653687
               }
            }
         },
         "place_id" : "ChIJ1YZMyjCpjDURIfse5yIKRWA",
         "types" : [ "administrative_area_level_1", "political" ]
      },
      {
         "address_components" : [
            {
               "long_name" : "China",
               "short_name" : "CN",
               "types" : [ "country", "political" ]
            }
         ],
         "formatted_address" : "China",
         "geometry" : {
            "bounds" : {
               "northeast" : {
                  "lat" : 53.5609739,
                  "lng" : 134.7754563
               },
               "southwest" : {
                  "lat" : 17.9996,
                  "lng" : 73.4994136
               }
            },
            "location" : {
               "lat" : 35.86166,
               "lng" : 104.195397
            },
            "location_type" : "APPROXIMATE",
            "viewport" : {
               "northeast" : {
                  "lat" : 53.5609739,
                  "lng" : 134.7754563
               },
               "southwest" : {
                  "lat" : 17.9996,
                  "lng" : 73.4994136
               }
            }
         },
         "place_id" : "ChIJwULG5WSOUDERbzafNHyqHZU",
         "types" : [ "country", "political" ]
      }
   ],
   "status" : "OK"
}
