{
   "results" : [
      {
         "address_components" : [
            {
               "long_name" : "Panepistimiou",
               "short_name" : "Panepistimiou",
               "types" : [ "route" ]
            },
            {
               "long_name" : "Aglantzia",
               "short_name" : "Aglantzia",
               "types" : [ "locality", "political" ]
            },
            {
               "long_name" : "Nicosia",
               "short_name" : "Nicosia",
               "types" : [ "administrative_area_level_1", "political" ]
            },
            {
               "long_name" : "Cyprus",
               "short_name" : "CY",
               "types" : [ "country", "political" ]
            }
         ],
         "formatted_address" : "Panepistimiou, Aglantzia, Cyprus",
         "geometry" : {
            "bounds" : {
               "northeast" : {
                  "lat" : 35.1486087,
                  "lng" : 33.4106147
               },
               "southwest" : {
                  "lat" : 35.1473125,
                  "lng" : 33.4095553
               }
            },
            "location" : {
               "lat" : 35.14793969999999,
               "lng" : 33.4101223
            },
            "location_type" : "GEOMETRIC_CENTER",
            "viewport" : {
               "northeast" : {
                  "lat" : 35.1493095802915,
                  "lng" : 33.4114339802915
               },
               "southwest" : {
                  "lat" : 35.1466116197085,
                  "lng" : 33.4087360197085
               }
            }
         },
         "place_id" : "ChIJL0dq-YkX3hQRjydDFLoQOhc",
         "types" : [ "route" ]
      },
      {
         "address_components" : [
            {
               "long_name" : "Aglantzia",
               "short_name" : "Aglantzia",
               "types" : [ "locality", "political" ]
            },
            {
               "long_name" : "Nicosia",
               "short_name" : "Nicosia",
               "types" : [ "administrative_area_level_1", "political" ]
            },
            {
               "long_name" : "Cyprus",
               "short_name" : "CY",
               "types" : [ "country", "political" ]
            }
         ],
         "formatted_address" : "Aglantzia, Cyprus",
         "geometry" : {
            "bounds" : {
               "northeast" : {
                  "lat" : 35.1693444,
                  "lng" : 33.47653270000001
               },
               "southwest" : {
                  "lat" : 35.1205403,
                  "lng" : 33.373914
               }
            },
            "location" : {
               "lat" : 35.139489,
               "lng" : 33.4047109
            },
            "location_type" : "APPROXIMATE",
            "viewport" : {
               "northeast" : {
                  "lat" : 35.1693444,
                  "lng" : 33.47653270000001
               },
               "southwest" : {
                  "lat" : 35.1205403,
                  "lng" : 33.373914
               }
            }
         },
         "place_id" : "ChIJb0vkuNMZ3hQR_4oSWBdFjX0",
         "types" : [ "locality", "political" ]
      },
      {
         "address_components" : [
            {
               "long_name" : "Nicosia",
               "short_name" : "Nicosia",
               "types" : [ "administrative_area_level_1", "political" ]
            },
            {
               "long_name" : "Cyprus",
               "short_name" : "CY",
               "types" : [ "country", "political" ]
            }
         ],
         "formatted_address" : "Nicosia, Cyprus",
         "geometry" : {
            "bounds" : {
               "northeast" : {
                  "lat" : 35.2899319,
                  "lng" : 33.5913851
               },
               "southwest" : {
                  "lat" : 34.879578,
                  "lng" : 32.5530471
               }
            },
            "location" : {
               "lat" : 35.2002473,
               "lng" : 32.9902498
            },
            "location_type" : "APPROXIMATE",
            "viewport" : {
               "northeast" : {
                  "lat" : 35.2899319,
                  "lng" : 33.5913851
               },
               "southwest" : {
                  "lat" : 34.879578,
                  "lng" : 32.5530471
               }
            }
         },
         "place_id" : "ChIJVU1JymcX3hQR_5K54nIRpr8",
         "types" : [ "administrative_area_level_1", "political" ]
      },
      {
         "address_components" : [
            {
               "long_name" : "Cyprus",
               "short_name" : "CY",
               "types" : [ "country", "political" ]
            }
         ],
         "formatted_address" : "Cyprus",
         "geometry" : {
            "bounds" : {
               "northeast" : {
                  "lat" : 35.7071999,
                  "lng" : 34.60450000000001
               },
               "southwest" : {
                  "lat" : 34.6304001,
                  "lng" : 32.2459
               }
            },
            "location" : {
               "lat" : 35.126413,
               "lng" : 33.429859
            },
            "location_type" : "APPROXIMATE",
            "viewport" : {
               "northeast" : {
                  "lat" : 35.7071999,
                  "lng" : 34.60450000000001
               },
               "southwest" : {
                  "lat" : 34.6304001,
                  "lng" : 32.2459
               }
            }
         },
         "place_id" : "ChIJVU1JymcX3hQRbhTEf4A8TDI",
         "types" : [ "country", "political" ]
      }
   ],
   "status" : "OK"
}
