{
   "plus_code" : {
      "compound_code" : "CJ8M+Q7 Hanover, Germany",
      "global_code" : "9F4FCJ8M+Q7"
   },
   "results" : [
      {
         "address_components" : [
            {
               "long_name" : "51",
               "short_name" : "51",
               "types" : [ "street_number" ]
            },
            {
               "long_name" : "Am Leineufer",
               "short_name" : "Am Leineufer",
               "types" : [ "route" ]
            },
            {
               "long_name" : "Herrenhausen-Stöcken",
               "short_name" : "Herrenhausen-Stöcken",
               "types" : [ "political", "sublocality", "sublocality_level_1" ]
            },
            {
               "long_name" : "Hannover",
               "short_name" : "Hannover",
               "types" : [ "locality", "political" ]
            },
            {
               "long_name" : "Region Hannover",
               "short_name" : "Region Hannover",
               "types" : [ "administrative_area_level_3", "political" ]
            },
            {
               "long_name" : "Niedersachsen",
               "short_name" : "NDS",
               "types" : [ "administrative_area_level_1", "political" ]
            },
            {
               "long_name" : "Germany",
               "short_name" : "DE",
               "types" : [ "country", "political" ]
            },
            {
               "long_name" : "30419",
               "short_name" : "30419",
               "types" : [ "postal_code" ]
            }
         ],
         "formatted_address" : "Am Leineufer 51, 30419 Hannover, Germany",
         "geometry" : {
            "location" : {
               "lat" : 52.4169481,
               "lng" : 9.6331644
            },
            "location_type" : "ROOFTOP",
            "viewport" : {
               "northeast" : {
                  "lat" : 52.4182970802915,
                  "lng" : 9.634513380291502
               },
               "southwest" : {
                  "lat" : 52.4155991197085,
                  "lng" : 9.631815419708497
               }
            }
         },
         "place_id" : "ChIJ6zOchEJxsEcRfqcN5dRYXAY",
         "plus_code" : {
            "compound_code" : "CJ8M+Q7 Hanover, Germany",
            "global_code" : "9F4FCJ8M+Q7"
         },
         "types" : [ "establishment", "point_of_interest" ]
      },
      {
         "address_components" : [
            {
               "long_name" : "51",
               "short_name" : "51",
               "types" : [ "street_number" ]
            },
            {
               "long_name" : "Am Leineufer",
               "short_name" : "Am Leineufer",
               "types" : [ "route" ]
            },
            {
               "long_name" : "Herrenhausen-Stöcken",
               "short_name" : "Herrenhausen-Stöcken",
               "types" : [ "political", "sublocality", "sublocality_level_1" ]
            },
            {
               "long_name" : "Hannover",
               "short_name" : "Hannover",
               "types" : [ "locality", "political" ]
            },
            {
               "long_name" : "Region Hannover",
               "short_name" : "Region Hannover",
               "types" : [ "administrative_area_level_3", "political" ]
            },
            {
               "long_name" : "Niedersachsen",
               "short_name" : "NDS",
               "types" : [ "administrative_area_level_1", "political" ]
            },
            {
               "long_name" : "Germany",
               "short_name" : "DE",
               "types" : [ "country", "political" ]
            },
            {
               "long_name" : "30419",
               "short_name" : "30419",
               "types" : [ "postal_code" ]
            }
         ],
         "formatted_address" : "Am Leineufer 51, 30419 Hannover, Germany",
         "geometry" : {
            "location" : {
               "lat" : 52.4169481,
               "lng" : 9.6331644
            },
            "location_type" : "ROOFTOP",
            "viewport" : {
               "northeast" : {
                  "lat" : 52.4182970802915,
                  "lng" : 9.634513380291502
               },
               "southwest" : {
                  "lat" : 52.4155991197085,
                  "lng" : 9.631815419708497
               }
            }
         },
         "place_id" : "ChIJ6zOchEJxsEcRq9iOKOiyaRc",
         "plus_code" : {
            "compound_code" : "CJ8M+Q7 Hanover, Germany",
            "global_code" : "9F4FCJ8M+Q7"
         },
         "types" : [ "street_address" ]
      },
      {
         "address_components" : [
            {
               "long_name" : "Unnamed Road",
               "short_name" : "Unnamed Road",
               "types" : [ "route" ]
            },
            {
               "long_name" : "Herrenhausen-Stöcken",
               "short_name" : "Herrenhausen-Stöcken",
               "types" : [ "political", "sublocality", "sublocality_level_1" ]
            },
            {
               "long_name" : "Hannover",
               "short_name" : "Hannover",
               "types" : [ "locality", "political" ]
            },
            {
               "long_name" : "Region Hannover",
               "short_name" : "Region Hannover",
               "types" : [ "administrative_area_level_3", "political" ]
            },
            {
               "long_name" : "Niedersachsen",
               "short_name" : "NDS",
               "types" : [ "administrative_area_level_1", "political" ]
            },
            {
               "long_name" : "Germany",
               "short_name" : "DE",
               "types" : [ "country", "political" ]
            },
            {
               "long_name" : "30419",
               "short_name" : "30419",
               "types" : [ "postal_code" ]
            }
         ],
         "formatted_address" : "Unnamed Road, 30419 Hannover, Germany",
         "geometry" : {
            "bounds" : {
               "northeast" : {
                  "lat" : 52.4177255,
                  "lng" : 9.633653899999999
               },
               "southwest" : {
                  "lat" : 52.417354,
                  "lng" : 9.632102399999999
               }
            },
            "location" : {
               "lat" : 52.4175397,
               "lng" : 9.632878099999999
            },
            "location_type" : "GEOMETRIC_CENTER",
            "viewport" : {
               "northeast" : {
                  "lat" : 52.41888873029149,
                  "lng" : 9.634227130291501
               },
               "southwest" : {
                  "lat" : 52.41619076970849,
                  "lng" : 9.631529169708497
               }
            }
         },
         "place_id" : "ChIJG7KlK2hxsEcRVtplTvtGOLM",
         "types" : [ "route" ]
      },
      {
         "address_components" : [
            {
               "long_name" : "Marienwerder",
               "short_name" : "Marienwerder",
               "types" : [ "political", "sublocality", "sublocality_level_2" ]
            },
            {
               "long_name" : "Herrenhausen-Stöcken",
               "short_name" : "Herrenhausen-Stöcken",
               "types" : [ "political", "sublocality", "sublocality_level_1" ]
            },
            {
               "long_name" : "Hannover",
               "short_name" : "Hannover",
               "types" : [ "locality", "political" ]
            },
            {
               "long_name" : "Region Hannover",
               "short_name" : "Region Hannover",
               "types" : [ "administrative_area_level_3", "political" ]
            },
            {
               "long_name" : "Niedersachsen",
               "short_name" : "NDS",
               "types" : [ "administrative_area_level_1", "political" ]
            },
            {
               "long_name" : "Germany",
               "short_name" : "DE",
               "types" : [ "country", "political" ]
            }
         ],
         "formatted_address" : "Marienwerder, Hannover, Germany",
         "geometry" : {
            "bounds" : {
               "northeast" : {
                  "lat" : 52.4217121,
                  "lng" : 9.6428379
               },
               "southwest" : {
                  "lat" : 52.3931371,
                  "lng" : 9.604471999999999
               }
            },
            "location" : {
               "lat" : 52.4124092,
               "lng" : 9.627195499999999
            },
            "location_type" : "APPROXIMATE",
            "viewport" : {
               "northeast" : {
                  "lat" : 52.4217121,
                  "lng" : 9.6428379
               },
               "southwest" : {
                  "lat" : 52.3931371,
                  "lng" : 9.604471999999999
               }
            }
         },
         "place_id" : "ChIJPe7mIEZxsEcRML2vlG2sJQU",
         "types" : [ "political", "sublocality", "sublocality_level_2" ]
      },
      {
         "address_components" : [
            {
               "long_name" : "Herrenhausen",
               "short_name" : "Herrenhausen",
               "types" : [ "political", "sublocality", "sublocality_level_1" ]
            },
            {
               "long_name" : "Hanover",
               "short_name" : "Hanover",
               "types" : [ "locality", "political" ]
            },
            {
               "long_name" : "Hanover Region",
               "short_name" : "Hanover Region",
               "types" : [ "administrative_area_level_3", "political" ]
            },
            {
               "long_name" : "Lower Saxony",
               "short_name" : "NDS",
               "types" : [ "administrative_area_level_1", "political" ]
            },
            {
               "long_name" : "Germany",
               "short_name" : "DE",
               "types" : [ "country", "political" ]
            }
         ],
         "formatted_address" : "Herrenhausen, Hanover, Germany",
         "geometry" : {
            "bounds" : {
               "northeast" : {
                  "lat" : 52.4335719,
                  "lng" : 9.708020000000001
               },
               "southwest" : {
                  "lat" : 52.3807669,
                  "lng" : 9.604471999999999
               }
            },
            "location" : {
               "lat" : 52.4089418,
               "lng" : 9.669391599999999
            },
            "location_type" : "APPROXIMATE",
            "viewport" : {
               "northeast" : {
                  "lat" : 52.4335719,
                  "lng" : 9.708020000000001
               },
               "southwest" : {
                  "lat" : 52.3807669,
                  "lng" : 9.604471999999999
               }
            }
         },
         "place_id" : "ChIJw_sd9eRzsEcRCXHBilSP1zU",
         "types" : [ "political", "sublocality", "sublocality_level_1" ]
      },
      {
         "address_components" : [
            {
               "long_name" : "30419",
               "short_name" : "30419",
               "types" : [ "postal_code" ]
            },
            {
               "long_name" : "Herrenhausen",
               "short_name" : "Herrenhausen",
               "types" : [ "political", "sublocality", "sublocality_level_1" ]
            },
            {
               "long_name" : "Hanover",
               "short_name" : "Hanover",
               "types" : [ "locality", "political" ]
            },
            {
               "long_name" : "Hanover Region",
               "short_name" : "Hanover Region",
               "types" : [ "administrative_area_level_3", "political" ]
            },
            {
               "long_name" : "Lower Saxony",
               "short_name" : "NDS",
               "types" : [ "administrative_area_level_1", "political" ]
            },
            {
               "long_name" : "Germany",
               "short_name" : "DE",
               "types" : [ "country", "political" ]
            }
         ],
         "formatted_address" : "30419 Hanover, Germany",
         "geometry" : {
            "bounds" : {
               "northeast" : {
                  "lat" : 52.43367,
                  "lng" : 9.7202901
               },
               "southwest" : {
                  "lat" : 52.3780359,
                  "lng" : 9.604391
               }
            },
            "location" : {
               "lat" : 52.4089418,
               "lng" : 9.669391599999999
            },
            "location_type" : "APPROXIMATE",
            "viewport" : {
               "northeast" : {
                  "lat" : 52.43367,
                  "lng" : 9.7202901
               },
               "southwest" : {
                  "lat" : 52.3780359,
                  "lng" : 9.604391
               }
            }
         },
         "place_id" : "ChIJv5mSkO9zsEcR4P3E3nCsJRw",
         "types" : [ "postal_code" ]
      },
      {
         "address_components" : [
            {
               "long_name" : "Hanover",
               "short_name" : "Hanover",
               "types" : [ "locality", "political" ]
            },
            {
               "long_name" : "Hanover Region",
               "short_name" : "Hanover Region",
               "types" : [ "administrative_area_level_3", "political" ]
            },
            {
               "long_name" : "Lower Saxony",
               "short_name" : "NDS",
               "types" : [ "administrative_area_level_1", "political" ]
            },
            {
               "long_name" : "Germany",
               "short_name" : "DE",
               "types" : [ "country", "political" ]
            }
         ],
         "formatted_address" : "Hanover, Germany",
         "geometry" : {
            "bounds" : {
               "northeast" : {
                  "lat" : 52.4544218,
                  "lng" : 9.918507699999999
               },
               "southwest" : {
                  "lat" : 52.304911,
                  "lng" : 9.604435199999999
               }
            },
            "location" : {
               "lat" : 52.3758916,
               "lng" : 9.732010400000002
            },
            "location_type" : "APPROXIMATE",
            "viewport" : {
               "northeast" : {
                  "lat" : 52.4544218,
                  "lng" : 9.918507699999999
               },
               "southwest" : {
                  "lat" : 52.304911,
                  "lng" : 9.604435199999999
               }
            }
         },
         "place_id" : "ChIJhU9JTVELsEcRIEeslG2sJQQ",
         "types" : [ "locality", "political" ]
      },
      {
         "address_components" : [
            {
               "long_name" : "Hanover Region",
               "short_name" : "Hanover Region",
               "types" : [ "administrative_area_level_3", "political" ]
            },
            {
               "long_name" : "Lower Saxony",
               "short_name" : "NDS",
               "types" : [ "administrative_area_level_1", "political" ]
            },
            {
               "long_name" : "Germany",
               "short_name" : "DE",
               "types" : [ "country", "political" ]
            }
         ],
         "formatted_address" : "Hanover Region, Germany",
         "geometry" : {
            "bounds" : {
               "northeast" : {
                  "lat" : 52.6770862,
                  "lng" : 10.3030989
               },
               "southwest" : {
                  "lat" : 52.12834350000001,
                  "lng" : 9.238174899999999
               }
            },
            "location" : {
               "lat" : 52.3950048,
               "lng" : 9.642781399999999
            },
            "location_type" : "APPROXIMATE",
            "viewport" : {
               "northeast" : {
                  "lat" : 52.6770862,
                  "lng" : 10.3030989
               },
               "southwest" : {
                  "lat" : 52.12834350000001,
                  "lng" : 9.238174899999999
               }
            }
         },
         "place_id" : "ChIJwyZW8rYMsEcRLEjuDLJgJ-g",
         "types" : [ "administrative_area_level_3", "political" ]
      },
      {
         "address_components" : [
            {
               "long_name" : "Lower Saxony",
               "short_name" : "Lower Saxony",
               "types" : [ "administrative_area_level_1", "political" ]
            },
            {
               "long_name" : "Germany",
               "short_name" : "DE",
               "types" : [ "country", "political" ]
            }
         ],
         "formatted_address" : "Lower Saxony, Germany",
         "geometry" : {
            "bounds" : {
               "northeast" : {
                  "lat" : 53.8922841,
                  "lng" : 11.5982056
               },
               "southwest" : {
                  "lat" : 51.29506740000001,
                  "lng" : 6.6538789
               }
            },
            "location" : {
               "lat" : 52.6367036,
               "lng" : 9.845076600000001
            },
            "location_type" : "APPROXIMATE",
            "viewport" : {
               "northeast" : {
                  "lat" : 53.8922841,
                  "lng" : 11.5982056
               },
               "southwest" : {
                  "lat" : 51.29506740000001,
                  "lng" : 6.6538789
               }
            }
         },
         "place_id" : "ChIJZTST8-ORsEcRAHkCY3fPJgE",
         "types" : [ "administrative_area_level_1", "political" ]
      },
      {
         "address_components" : [
            {
               "long_name" : "Germany",
               "short_name" : "DE",
               "types" : [ "country", "political" ]
            }
         ],
         "formatted_address" : "Germany",
         "geometry" : {
            "bounds" : {
               "northeast" : {
                  "lat" : 55.0815,
                  "lng" : 15.0418962
               },
               "southwest" : {
                  "lat" : 47.2701115,
                  "lng" : 5.8663425
               }
            },
            "location" : {
               "lat" : 51.165691,
               "lng" : 10.451526
            },
            "location_type" : "APPROXIMATE",
            "viewport" : {
               "northeast" : {
                  "lat" : 55.0815,
                  "lng" : 15.0418962
               },
               "southwest" : {
                  "lat" : 47.2701115,
                  "lng" : 5.8663425
               }
            }
         },
         "place_id" : "ChIJa76xwh5ymkcRW-WRjmtd6HU",
         "types" : [ "country", "political" ]
      }
   ],
   "status" : "OK"
}
