{
   "plus_code" : {
      "compound_code" : "2Q4F+3M Třeboň, Czechia",
      "global_code" : "8FXP2Q4F+3M"
   },
   "results" : [
      {
         "address_components" : [
            {
               "long_name" : "145",
               "short_name" : "145",
               "types" : [ "premise" ]
            },
            {
               "long_name" : "Dukelská",
               "short_name" : "Dukelská",
               "types" : [ "route" ]
            },
            {
               "long_name" : "Třeboň",
               "short_name" : "Třeboň",
               "types" : [ "political", "sublocality", "sublocality_level_1" ]
            },
            {
               "long_name" : "Jindřichův Hradec",
               "short_name" : "Jindřichův Hradec",
               "types" : [ "administrative_area_level_2", "political" ]
            },
            {
               "long_name" : "Jihočeský kraj",
               "short_name" : "Jihočeský kraj",
               "types" : [ "administrative_area_level_1", "political" ]
            },
            {
               "long_name" : "Czechia",
               "short_name" : "CZ",
               "types" : [ "country", "political" ]
            },
            {
               "long_name" : "379 82",
               "short_name" : "379 82",
               "types" : [ "postal_code" ]
            }
         ],
         "formatted_address" : "Dukelská 145, 379 82 Třeboň, Czechia",
         "geometry" : {
            "location" : {
               "lat" : 49.00525,
               "lng" : 14.774218
            },
            "location_type" : "ROOFTOP",
            "viewport" : {
               "northeast" : {
                  "lat" : 49.00659898029149,
                  "lng" : 14.7755669802915
               },
               "southwest" : {
                  "lat" : 49.00390101970849,
                  "lng" : 14.7728690197085
               }
            }
         },
         "place_id" : "ChIJiXtVDDg0c0cRFl7ICRqgMio",
         "types" : [ "establishment", "point_of_interest" ]
      },
      {
         "address_components" : [
            {
               "long_name" : "145",
               "short_name" : "145",
               "types" : [ "premise" ]
            },
            {
               "long_name" : "Dukelská",
               "short_name" : "Dukelská",
               "types" : [ "route" ]
            },
            {
               "long_name" : "Třeboň I",
               "short_name" : "Třeboň I",
               "types" : [ "neighborhood", "political" ]
            },
            {
               "long_name" : "Třeboň",
               "short_name" : "Třeboň",
               "types" : [ "locality", "political" ]
            },
            {
               "long_name" : "Jindřichův Hradec",
               "short_name" : "Jindřichův Hradec",
               "types" : [ "administrative_area_level_2", "political" ]
            },
            {
               "long_name" : "Jihočeský kraj",
               "short_name" : "Jihočeský kraj",
               "types" : [ "administrative_area_level_1", "political" ]
            },
            {
               "long_name" : "Czechia",
               "short_name" : "CZ",
               "types" : [ "country", "political" ]
            },
            {
               "long_name" : "379 01",
               "short_name" : "379 01",
               "types" : [ "postal_code" ]
            }
         ],
         "formatted_address" : "Dukelská 145, Třeboň I, 379 01 Třeboň, Czechia",
         "geometry" : {
            "location" : {
               "lat" : 49.0053734,
               "lng" : 14.7740741
            },
            "location_type" : "ROOFTOP",
            "viewport" : {
               "northeast" : {
                  "lat" : 49.00672238029149,
                  "lng" : 14.7754230802915
               },
               "southwest" : {
                  "lat" : 49.00402441970849,
                  "lng" : 14.7727251197085
               }
            }
         },
         "place_id" : "ChIJOfz_DDg0c0cRAFd3orBvd2Y",
         "types" : [ "street_address" ]
      },
      {
         "address_components" : [
            {
               "long_name" : "K Bertě",
               "short_name" : "K Bertě",
               "types" : [ "route" ]
            },
            {
               "long_name" : "Třeboň",
               "short_name" : "Třeboň",
               "types" : [ "locality", "political" ]
            },
            {
               "long_name" : "Jindřichův Hradec",
               "short_name" : "Jindřichův Hradec",
               "types" : [ "administrative_area_level_2", "political" ]
            },
            {
               "long_name" : "Jihočeský kraj",
               "short_name" : "Jihočeský kraj",
               "types" : [ "administrative_area_level_1", "political" ]
            },
            {
               "long_name" : "Czechia",
               "short_name" : "CZ",
               "types" : [ "country", "political" ]
            },
            {
               "long_name" : "379 01",
               "short_name" : "379 01",
               "types" : [ "postal_code" ]
            }
         ],
         "formatted_address" : "K Bertě, 379 01 Třeboň, Czechia",
         "geometry" : {
            "bounds" : {
               "northeast" : {
                  "lat" : 49.0064946,
                  "lng" : 14.7744402
               },
               "southwest" : {
                  "lat" : 49.0052104,
                  "lng" : 14.7716062
               }
            },
            "location" : {
               "lat" : 49.0058525,
               "lng" : 14.7730232
            },
            "location_type" : "GEOMETRIC_CENTER",
            "viewport" : {
               "northeast" : {
                  "lat" : 49.00720148029149,
                  "lng" : 14.7744402
               },
               "southwest" : {
                  "lat" : 49.00450351970849,
                  "lng" : 14.7716062
               }
            }
         },
         "place_id" : "ChIJJfP8ADg0c0cRCCe-fKUMhZ0",
         "types" : [ "route" ]
      },
      {
         "address_components" : [
            {
               "long_name" : "Třeboň",
               "short_name" : "Třeboň",
               "types" : [ "locality", "political" ]
            },
            {
               "long_name" : "Jindřichův Hradec District",
               "short_name" : "Jindřichův Hradec District",
               "types" : [ "administrative_area_level_2", "political" ]
            },
            {
               "long_name" : "South Bohemian Region",
               "short_name" : "South Bohemian Region",
               "types" : [ "administrative_area_level_1", "political" ]
            },
            {
               "long_name" : "Czechia",
               "short_name" : "CZ",
               "types" : [ "country", "political" ]
            },
            {
               "long_name" : "379 01",
               "short_name" : "379 01",
               "types" : [ "postal_code" ]
            }
         ],
         "formatted_address" : "379 01 Třeboň, Czechia",
         "geometry" : {
            "bounds" : {
               "northeast" : {
                  "lat" : 49.0666139,
                  "lng" : 14.8743061
               },
               "southwest" : {
                  "lat" : 48.9366074,
                  "lng" : 14.6767829
               }
            },
            "location" : {
               "lat" : 49.0041957,
               "lng" : 14.7721233
            },
            "location_type" : "APPROXIMATE",
            "viewport" : {
               "northeast" : {
                  "lat" : 49.0666139,
                  "lng" : 14.8743061
               },
               "southwest" : {
                  "lat" : 48.9366074,
                  "lng" : 14.6767829
               }
            }
         },
         "place_id" : "ChIJXVakazk0c0cRUAEWZg-vAAQ",
         "types" : [ "locality", "political" ]
      },
      {
         "address_components" : [
            {
               "long_name" : "379 01",
               "short_name" : "379 01",
               "types" : [ "postal_code" ]
            },
            {
               "long_name" : "South Bohemian Region",
               "short_name" : "South Bohemian Region",
               "types" : [ "administrative_area_level_1", "political" ]
            },
            {
               "long_name" : "Czechia",
               "short_name" : "CZ",
               "types" : [ "country", "political" ]
            }
         ],
         "formatted_address" : "379 01, Czechia",
         "geometry" : {
            "bounds" : {
               "northeast" : {
                  "lat" : 49.1505132,
                  "lng" : 14.9541859
               },
               "southwest" : {
                  "lat" : 48.9025495,
                  "lng" : 14.6306668
               }
            },
            "location" : {
               "lat" : 49.0042745,
               "lng" : 14.7862358
            },
            "location_type" : "APPROXIMATE",
            "viewport" : {
               "northeast" : {
                  "lat" : 49.1505132,
                  "lng" : 14.9541859
               },
               "southwest" : {
                  "lat" : 48.9025495,
                  "lng" : 14.6306668
               }
            }
         },
         "place_id" : "ChIJHSWKLx80c0cRYGljmBKvABw",
         "types" : [ "postal_code" ]
      },
      {
         "address_components" : [
            {
               "long_name" : "Třeboň",
               "short_name" : "Třeboň",
               "types" : [ "postal_town" ]
            },
            {
               "long_name" : "Jihočeský kraj",
               "short_name" : "Jihočeský kraj",
               "types" : [ "administrative_area_level_1", "political" ]
            },
            {
               "long_name" : "Czechia",
               "short_name" : "CZ",
               "types" : [ "country", "political" ]
            },
            {
               "long_name" : "379 01",
               "short_name" : "379 01",
               "types" : [ "postal_code" ]
            }
         ],
         "formatted_address" : "Třeboň, 379 01, Czechia",
         "geometry" : {
            "bounds" : {
               "northeast" : {
                  "lat" : 49.1505132,
                  "lng" : 14.9541859
               },
               "southwest" : {
                  "lat" : 48.9025495,
                  "lng" : 14.6306668
               }
            },
            "location" : {
               "lat" : 49.0042745,
               "lng" : 14.7862358
            },
            "location_type" : "APPROXIMATE",
            "viewport" : {
               "northeast" : {
                  "lat" : 49.1505132,
                  "lng" : 14.9541859
               },
               "southwest" : {
                  "lat" : 48.9025495,
                  "lng" : 14.6306668
               }
            }
         },
         "place_id" : "ChIJqRYvYCW0DEcRBFs9Xu2349I",
         "types" : [ "postal_town" ]
      },
      {
         "address_components" : [
            {
               "long_name" : "Jindřichův Hradec District",
               "short_name" : "Jindřichův Hradec District",
               "types" : [ "administrative_area_level_2", "political" ]
            },
            {
               "long_name" : "South Bohemian Region",
               "short_name" : "South Bohemian Region",
               "types" : [ "administrative_area_level_1", "political" ]
            },
            {
               "long_name" : "Czechia",
               "short_name" : "CZ",
               "types" : [ "country", "political" ]
            }
         ],
         "formatted_address" : "Jindřichův Hradec District, Czechia",
         "geometry" : {
            "bounds" : {
               "northeast" : {
                  "lat" : 49.3104119,
                  "lng" : 15.6041293
               },
               "southwest" : {
                  "lat" : 48.75809719999999,
                  "lng" : 14.6306668
               }
            },
            "location" : {
               "lat" : 49.1072757,
               "lng" : 15.1006418
            },
            "location_type" : "APPROXIMATE",
            "viewport" : {
               "northeast" : {
                  "lat" : 49.3104119,
                  "lng" : 15.6041293
               },
               "southwest" : {
                  "lat" : 48.75809719999999,
                  "lng" : 14.6306668
               }
            }
         },
         "place_id" : "ChIJy_gHa9jUDEcR8KkUZg-vAAM",
         "types" : [ "administrative_area_level_2", "political" ]
      },
      {
         "address_components" : [
            {
               "long_name" : "South Bohemian Region",
               "short_name" : "South Bohemian Region",
               "types" : [ "administrative_area_level_1", "political" ]
            },
            {
               "long_name" : "Czechia",
               "short_name" : "CZ",
               "types" : [ "country", "political" ]
            }
         ],
         "formatted_address" : "South Bohemian Region, Czechia",
         "geometry" : {
            "bounds" : {
               "northeast" : {
                  "lat" : 49.6212548,
                  "lng" : 15.6041293
               },
               "southwest" : {
                  "lat" : 48.5518081,
                  "lng" : 13.5363203
               }
            },
            "location" : {
               "lat" : 48.9457789,
               "lng" : 14.4416055
            },
            "location_type" : "APPROXIMATE",
            "viewport" : {
               "northeast" : {
                  "lat" : 49.6212548,
                  "lng" : 15.6041293
               },
               "southwest" : {
                  "lat" : 48.5518081,
                  "lng" : 13.5363203
               }
            }
         },
         "place_id" : "ChIJZ2aXTChNc0cRQKgUZg-vAAE",
         "types" : [ "administrative_area_level_1", "political" ]
      },
      {
         "address_components" : [
            {
               "long_name" : "Czechia",
               "short_name" : "CZ",
               "types" : [ "country", "political" ]
            }
         ],
         "formatted_address" : "Czechia",
         "geometry" : {
            "bounds" : {
               "northeast" : {
                  "lat" : 51.0557185,
                  "lng" : 18.8592361
               },
               "southwest" : {
                  "lat" : 48.5518081,
                  "lng" : 12.090589
               }
            },
            "location" : {
               "lat" : 49.81749199999999,
               "lng" : 15.472962
            },
            "location_type" : "APPROXIMATE",
            "viewport" : {
               "northeast" : {
                  "lat" : 51.0557185,
                  "lng" : 18.8592361
               },
               "southwest" : {
                  "lat" : 48.5518081,
                  "lng" : 12.090589
               }
            }
         },
         "place_id" : "ChIJQ4Ld14-UC0cRb1jb03UcZvg",
         "types" : [ "country", "political" ]
      }
   ],
   "status" : "OK"
}
