{
   "plus_code" : {
      "compound_code" : "VPR9+Q2 Stavanger, Norway",
      "global_code" : "9FC7VPR9+Q2"
   },
   "results" : [
      {
         "address_components" : [
            {
               "long_name" : "50",
               "short_name" : "50",
               "types" : [ "street_number" ]
            },
            {
               "long_name" : "Forusbeen",
               "short_name" : "Forusbeen",
               "types" : [ "route" ]
            },
            {
               "long_name" : "Stavanger",
               "short_name" : "Stavanger",
               "types" : [ "postal_town" ]
            },
            {
               "long_name" : "Stavanger",
               "short_name" : "Stavanger",
               "types" : [ "administrative_area_level_2", "political" ]
            },
            {
               "long_name" : "Rogaland",
               "short_name" : "Rogaland",
               "types" : [ "administrative_area_level_1", "political" ]
            },
            {
               "long_name" : "Norway",
               "short_name" : "NO",
               "types" : [ "country", "political" ]
            },
            {
               "long_name" : "4035",
               "short_name" : "4035",
               "types" : [ "postal_code" ]
            }
         ],
         "formatted_address" : "Forusbeen 50, 4035 Stavanger, Norway",
         "geometry" : {
            "location" : {
               "lat" : 58.89198889999999,
               "lng" : 5.717544999999999
            },
            "location_type" : "ROOFTOP",
            "viewport" : {
               "northeast" : {
                  "lat" : 58.8933378802915,
                  "lng" : 5.718893980291502
               },
               "southwest" : {
                  "lat" : 58.89063991970848,
                  "lng" : 5.716196019708497
               }
            }
         },
         "place_id" : "ChIJs2Mjwt01OkYRn0bufKDqk-c",
         "plus_code" : {
            "compound_code" : "VPR9+Q2 Stavanger, Stavanger Municipality, Norway",
            "global_code" : "9FC7VPR9+Q2"
         },
         "types" : [ "establishment", "point_of_interest" ]
      },
      {
         "address_components" : [
            {
               "long_name" : "50",
               "short_name" : "50",
               "types" : [ "street_number" ]
            },
            {
               "long_name" : "Forusbeen",
               "short_name" : "Forusbeen",
               "types" : [ "route" ]
            },
            {
               "long_name" : "Stavanger",
               "short_name" : "Stavanger",
               "types" : [ "postal_town" ]
            },
            {
               "long_name" : "Stavanger",
               "short_name" : "Stavanger",
               "types" : [ "administrative_area_level_2", "political" ]
            },
            {
               "long_name" : "Rogaland",
               "short_name" : "Rogaland",
               "types" : [ "administrative_area_level_1", "political" ]
            },
            {
               "long_name" : "Norway",
               "short_name" : "NO",
               "types" : [ "country", "political" ]
            },
            {
               "long_name" : "4033",
               "short_name" : "4033",
               "types" : [ "postal_code" ]
            }
         ],
         "formatted_address" : "Forusbeen 50, 4033 Stavanger, Norway",
         "geometry" : {
            "location" : {
               "lat" : 58.8919935,
               "lng" : 5.7175543
            },
            "location_type" : "ROOFTOP",
            "viewport" : {
               "northeast" : {
                  "lat" : 58.8933424802915,
                  "lng" : 5.718903280291502
               },
               "southwest" : {
                  "lat" : 58.89064451970849,
                  "lng" : 5.716205319708497
               }
            }
         },
         "place_id" : "ChIJs2Mjwt01OkYR5R3IfuYvlRI",
         "plus_code" : {
            "compound_code" : "VPR9+Q2 Stavanger, Stavanger Municipality, Norway",
            "global_code" : "9FC7VPR9+Q2"
         },
         "types" : [ "street_address" ]
      },
      {
         "address_components" : [
            {
               "long_name" : "50",
               "short_name" : "50",
               "types" : [ "street_number" ]
            },
            {
               "long_name" : "Forusbeen",
               "short_name" : "Forusbeen",
               "types" : [ "route" ]
            },
            {
               "long_name" : "Stavanger",
               "short_name" : "Stavanger",
               "types" : [ "locality", "political" ]
            },
            {
               "long_name" : "Stavanger",
               "short_name" : "Stavanger",
               "types" : [ "administrative_area_level_2", "political" ]
            },
            {
               "long_name" : "Norway",
               "short_name" : "NO",
               "types" : [ "country", "political" ]
            },
            {
               "long_name" : "4033",
               "short_name" : "4033",
               "types" : [ "postal_code" ]
            }
         ],
         "formatted_address" : "Forusbeen 50, 4033 Stavanger, Norway",
         "geometry" : {
            "location" : {
               "lat" : 58.89314570000001,
               "lng" : 5.7192881
            },
            "location_type" : "RANGE_INTERPOLATED",
            "viewport" : {
               "northeast" : {
                  "lat" : 58.89449468029151,
                  "lng" : 5.720637080291502
               },
               "southwest" : {
                  "lat" : 58.8917967197085,
                  "lng" : 5.717939119708498
               }
            }
         },
         "place_id" : "EiNGb3J1c2JlZW4gNTAsIDQwMzMgU3RhdmFuZ2VyLCBOb3JnZSIaEhgKFAoSCbPO2sfdNTpGEZ-K6YkiCC-qEDI",
         "types" : [ "street_address" ]
      },
      {
         "address_components" : [
            {
               "long_name" : "4033",
               "short_name" : "4033",
               "types" : [ "postal_code" ]
            },
            {
               "long_name" : "Stavanger",
               "short_name" : "Stavanger",
               "types" : [ "postal_town" ]
            },
            {
               "long_name" : "Rogaland",
               "short_name" : "Rogaland",
               "types" : [ "administrative_area_level_1", "political" ]
            },
            {
               "long_name" : "Norway",
               "short_name" : "NO",
               "types" : [ "country", "political" ]
            }
         ],
         "formatted_address" : "4033 Stavanger, Norway",
         "geometry" : {
            "bounds" : {
               "northeast" : {
                  "lat" : 58.9036953,
                  "lng" : 5.763561
               },
               "southwest" : {
                  "lat" : 58.8846894,
                  "lng" : 5.6911847
               }
            },
            "location" : {
               "lat" : 58.89343509999999,
               "lng" : 5.7465205
            },
            "location_type" : "APPROXIMATE",
            "viewport" : {
               "northeast" : {
                  "lat" : 58.9036953,
                  "lng" : 5.763561
               },
               "southwest" : {
                  "lat" : 58.8846894,
                  "lng" : 5.6911847
               }
            }
         },
         "place_id" : "ChIJpyu1Q9w1OkYRY9SOwCVsJDo",
         "types" : [ "postal_code" ]
      },
      {
         "address_components" : [
            {
               "long_name" : "Stavanger",
               "short_name" : "Stavanger",
               "types" : [ "locality", "political" ]
            },
            {
               "long_name" : "Rogaland",
               "short_name" : "Rogaland",
               "types" : [ "administrative_area_level_1", "political" ]
            },
            {
               "long_name" : "Norway",
               "short_name" : "NO",
               "types" : [ "country", "political" ]
            }
         ],
         "formatted_address" : "Stavanger, Norway",
         "geometry" : {
            "bounds" : {
               "northeast" : {
                  "lat" : 59.0124878,
                  "lng" : 5.770240900000001
               },
               "southwest" : {
                  "lat" : 58.8848189,
                  "lng" : 5.5904327
               }
            },
            "location" : {
               "lat" : 58.9699756,
               "lng" : 5.7331074
            },
            "location_type" : "APPROXIMATE",
            "viewport" : {
               "northeast" : {
                  "lat" : 59.0124878,
                  "lng" : 5.770240900000001
               },
               "southwest" : {
                  "lat" : 58.8848189,
                  "lng" : 5.5904327
               }
            }
         },
         "place_id" : "ChIJlfcp3Uk1OkYRWZIKuCHreq0",
         "types" : [ "locality", "political" ]
      },
      {
         "address_components" : [
            {
               "long_name" : "Stavanger Municipality",
               "short_name" : "Stavanger Municipality",
               "types" : [ "administrative_area_level_2", "political" ]
            },
            {
               "long_name" : "Rogaland",
               "short_name" : "Rogaland",
               "types" : [ "administrative_area_level_1", "political" ]
            },
            {
               "long_name" : "Norway",
               "short_name" : "NO",
               "types" : [ "country", "political" ]
            }
         ],
         "formatted_address" : "Stavanger Municipality, Norway",
         "geometry" : {
            "bounds" : {
               "northeast" : {
                  "lat" : 59.060162,
                  "lng" : 5.8634236
               },
               "southwest" : {
                  "lat" : 58.88465879999999,
                  "lng" : 5.565633
               }
            },
            "location" : {
               "lat" : 58.9666526,
               "lng" : 5.7166676
            },
            "location_type" : "APPROXIMATE",
            "viewport" : {
               "northeast" : {
                  "lat" : 59.060162,
                  "lng" : 5.8634236
               },
               "southwest" : {
                  "lat" : 58.88465879999999,
                  "lng" : 5.565633
               }
            }
         },
         "place_id" : "ChIJKUhVXszMO0YRlfJ9w4UpBbw",
         "types" : [ "administrative_area_level_2", "political" ]
      },
      {
         "address_components" : [
            {
               "long_name" : "Stavanger",
               "short_name" : "Stavanger",
               "types" : [ "postal_town" ]
            },
            {
               "long_name" : "Stavanger",
               "short_name" : "Stavanger",
               "types" : [ "administrative_area_level_2", "political" ]
            },
            {
               "long_name" : "Rogaland",
               "short_name" : "Rogaland",
               "types" : [ "administrative_area_level_1", "political" ]
            },
            {
               "long_name" : "Norway",
               "short_name" : "NO",
               "types" : [ "country", "political" ]
            },
            {
               "long_name" : "4012",
               "short_name" : "4012",
               "types" : [ "postal_code" ]
            }
         ],
         "formatted_address" : "4012 Stavanger, Norway",
         "geometry" : {
            "bounds" : {
               "northeast" : {
                  "lat" : 59.0327791,
                  "lng" : 5.863426899999999
               },
               "southwest" : {
                  "lat" : 58.8846894,
                  "lng" : 5.6474318
               }
            },
            "location" : {
               "lat" : 58.9423864,
               "lng" : 5.7449876
            },
            "location_type" : "APPROXIMATE",
            "viewport" : {
               "northeast" : {
                  "lat" : 59.0327791,
                  "lng" : 5.863426899999999
               },
               "southwest" : {
                  "lat" : 58.8846894,
                  "lng" : 5.6474318
               }
            }
         },
         "place_id" : "ChIJ3RDYYNM0OkYR32_Z2LfzOv4",
         "types" : [ "postal_town" ]
      },
      {
         "address_components" : [
            {
               "long_name" : "Rogaland",
               "short_name" : "Rogaland",
               "types" : [ "administrative_area_level_1", "political" ]
            },
            {
               "long_name" : "Norway",
               "short_name" : "NO",
               "types" : [ "country", "political" ]
            }
         ],
         "formatted_address" : "Rogaland, Norway",
         "geometry" : {
            "bounds" : {
               "northeast" : {
                  "lat" : 59.84457429999999,
                  "lng" : 7.214666799999999
               },
               "southwest" : {
                  "lat" : 58.0278536,
                  "lng" : 4.4542735
               }
            },
            "location" : {
               "lat" : 59.1489544,
               "lng" : 6.0143432
            },
            "location_type" : "APPROXIMATE",
            "viewport" : {
               "northeast" : {
                  "lat" : 59.84457429999999,
                  "lng" : 7.214666799999999
               },
               "southwest" : {
                  "lat" : 58.0278536,
                  "lng" : 4.4542735
               }
            }
         },
         "place_id" : "ChIJC9fcKj81OkYRvMAMC7ocBuA",
         "types" : [ "administrative_area_level_1", "political" ]
      },
      {
         "address_components" : [
            {
               "long_name" : "Norway",
               "short_name" : "NO",
               "types" : [ "country", "political" ]
            }
         ],
         "formatted_address" : "Norway",
         "geometry" : {
            "bounds" : {
               "northeast" : {
                  "lat" : 71.30780000000001,
                  "lng" : 31.3549999
               },
               "southwest" : {
                  "lat" : 57.8097,
                  "lng" : 4.0649
               }
            },
            "location" : {
               "lat" : 60.47202399999999,
               "lng" : 8.468945999999999
            },
            "location_type" : "APPROXIMATE",
            "viewport" : {
               "northeast" : {
                  "lat" : 71.30780000000001,
                  "lng" : 31.3549999
               },
               "southwest" : {
                  "lat" : 57.8097,
                  "lng" : 4.0649
               }
            }
         },
         "place_id" : "ChIJv-VNj0VoEkYRK9BkuJ07sKE",
         "types" : [ "country", "political" ]
      }
   ],
   "status" : "OK"
}
