{
   "results" : [
      {
         "address_components" : [
            {
               "long_name" : "Entrada Em Cali",
               "short_name" : "Ent. Em Cali",
               "types" : [ "route" ]
            },
            {
               "long_name" : "Cali",
               "short_name" : "Cali",
               "types" : [ "locality", "political" ]
            },
            {
               "long_name" : "Cali",
               "short_name" : "Cali",
               "types" : [ "administrative_area_level_2", "political" ]
            },
            {
               "long_name" : "Valle del Cauca",
               "short_name" : "Valle del Cauca",
               "types" : [ "administrative_area_level_1", "political" ]
            },
            {
               "long_name" : "Colombia",
               "short_name" : "CO",
               "types" : [ "country", "political" ]
            },
            {
               "long_name" : "760045",
               "short_name" : "760045",
               "types" : [ "postal_code" ]
            }
         ],
         "formatted_address" : "Ent. Em Cali, Cali, Valle del Cauca, Colombia",
         "geometry" : {
            "bounds" : {
               "northeast" : {
                  "lat" : 3.4550105,
                  "lng" : -76.53401339999999
               },
               "southwest" : {
                  "lat" : 3.4544235,
                  "lng" : -76.5350096
               }
            },
            "location" : {
               "lat" : 3.4546025,
               "lng" : -76.5344118
            },
            "location_type" : "GEOMETRIC_CENTER",
            "viewport" : {
               "northeast" : {
                  "lat" : 3.456065980291502,
                  "lng" : -76.53316251970848
               },
               "southwest" : {
                  "lat" : 3.453368019708498,
                  "lng" : -76.53586048029149
               }
            }
         },
         "place_id" : "ChIJb0efn2-mMI4R1u_VboB9SNU",
         "types" : [ "route" ]
      },
      {
         "address_components" : [
            {
               "long_name" : "San Pedro",
               "short_name" : "San Pedro",
               "types" : [ "political", "sublocality", "sublocality_level_1" ]
            },
            {
               "long_name" : "Cali",
               "short_name" : "Cali",
               "types" : [ "locality", "political" ]
            },
            {
               "long_name" : "Cali",
               "short_name" : "Cali",
               "types" : [ "administrative_area_level_2", "political" ]
            },
            {
               "long_name" : "Valle del Cauca",
               "short_name" : "Valle del Cauca",
               "types" : [ "administrative_area_level_1", "political" ]
            },
            {
               "long_name" : "Colombia",
               "short_name" : "CO",
               "types" : [ "country", "political" ]
            }
         ],
         "formatted_address" : "San Pedro, Cali, Valle del Cauca, Colombia",
         "geometry" : {
            "bounds" : {
               "northeast" : {
                  "lat" : 3.4572094,
                  "lng" : -76.52947429999999
               },
               "southwest" : {
                  "lat" : 3.4489311,
                  "lng" : -76.53812169999999
               }
            },
            "location" : {
               "lat" : 3.4529063,
               "lng" : -76.5336495
            },
            "location_type" : "APPROXIMATE",
            "viewport" : {
               "northeast" : {
                  "lat" : 3.4572094,
                  "lng" : -76.52947429999999
               },
               "southwest" : {
                  "lat" : 3.4489311,
                  "lng" : -76.53812169999999
               }
            }
         },
         "place_id" : "ChIJla6phWWmMI4R2Etpvw-5CIQ",
         "types" : [ "political", "sublocality", "sublocality_level_1" ]
      },
      {
         "address_components" : [
            {
               "long_name" : "Cali",
               "short_name" : "Cali",
               "types" : [ "locality", "political" ]
            },
            {
               "long_name" : "Cali",
               "short_name" : "Cali",
               "types" : [ "administrative_area_level_2", "political" ]
            },
            {
               "long_name" : "Valle del Cauca",
               "short_name" : "Valle del Cauca",
               "types" : [ "administrative_area_level_1", "political" ]
            },
            {
               "long_name" : "Colombia",
               "short_name" : "CO",
               "types" : [ "country", "political" ]
            }
         ],
         "formatted_address" : "Cali, Valle del Cauca, Colombia",
         "geometry" : {
            "bounds" : {
               "northeast" : {
                  "lat" : 3.505554,
                  "lng" : -76.46082489999999
               },
               "southwest" : {
                  "lat" : 3.2845748,
                  "lng" : -76.590503
               }
            },
            "location" : {
               "lat" : 3.4516467,
               "lng" : -76.5319854
            },
            "location_type" : "APPROXIMATE",
            "viewport" : {
               "northeast" : {
                  "lat" : 3.505554,
                  "lng" : -76.46082489999999
               },
               "southwest" : {
                  "lat" : 3.2845748,
                  "lng" : -76.590503
               }
            }
         },
         "place_id" : "ChIJ8bNLzPCmMI4RaGGuUum1Dx8",
         "types" : [ "locality", "political" ]
      },
      {
         "address_components" : [
            {
               "long_name" : "760045",
               "short_name" : "760045",
               "types" : [ "postal_code" ]
            },
            {
               "long_name" : "Cali",
               "short_name" : "Cali",
               "types" : [ "locality", "political" ]
            },
            {
               "long_name" : "Cali",
               "short_name" : "Cali",
               "types" : [ "administrative_area_level_2", "political" ]
            },
            {
               "long_name" : "Valle del Cauca",
               "short_name" : "Valle del Cauca",
               "types" : [ "administrative_area_level_1", "political" ]
            },
            {
               "long_name" : "Colombia",
               "short_name" : "CO",
               "types" : [ "country", "political" ]
            }
         ],
         "formatted_address" : "Cali, Valle del Cauca, Colombia",
         "geometry" : {
            "bounds" : {
               "northeast" : {
                  "lat" : 3.468232,
                  "lng" : -76.529155
               },
               "southwest" : {
                  "lat" : 3.445311,
                  "lng" : -76.59141289999999
               }
            },
            "location" : {
               "lat" : 3.4563251,
               "lng" : -76.55749299999999
            },
            "location_type" : "APPROXIMATE",
            "viewport" : {
               "northeast" : {
                  "lat" : 3.468232,
                  "lng" : -76.529155
               },
               "southwest" : {
                  "lat" : 3.445311,
                  "lng" : -76.59141289999999
               }
            }
         },
         "place_id" : "ChIJqZrpLNulMI4RN-R6i7UqwZE",
         "types" : [ "postal_code" ]
      },
      {
         "address_components" : [
            {
               "long_name" : "Cali",
               "short_name" : "Cali",
               "types" : [ "administrative_area_level_2", "political" ]
            },
            {
               "long_name" : "Valle del Cauca",
               "short_name" : "Valle del Cauca",
               "types" : [ "administrative_area_level_1", "political" ]
            },
            {
               "long_name" : "Colombia",
               "short_name" : "CO",
               "types" : [ "country", "political" ]
            }
         ],
         "formatted_address" : "Cali, Valle del Cauca, Colombia",
         "geometry" : {
            "bounds" : {
               "northeast" : {
                  "lat" : 3.5476371,
                  "lng" : -76.458855
               },
               "southwest" : {
                  "lat" : 3.273552,
                  "lng" : -76.7073891
               }
            },
            "location" : {
               "lat" : 3.45246,
               "lng" : -76.535758
            },
            "location_type" : "APPROXIMATE",
            "viewport" : {
               "northeast" : {
                  "lat" : 3.5476371,
                  "lng" : -76.458855
               },
               "southwest" : {
                  "lat" : 3.273552,
                  "lng" : -76.7073891
               }
            }
         },
         "place_id" : "ChIJESedtkOmMI4R--NFJ63l3jc",
         "types" : [ "administrative_area_level_2", "political" ]
      },
      {
         "address_components" : [
            {
               "long_name" : "Valle del Cauca",
               "short_name" : "Valle del Cauca",
               "types" : [ "administrative_area_level_1", "political" ]
            },
            {
               "long_name" : "Colombia",
               "short_name" : "CO",
               "types" : [ "country", "political" ]
            }
         ],
         "formatted_address" : "Valle del Cauca, Colombia",
         "geometry" : {
            "bounds" : {
               "northeast" : {
                  "lat" : 5.015258,
                  "lng" : -75.704875
               },
               "southwest" : {
                  "lat" : 3.0615429,
                  "lng" : -77.5532631
               }
            },
            "location" : {
               "lat" : 3.8008893,
               "lng" : -76.64127119999999
            },
            "location_type" : "APPROXIMATE",
            "viewport" : {
               "northeast" : {
                  "lat" : 5.015258,
                  "lng" : -75.704875
               },
               "southwest" : {
                  "lat" : 3.0615429,
                  "lng" : -77.5532631
               }
            }
         },
         "place_id" : "ChIJj0EMhiryNo4RoExlemHhg-s",
         "types" : [ "administrative_area_level_1", "political" ]
      },
      {
         "address_components" : [
            {
               "long_name" : "Colombia",
               "short_name" : "CO",
               "types" : [ "country", "political" ]
            }
         ],
         "formatted_address" : "Colombia",
         "geometry" : {
            "bounds" : {
               "northeast" : {
                  "lat" : 13.5177999,
                  "lng" : -66.8463122
               },
               "southwest" : {
                  "lat" : -4.227109899999999,
                  "lng" : -81.8317
               }
            },
            "location" : {
               "lat" : 4.570868,
               "lng" : -74.29733299999999
            },
            "location_type" : "APPROXIMATE",
            "viewport" : {
               "northeast" : {
                  "lat" : 13.5177999,
                  "lng" : -66.8463122
               },
               "southwest" : {
                  "lat" : -4.227109899999999,
                  "lng" : -81.8317
               }
            }
         },
         "place_id" : "ChIJo5QVrjqkFY4RQKPy7wSaDZo",
         "types" : [ "country", "political" ]
      }
   ],
   "status" : "OK"
}
