{
   "plus_code" : {
      "compound_code" : "M5WG+GH Nancy, France",
      "global_code" : "8FW8M5WG+GH"
   },
   "results" : [
      {
         "address_components" : [
            {
               "long_name" : "34",
               "short_name" : "34",
               "types" : [ "street_number" ]
            },
            {
               "long_name" : "Cours Léopold",
               "short_name" : "Cours Léopold",
               "types" : [ "route" ]
            },
            {
               "long_name" : "Nancy",
               "short_name" : "Nancy",
               "types" : [ "locality", "political" ]
            },
            {
               "long_name" : "Meurthe-et-Moselle",
               "short_name" : "Meurthe-et-Moselle",
               "types" : [ "administrative_area_level_2", "political" ]
            },
            {
               "long_name" : "Grand Est",
               "short_name" : "Grand Est",
               "types" : [ "administrative_area_level_1", "political" ]
            },
            {
               "long_name" : "France",
               "short_name" : "FR",
               "types" : [ "country", "political" ]
            },
            {
               "long_name" : "54000",
               "short_name" : "54000",
               "types" : [ "postal_code" ]
            }
         ],
         "formatted_address" : "34 Cours Léopold, 54000 Nancy, France",
         "geometry" : {
            "location" : {
               "lat" : 48.6962743,
               "lng" : 6.1764664
            },
            "location_type" : "ROOFTOP",
            "viewport" : {
               "northeast" : {
                  "lat" : 48.6976232802915,
                  "lng" : 6.177815380291502
               },
               "southwest" : {
                  "lat" : 48.6949253197085,
                  "lng" : 6.175117419708497
               }
            }
         },
         "place_id" : "ChIJ-7wbkwyYlEcRkJAIZsgszRw",
         "plus_code" : {
            "compound_code" : "M5WG+GH Nancy, France",
            "global_code" : "8FW8M5WG+GH"
         },
         "types" : [ "establishment", "point_of_interest", "university" ]
      },
      {
         "address_components" : [
            {
               "long_name" : "34",
               "short_name" : "34",
               "types" : [ "street_number" ]
            },
            {
               "long_name" : "Cours Léopold",
               "short_name" : "Cours Léopold",
               "types" : [ "route" ]
            },
            {
               "long_name" : "Nancy",
               "short_name" : "Nancy",
               "types" : [ "locality", "political" ]
            },
            {
               "long_name" : "Meurthe-et-Moselle",
               "short_name" : "Meurthe-et-Moselle",
               "types" : [ "administrative_area_level_2", "political" ]
            },
            {
               "long_name" : "Grand Est",
               "short_name" : "Grand Est",
               "types" : [ "administrative_area_level_1", "political" ]
            },
            {
               "long_name" : "France",
               "short_name" : "FR",
               "types" : [ "country", "political" ]
            },
            {
               "long_name" : "54000",
               "short_name" : "54000",
               "types" : [ "postal_code" ]
            }
         ],
         "formatted_address" : "34 Cours Léopold, 54000 Nancy, France",
         "geometry" : {
            "location" : {
               "lat" : 48.6962743,
               "lng" : 6.1764664
            },
            "location_type" : "ROOFTOP",
            "viewport" : {
               "northeast" : {
                  "lat" : 48.6976232802915,
                  "lng" : 6.177815380291502
               },
               "southwest" : {
                  "lat" : 48.6949253197085,
                  "lng" : 6.175117419708497
               }
            }
         },
         "place_id" : "ChIJ-7wbkwyYlEcRxH2_CXaw8cw",
         "plus_code" : {
            "compound_code" : "M5WG+GH Nancy, France",
            "global_code" : "8FW8M5WG+GH"
         },
         "types" : [ "street_address" ]
      },
      {
         "address_components" : [
            {
               "long_name" : "34",
               "short_name" : "34",
               "types" : [ "street_number" ]
            },
            {
               "long_name" : "Cours Léopold",
               "short_name" : "Cours Léopold",
               "types" : [ "route" ]
            },
            {
               "long_name" : "Nancy",
               "short_name" : "Nancy",
               "types" : [ "locality", "political" ]
            },
            {
               "long_name" : "France",
               "short_name" : "FR",
               "types" : [ "country", "political" ]
            },
            {
               "long_name" : "54000",
               "short_name" : "54000",
               "types" : [ "postal_code" ]
            }
         ],
         "formatted_address" : "34 Cours Léopold, 54000 Nancy, France",
         "geometry" : {
            "location" : {
               "lat" : 48.6961957,
               "lng" : 6.1762164
            },
            "location_type" : "RANGE_INTERPOLATED",
            "viewport" : {
               "northeast" : {
                  "lat" : 48.69754468029149,
                  "lng" : 6.177565380291503
               },
               "southwest" : {
                  "lat" : 48.69484671970849,
                  "lng" : 6.174867419708499
               }
            }
         },
         "place_id" : "EiYzNCBDb3VycyBMw6lvcG9sZCwgNTQwMDAgTmFuY3ksIEZyYW5jZSIaEhgKFAoSCZsiFJQMmJRHEffHUq7UWmXvECI",
         "types" : [ "street_address" ]
      },
      {
         "address_components" : [
            {
               "long_name" : "54000",
               "short_name" : "54000",
               "types" : [ "postal_code" ]
            },
            {
               "long_name" : "Nancy",
               "short_name" : "Nancy",
               "types" : [ "locality", "political" ]
            },
            {
               "long_name" : "Meurthe-et-Moselle",
               "short_name" : "Meurthe-et-Moselle",
               "types" : [ "administrative_area_level_2", "political" ]
            },
            {
               "long_name" : "Grand Est",
               "short_name" : "Grand Est",
               "types" : [ "administrative_area_level_1", "political" ]
            },
            {
               "long_name" : "France",
               "short_name" : "FR",
               "types" : [ "country", "political" ]
            }
         ],
         "formatted_address" : "54000 Nancy, France",
         "geometry" : {
            "bounds" : {
               "northeast" : {
                  "lat" : 48.70924189999999,
                  "lng" : 6.2126679
               },
               "southwest" : {
                  "lat" : 48.6668706,
                  "lng" : 6.1342325
               }
            },
            "location" : {
               "lat" : 48.6896459,
               "lng" : 6.1737197
            },
            "location_type" : "APPROXIMATE",
            "viewport" : {
               "northeast" : {
                  "lat" : 48.70924189999999,
                  "lng" : 6.2126679
               },
               "southwest" : {
                  "lat" : 48.6668706,
                  "lng" : 6.1342325
               }
            }
         },
         "place_id" : "ChIJk_RcM3GYlEcR4LNxAL1fChw",
         "types" : [ "postal_code" ]
      },
      {
         "address_components" : [
            {
               "long_name" : "Nancy",
               "short_name" : "Nancy",
               "types" : [ "locality", "political" ]
            },
            {
               "long_name" : "Meurthe-et-Moselle",
               "short_name" : "Meurthe-et-Moselle",
               "types" : [ "administrative_area_level_2", "political" ]
            },
            {
               "long_name" : "Grand Est",
               "short_name" : "Grand Est",
               "types" : [ "administrative_area_level_1", "political" ]
            },
            {
               "long_name" : "France",
               "short_name" : "FR",
               "types" : [ "country", "political" ]
            }
         ],
         "formatted_address" : "Nancy, France",
         "geometry" : {
            "bounds" : {
               "northeast" : {
                  "lat" : 48.7092969,
                  "lng" : 6.2126329
               },
               "southwest" : {
                  "lat" : 48.66686499999999,
                  "lng" : 6.134240999999999
               }
            },
            "location" : {
               "lat" : 48.692054,
               "lng" : 6.184417
            },
            "location_type" : "APPROXIMATE",
            "viewport" : {
               "northeast" : {
                  "lat" : 48.7092969,
                  "lng" : 6.2126329
               },
               "southwest" : {
                  "lat" : 48.66686499999999,
                  "lng" : 6.134240999999999
               }
            }
         },
         "place_id" : "ChIJzZKmF26YlEcRjUmCDbFx1k4",
         "types" : [ "locality", "political" ]
      },
      {
         "address_components" : [
            {
               "long_name" : "Meurthe-et-Moselle",
               "short_name" : "Meurthe-et-Moselle",
               "types" : [ "administrative_area_level_2", "political" ]
            },
            {
               "long_name" : "Grand Est",
               "short_name" : "Grand Est",
               "types" : [ "administrative_area_level_1", "political" ]
            },
            {
               "long_name" : "France",
               "short_name" : "FR",
               "types" : [ "country", "political" ]
            }
         ],
         "formatted_address" : "Meurthe-et-Moselle, France",
         "geometry" : {
            "bounds" : {
               "northeast" : {
                  "lat" : 49.56326800000001,
                  "lng" : 7.123213100000001
               },
               "southwest" : {
                  "lat" : 48.348987,
                  "lng" : 5.426108
               }
            },
            "location" : {
               "lat" : 48.7997007,
               "lng" : 6.094701400000001
            },
            "location_type" : "APPROXIMATE",
            "viewport" : {
               "northeast" : {
                  "lat" : 49.56326800000001,
                  "lng" : 7.123213100000001
               },
               "southwest" : {
                  "lat" : 48.348987,
                  "lng" : 5.426108
               }
            }
         },
         "place_id" : "ChIJ2QzP5IHplEcR4Cg3mrlfCgM",
         "types" : [ "administrative_area_level_2", "political" ]
      },
      {
         "address_components" : [
            {
               "long_name" : "Grand Est",
               "short_name" : "Grand Est",
               "types" : [ "administrative_area_level_1", "political" ]
            },
            {
               "long_name" : "France",
               "short_name" : "FR",
               "types" : [ "country", "political" ]
            }
         ],
         "formatted_address" : "Grand Est, France",
         "geometry" : {
            "bounds" : {
               "northeast" : {
                  "lat" : 50.169162,
                  "lng" : 8.233549099999999
               },
               "southwest" : {
                  "lat" : 47.4202619,
                  "lng" : 3.3836479
               }
            },
            "location" : {
               "lat" : 48.699803,
               "lng" : 6.1878074
            },
            "location_type" : "APPROXIMATE",
            "viewport" : {
               "northeast" : {
                  "lat" : 50.169162,
                  "lng" : 8.233549099999999
               },
               "southwest" : {
                  "lat" : 47.4202619,
                  "lng" : 3.3836479
               }
            }
         },
         "place_id" : "ChIJsbWPxd9VkUcR_RfRz30ZyLk",
         "types" : [ "administrative_area_level_1", "political" ]
      },
      {
         "address_components" : [
            {
               "long_name" : "France",
               "short_name" : "FR",
               "types" : [ "country", "political" ]
            }
         ],
         "formatted_address" : "France",
         "geometry" : {
            "bounds" : {
               "northeast" : {
                  "lat" : 51.1241999,
                  "lng" : 9.6624999
               },
               "southwest" : {
                  "lat" : 41.31433,
                  "lng" : -5.5591
               }
            },
            "location" : {
               "lat" : 46.227638,
               "lng" : 2.213749
            },
            "location_type" : "APPROXIMATE",
            "viewport" : {
               "northeast" : {
                  "lat" : 51.1241999,
                  "lng" : 9.6624999
               },
               "southwest" : {
                  "lat" : 41.31433,
                  "lng" : -5.5591
               }
            }
         },
         "place_id" : "ChIJMVd4MymgVA0R99lHx5Y__Ws",
         "types" : [ "country", "political" ]
      }
   ],
   "status" : "OK"
}
