{
   "plus_code" : {
      "compound_code" : "47HX+39 Rennes, France",
      "global_code" : "8CWW47HX+39"
   },
   "results" : [
      {
         "address_components" : [
            {
               "long_name" : "17",
               "short_name" : "17",
               "types" : [ "street_number" ]
            },
            {
               "long_name" : "Avenue de Cucillé",
               "short_name" : "Avenue de Cucillé",
               "types" : [ "route" ]
            },
            {
               "long_name" : "Rennes",
               "short_name" : "Rennes",
               "types" : [ "locality", "political" ]
            },
            {
               "long_name" : "Ille-et-Vilaine",
               "short_name" : "Ille-et-Vilaine",
               "types" : [ "administrative_area_level_2", "political" ]
            },
            {
               "long_name" : "Bretagne",
               "short_name" : "Bretagne",
               "types" : [ "administrative_area_level_1", "political" ]
            },
            {
               "long_name" : "France",
               "short_name" : "FR",
               "types" : [ "country", "political" ]
            },
            {
               "long_name" : "35000",
               "short_name" : "35000",
               "types" : [ "postal_code" ]
            }
         ],
         "formatted_address" : "17 Avenue de Cucillé, 35000 Rennes, France",
         "geometry" : {
            "location" : {
               "lat" : 48.1276403,
               "lng" : -1.7015452
            },
            "location_type" : "ROOFTOP",
            "viewport" : {
               "northeast" : {
                  "lat" : 48.12898928029149,
                  "lng" : -1.700196219708498
               },
               "southwest" : {
                  "lat" : 48.1262913197085,
                  "lng" : -1.702894180291502
               }
            }
         },
         "place_id" : "ChIJudesxaHgDkgROaSggjt-FpI",
         "plus_code" : {
            "compound_code" : "47HX+39 Rennes, France",
            "global_code" : "8CWW47HX+39"
         },
         "types" : [ "street_address" ]
      },
      {
         "address_components" : [
            {
               "long_name" : "17",
               "short_name" : "17",
               "types" : [ "street_number" ]
            },
            {
               "long_name" : "Avenue de Cucillé",
               "short_name" : "Avenue de Cucillé",
               "types" : [ "route" ]
            },
            {
               "long_name" : "Rennes",
               "short_name" : "Rennes",
               "types" : [ "locality", "political" ]
            },
            {
               "long_name" : "Ille-et-Vilaine",
               "short_name" : "Ille-et-Vilaine",
               "types" : [ "administrative_area_level_2", "political" ]
            },
            {
               "long_name" : "Bretagne",
               "short_name" : "Bretagne",
               "types" : [ "administrative_area_level_1", "political" ]
            },
            {
               "long_name" : "France",
               "short_name" : "FR",
               "types" : [ "country", "political" ]
            },
            {
               "long_name" : "35000",
               "short_name" : "35000",
               "types" : [ "postal_code" ]
            }
         ],
         "formatted_address" : "17 Avenue de Cucillé, 35000 Rennes, France",
         "geometry" : {
            "location" : {
               "lat" : 48.1276403,
               "lng" : -1.7015452
            },
            "location_type" : "ROOFTOP",
            "viewport" : {
               "northeast" : {
                  "lat" : 48.12898928029149,
                  "lng" : -1.700196219708498
               },
               "southwest" : {
                  "lat" : 48.1262913197085,
                  "lng" : -1.702894180291502
               }
            }
         },
         "place_id" : "ChIJ03Q_2aHgDkgRePdgDGYa3P0",
         "plus_code" : {
            "compound_code" : "47HX+39 Rennes, France",
            "global_code" : "8CWW47HX+39"
         },
         "types" : [ "establishment", "point_of_interest" ]
      },
      {
         "address_components" : [
            {
               "long_name" : "17",
               "short_name" : "17",
               "types" : [ "street_number" ]
            },
            {
               "long_name" : "Avenue de Cucillé",
               "short_name" : "Avenue de Cucillé",
               "types" : [ "route" ]
            },
            {
               "long_name" : "Rennes",
               "short_name" : "Rennes",
               "types" : [ "locality", "political" ]
            },
            {
               "long_name" : "France",
               "short_name" : "FR",
               "types" : [ "country", "political" ]
            },
            {
               "long_name" : "35000",
               "short_name" : "35000",
               "types" : [ "postal_code" ]
            }
         ],
         "formatted_address" : "17 Avenue de Cucillé, 35000 Rennes, France",
         "geometry" : {
            "location" : {
               "lat" : 48.1281499,
               "lng" : -1.7016933
            },
            "location_type" : "RANGE_INTERPOLATED",
            "viewport" : {
               "northeast" : {
                  "lat" : 48.1294988802915,
                  "lng" : -1.700344319708498
               },
               "southwest" : {
                  "lat" : 48.1268009197085,
                  "lng" : -1.703042280291502
               }
            }
         },
         "place_id" : "EisxNyBBdmVudWUgZGUgQ3VjaWxsw6ksIDM1MDAwIFJlbm5lcywgRnJhbmNlIhoSGAoUChIJb48n76HgDkgRaZhBcFxQg1MQEQ",
         "types" : [ "street_address" ]
      },
      {
         "address_components" : [
            {
               "long_name" : "Villejean Beauregard",
               "short_name" : "Villejean Beauregard",
               "types" : [ "neighborhood", "political" ]
            },
            {
               "long_name" : "Rennes",
               "short_name" : "Rennes",
               "types" : [ "locality", "political" ]
            },
            {
               "long_name" : "Ille-et-Vilaine",
               "short_name" : "Ille-et-Vilaine",
               "types" : [ "administrative_area_level_2", "political" ]
            },
            {
               "long_name" : "Bretagne",
               "short_name" : "Bretagne",
               "types" : [ "administrative_area_level_1", "political" ]
            },
            {
               "long_name" : "France",
               "short_name" : "FR",
               "types" : [ "country", "political" ]
            }
         ],
         "formatted_address" : "Villejean Beauregard, Rennes, France",
         "geometry" : {
            "bounds" : {
               "northeast" : {
                  "lat" : 48.146627,
                  "lng" : -1.6882149
               },
               "southwest" : {
                  "lat" : 48.1115629,
                  "lng" : -1.736157
               }
            },
            "location" : {
               "lat" : 48.1321495,
               "lng" : -1.713818
            },
            "location_type" : "APPROXIMATE",
            "viewport" : {
               "northeast" : {
                  "lat" : 48.146627,
                  "lng" : -1.6882149
               },
               "southwest" : {
                  "lat" : 48.1115629,
                  "lng" : -1.736157
               }
            }
         },
         "place_id" : "ChIJf3vuir3gDkgRF09ZaIWrDB4",
         "types" : [ "neighborhood", "political" ]
      },
      {
         "address_components" : [
            {
               "long_name" : "35000",
               "short_name" : "35000",
               "types" : [ "postal_code" ]
            },
            {
               "long_name" : "Rennes",
               "short_name" : "Rennes",
               "types" : [ "locality", "political" ]
            },
            {
               "long_name" : "Ille-et-Vilaine",
               "short_name" : "Ille-et-Vilaine",
               "types" : [ "administrative_area_level_2", "political" ]
            },
            {
               "long_name" : "Brittany",
               "short_name" : "Brittany",
               "types" : [ "administrative_area_level_1", "political" ]
            },
            {
               "long_name" : "France",
               "short_name" : "FR",
               "types" : [ "country", "political" ]
            }
         ],
         "formatted_address" : "35000 Rennes, France",
         "geometry" : {
            "bounds" : {
               "northeast" : {
                  "lat" : 48.14416199999999,
                  "lng" : -1.6245075
               },
               "southwest" : {
                  "lat" : 48.07989120000001,
                  "lng" : -1.752466
               }
            },
            "location" : {
               "lat" : 48.11734209999999,
               "lng" : -1.7075198
            },
            "location_type" : "APPROXIMATE",
            "viewport" : {
               "northeast" : {
                  "lat" : 48.14416199999999,
                  "lng" : -1.6245075
               },
               "southwest" : {
                  "lat" : 48.07989120000001,
                  "lng" : -1.752466
               }
            }
         },
         "place_id" : "ChIJ9VR4MizeDkgRkBz0dtClDBw",
         "types" : [ "postal_code" ]
      },
      {
         "address_components" : [
            {
               "long_name" : "Rennes",
               "short_name" : "Rennes",
               "types" : [ "locality", "political" ]
            },
            {
               "long_name" : "Ille-et-Vilaine",
               "short_name" : "Ille-et-Vilaine",
               "types" : [ "administrative_area_level_2", "political" ]
            },
            {
               "long_name" : "Brittany",
               "short_name" : "Brittany",
               "types" : [ "administrative_area_level_1", "political" ]
            },
            {
               "long_name" : "France",
               "short_name" : "FR",
               "types" : [ "country", "political" ]
            }
         ],
         "formatted_address" : "Rennes, France",
         "geometry" : {
            "bounds" : {
               "northeast" : {
                  "lat" : 48.1549701,
                  "lng" : -1.624367
               },
               "southwest" : {
                  "lat" : 48.076861,
                  "lng" : -1.752542
               }
            },
            "location" : {
               "lat" : 48.117266,
               "lng" : -1.6777926
            },
            "location_type" : "APPROXIMATE",
            "viewport" : {
               "northeast" : {
                  "lat" : 48.1549701,
                  "lng" : -1.624367
               },
               "southwest" : {
                  "lat" : 48.076861,
                  "lng" : -1.752542
               }
            }
         },
         "place_id" : "ChIJhZDWpy_eDkgRMKvkNs2lDAQ",
         "types" : [ "locality", "political" ]
      },
      {
         "address_components" : [
            {
               "long_name" : "Ille-et-Vilaine",
               "short_name" : "Ille-et-Vilaine",
               "types" : [ "administrative_area_level_2", "political" ]
            },
            {
               "long_name" : "Brittany",
               "short_name" : "Brittany",
               "types" : [ "administrative_area_level_1", "political" ]
            },
            {
               "long_name" : "France",
               "short_name" : "FR",
               "types" : [ "country", "political" ]
            }
         ],
         "formatted_address" : "Ille-et-Vilaine, France",
         "geometry" : {
            "bounds" : {
               "northeast" : {
                  "lat" : 48.721737,
                  "lng" : -1.0156211
               },
               "southwest" : {
                  "lat" : 47.631614,
                  "lng" : -2.289611
               }
            },
            "location" : {
               "lat" : 48.2292016,
               "lng" : -1.5300695
            },
            "location_type" : "APPROXIMATE",
            "viewport" : {
               "northeast" : {
                  "lat" : 48.721737,
                  "lng" : -1.0156211
               },
               "southwest" : {
                  "lat" : 47.631614,
                  "lng" : -2.289611
               }
            }
         },
         "place_id" : "ChIJDaUlkkvcDkgRsCffNs2lDAM",
         "types" : [ "administrative_area_level_2", "political" ]
      },
      {
         "address_components" : [
            {
               "long_name" : "Brittany",
               "short_name" : "Brittany",
               "types" : [ "administrative_area_level_1", "political" ]
            },
            {
               "long_name" : "France",
               "short_name" : "FR",
               "types" : [ "country", "political" ]
            }
         ],
         "formatted_address" : "Brittany, France",
         "geometry" : {
            "bounds" : {
               "northeast" : {
                  "lat" : 48.90094209999999,
                  "lng" : -1.015621
               },
               "southwest" : {
                  "lat" : 47.27785290000001,
                  "lng" : -5.141292099999999
               }
            },
            "location" : {
               "lat" : 48.2020471,
               "lng" : -2.9326435
            },
            "location_type" : "APPROXIMATE",
            "viewport" : {
               "northeast" : {
                  "lat" : 48.90094209999999,
                  "lng" : -1.015621
               },
               "southwest" : {
                  "lat" : 47.27785290000001,
                  "lng" : -5.141292099999999
               }
            }
         },
         "place_id" : "ChIJr45-rmHKEUgRsCTfNs2lDAE",
         "types" : [ "administrative_area_level_1", "political" ]
      },
      {
         "address_components" : [
            {
               "long_name" : "France",
               "short_name" : "FR",
               "types" : [ "country", "political" ]
            }
         ],
         "formatted_address" : "France",
         "geometry" : {
            "bounds" : {
               "northeast" : {
                  "lat" : 51.1241999,
                  "lng" : 9.6624999
               },
               "southwest" : {
                  "lat" : 41.31433,
                  "lng" : -5.5591
               }
            },
            "location" : {
               "lat" : 46.227638,
               "lng" : 2.213749
            },
            "location_type" : "APPROXIMATE",
            "viewport" : {
               "northeast" : {
                  "lat" : 51.1241999,
                  "lng" : 9.6624999
               },
               "southwest" : {
                  "lat" : 41.31433,
                  "lng" : -5.5591
               }
            }
         },
         "place_id" : "ChIJMVd4MymgVA0R99lHx5Y__Ws",
         "types" : [ "country", "political" ]
      }
   ],
   "status" : "OK"
}
