{
   "plus_code" : {
      "compound_code" : "JV8C+3H Montpellier, France",
      "global_code" : "8FM5JV8C+3H"
   },
   "results" : [
      {
         "address_components" : [
            {
               "long_name" : "163",
               "short_name" : "163",
               "types" : [ "street_number" ]
            },
            {
               "long_name" : "Rue Auguste Broussonnet",
               "short_name" : "Rue Auguste Broussonnet",
               "types" : [ "route" ]
            },
            {
               "long_name" : "Montpellier",
               "short_name" : "Montpellier",
               "types" : [ "locality", "political" ]
            },
            {
               "long_name" : "Hérault",
               "short_name" : "Hérault",
               "types" : [ "administrative_area_level_2", "political" ]
            },
            {
               "long_name" : "Occitanie",
               "short_name" : "Occitanie",
               "types" : [ "administrative_area_level_1", "political" ]
            },
            {
               "long_name" : "France",
               "short_name" : "FR",
               "types" : [ "country", "political" ]
            },
            {
               "long_name" : "34090",
               "short_name" : "34090",
               "types" : [ "postal_code" ]
            }
         ],
         "formatted_address" : "163 Rue Auguste Broussonnet, 34090 Montpellier, France",
         "geometry" : {
            "location" : {
               "lat" : 43.6152093,
               "lng" : 3.8713905
            },
            "location_type" : "ROOFTOP",
            "viewport" : {
               "northeast" : {
                  "lat" : 43.61655828029149,
                  "lng" : 3.872739480291502
               },
               "southwest" : {
                  "lat" : 43.6138603197085,
                  "lng" : 3.870041519708498
               }
            }
         },
         "place_id" : "ChIJ_cz7lwivthIRxYq5IoDLDhU",
         "plus_code" : {
            "compound_code" : "JV8C+3H Montpellier, France",
            "global_code" : "8FM5JV8C+3H"
         },
         "types" : [ "establishment", "point_of_interest", "university" ]
      },
      {
         "address_components" : [
            {
               "long_name" : "12",
               "short_name" : "12",
               "types" : [ "street_number" ]
            },
            {
               "long_name" : "Rue Bonnard",
               "short_name" : "Rue Bonnard",
               "types" : [ "route" ]
            },
            {
               "long_name" : "Montpellier",
               "short_name" : "Montpellier",
               "types" : [ "locality", "political" ]
            },
            {
               "long_name" : "Hérault",
               "short_name" : "Hérault",
               "types" : [ "administrative_area_level_2", "political" ]
            },
            {
               "long_name" : "Occitanie",
               "short_name" : "Occitanie",
               "types" : [ "administrative_area_level_1", "political" ]
            },
            {
               "long_name" : "France",
               "short_name" : "FR",
               "types" : [ "country", "political" ]
            },
            {
               "long_name" : "34090",
               "short_name" : "34090",
               "types" : [ "postal_code" ]
            }
         ],
         "formatted_address" : "12 Rue Bonnard, 34090 Montpellier, France",
         "geometry" : {
            "location" : {
               "lat" : 43.6154888,
               "lng" : 3.8706608
            },
            "location_type" : "ROOFTOP",
            "viewport" : {
               "northeast" : {
                  "lat" : 43.6168377802915,
                  "lng" : 3.872009780291502
               },
               "southwest" : {
                  "lat" : 43.61413981970851,
                  "lng" : 3.869311819708497
               }
            }
         },
         "place_id" : "ChIJsRbaAQSvthIRW962RUUeIJ0",
         "plus_code" : {
            "compound_code" : "JV8C+57 Montpellier, France",
            "global_code" : "8FM5JV8C+57"
         },
         "types" : [ "street_address" ]
      },
      {
         "address_components" : [
            {
               "long_name" : "13",
               "short_name" : "13",
               "types" : [ "street_number" ]
            },
            {
               "long_name" : "Rue Bonnard",
               "short_name" : "Rue Bonnard",
               "types" : [ "route" ]
            },
            {
               "long_name" : "Montpellier",
               "short_name" : "Montpellier",
               "types" : [ "locality", "political" ]
            },
            {
               "long_name" : "France",
               "short_name" : "FR",
               "types" : [ "country", "political" ]
            },
            {
               "long_name" : "34000",
               "short_name" : "34000",
               "types" : [ "postal_code" ]
            }
         ],
         "formatted_address" : "13 Rue Bonnard, 34000 Montpellier, France",
         "geometry" : {
            "location" : {
               "lat" : 43.6156318,
               "lng" : 3.8707378
            },
            "location_type" : "RANGE_INTERPOLATED",
            "viewport" : {
               "northeast" : {
                  "lat" : 43.61698078029149,
                  "lng" : 3.872086780291502
               },
               "southwest" : {
                  "lat" : 43.61428281970849,
                  "lng" : 3.869388819708497
               }
            }
         },
         "place_id" : "EikxMyBSdWUgQm9ubmFyZCwgMzQwMDAgTW9udHBlbGxpZXIsIEZyYW5jZSIaEhgKFAoSCTm8zP8Dr7YSERi5jKrUX1TrEA0",
         "types" : [ "street_address" ]
      },
      {
         "address_components" : [
            {
               "long_name" : "34090",
               "short_name" : "34090",
               "types" : [ "postal_code" ]
            },
            {
               "long_name" : "Montpellier",
               "short_name" : "Montpellier",
               "types" : [ "locality", "political" ]
            },
            {
               "long_name" : "Hérault",
               "short_name" : "Hérault",
               "types" : [ "administrative_area_level_2", "political" ]
            },
            {
               "long_name" : "Occitanie",
               "short_name" : "Occitanie",
               "types" : [ "administrative_area_level_1", "political" ]
            },
            {
               "long_name" : "France",
               "short_name" : "FR",
               "types" : [ "country", "political" ]
            }
         ],
         "formatted_address" : "34090 Montpellier, France",
         "geometry" : {
            "bounds" : {
               "northeast" : {
                  "lat" : 43.6534408,
                  "lng" : 3.8945266
               },
               "southwest" : {
                  "lat" : 43.612405,
                  "lng" : 3.82345
               }
            },
            "location" : {
               "lat" : 43.6348676,
               "lng" : 3.8604402
            },
            "location_type" : "APPROXIMATE",
            "viewport" : {
               "northeast" : {
                  "lat" : 43.6534408,
                  "lng" : 3.8945266
               },
               "southwest" : {
                  "lat" : 43.612405,
                  "lng" : 3.82345
               }
            }
         },
         "place_id" : "ChIJw-EOSdyuthIRAOOMaSSIBxw",
         "types" : [ "postal_code" ]
      },
      {
         "address_components" : [
            {
               "long_name" : "Montpellier",
               "short_name" : "Montpellier",
               "types" : [ "locality", "political" ]
            },
            {
               "long_name" : "Hérault",
               "short_name" : "Hérault",
               "types" : [ "administrative_area_level_2", "political" ]
            },
            {
               "long_name" : "Occitanie",
               "short_name" : "Occitanie",
               "types" : [ "administrative_area_level_1", "political" ]
            },
            {
               "long_name" : "France",
               "short_name" : "FR",
               "types" : [ "country", "political" ]
            }
         ],
         "formatted_address" : "Montpellier, France",
         "geometry" : {
            "bounds" : {
               "northeast" : {
                  "lat" : 43.6532999,
                  "lng" : 3.941279
               },
               "southwest" : {
                  "lat" : 43.566744,
                  "lng" : 3.807044
               }
            },
            "location" : {
               "lat" : 43.610769,
               "lng" : 3.876716
            },
            "location_type" : "APPROXIMATE",
            "viewport" : {
               "northeast" : {
                  "lat" : 43.6532999,
                  "lng" : 3.941279
               },
               "southwest" : {
                  "lat" : 43.566744,
                  "lng" : 3.807044
               }
            }
         },
         "place_id" : "ChIJsZ3dJQevthIRAuiUKHRWh60",
         "types" : [ "locality", "political" ]
      },
      {
         "address_components" : [
            {
               "long_name" : "Hérault",
               "short_name" : "Hérault",
               "types" : [ "administrative_area_level_2", "political" ]
            },
            {
               "long_name" : "Occitanie",
               "short_name" : "Occitanie",
               "types" : [ "administrative_area_level_1", "political" ]
            },
            {
               "long_name" : "France",
               "short_name" : "FR",
               "types" : [ "country", "political" ]
            }
         ],
         "formatted_address" : "Hérault, France",
         "geometry" : {
            "bounds" : {
               "northeast" : {
                  "lat" : 43.9727599,
                  "lng" : 4.1945401
               },
               "southwest" : {
                  "lat" : 43.2102099,
                  "lng" : 2.539549
               }
            },
            "location" : {
               "lat" : 43.5912356,
               "lng" : 3.2583626
            },
            "location_type" : "APPROXIMATE",
            "viewport" : {
               "northeast" : {
                  "lat" : 43.9727599,
                  "lng" : 4.1945401
               },
               "southwest" : {
                  "lat" : 43.2102099,
                  "lng" : 2.539549
               }
            }
         },
         "place_id" : "ChIJ7TGrfiZmsRIRoCdlFiGIBwM",
         "types" : [ "administrative_area_level_2", "political" ]
      },
      {
         "address_components" : [
            {
               "long_name" : "Occitanie",
               "short_name" : "Occitanie",
               "types" : [ "administrative_area_level_1", "political" ]
            },
            {
               "long_name" : "France",
               "short_name" : "FR",
               "types" : [ "country", "political" ]
            }
         ],
         "formatted_address" : "Occitanie, France",
         "geometry" : {
            "bounds" : {
               "northeast" : {
                  "lat" : 45.046684,
                  "lng" : 4.8455639
               },
               "southwest" : {
                  "lat" : 42.333014,
                  "lng" : -0.327159
               }
            },
            "location" : {
               "lat" : 43.8927232,
               "lng" : 3.2827625
            },
            "location_type" : "APPROXIMATE",
            "viewport" : {
               "northeast" : {
                  "lat" : 45.046684,
                  "lng" : 4.8455639
               },
               "southwest" : {
                  "lat" : 42.333014,
                  "lng" : -0.327159
               }
            }
         },
         "place_id" : "ChIJR21206wDshIRXMk7aLMSs6s",
         "types" : [ "administrative_area_level_1", "political" ]
      },
      {
         "address_components" : [
            {
               "long_name" : "France",
               "short_name" : "FR",
               "types" : [ "country", "political" ]
            }
         ],
         "formatted_address" : "France",
         "geometry" : {
            "bounds" : {
               "northeast" : {
                  "lat" : 51.1241999,
                  "lng" : 9.6624999
               },
               "southwest" : {
                  "lat" : 41.31433,
                  "lng" : -5.5591
               }
            },
            "location" : {
               "lat" : 46.227638,
               "lng" : 2.213749
            },
            "location_type" : "APPROXIMATE",
            "viewport" : {
               "northeast" : {
                  "lat" : 51.1241999,
                  "lng" : 9.6624999
               },
               "southwest" : {
                  "lat" : 41.31433,
                  "lng" : -5.5591
               }
            }
         },
         "place_id" : "ChIJMVd4MymgVA0R99lHx5Y__Ws",
         "types" : [ "country", "political" ]
      }
   ],
   "status" : "OK"
}
