{
   "plus_code" : {
      "compound_code" : "V86W+77 Paris, France",
      "global_code" : "8FW4V86W+77"
   },
   "results" : [
      {
         "address_components" : [
            {
               "long_name" : "35",
               "short_name" : "35",
               "types" : [ "street_number" ]
            },
            {
               "long_name" : "Rue Saint-Honoré",
               "short_name" : "Rue Saint-Honoré",
               "types" : [ "route" ]
            },
            {
               "long_name" : "Paris",
               "short_name" : "Paris",
               "types" : [ "locality", "political" ]
            },
            {
               "long_name" : "Paris",
               "short_name" : "Paris",
               "types" : [ "administrative_area_level_2", "political" ]
            },
            {
               "long_name" : "Île-de-France",
               "short_name" : "Île-de-France",
               "types" : [ "administrative_area_level_1", "political" ]
            },
            {
               "long_name" : "France",
               "short_name" : "FR",
               "types" : [ "country", "political" ]
            },
            {
               "long_name" : "75001",
               "short_name" : "75001",
               "types" : [ "postal_code" ]
            }
         ],
         "formatted_address" : "35 Rue Saint-Honoré, 75001 Paris, France",
         "geometry" : {
            "location" : {
               "lat" : 48.8607344,
               "lng" : 2.3456283
            },
            "location_type" : "ROOFTOP",
            "viewport" : {
               "northeast" : {
                  "lat" : 48.8620833802915,
                  "lng" : 2.346977280291502
               },
               "southwest" : {
                  "lat" : 48.8593854197085,
                  "lng" : 2.344279319708498
               }
            }
         },
         "place_id" : "ChIJDbS3Tx9u5kcRSAVN6GuZfRg",
         "plus_code" : {
            "compound_code" : "V86W+77 Paris, France",
            "global_code" : "8FW4V86W+77"
         },
         "types" : [ "street_address" ]
      },
      {
         "address_components" : [
            {
               "long_name" : "35",
               "short_name" : "35",
               "types" : [ "street_number" ]
            },
            {
               "long_name" : "Rue Saint Honoré",
               "short_name" : "Rue Saint Honoré",
               "types" : [ "route" ]
            },
            {
               "long_name" : "Paris",
               "short_name" : "Paris",
               "types" : [ "locality", "political" ]
            },
            {
               "long_name" : "Paris",
               "short_name" : "Paris",
               "types" : [ "administrative_area_level_2", "political" ]
            },
            {
               "long_name" : "Île-de-France",
               "short_name" : "Île-de-France",
               "types" : [ "administrative_area_level_1", "political" ]
            },
            {
               "long_name" : "France",
               "short_name" : "FR",
               "types" : [ "country", "political" ]
            },
            {
               "long_name" : "75001",
               "short_name" : "75001",
               "types" : [ "postal_code" ]
            }
         ],
         "formatted_address" : "35 Rue Saint Honoré, 75001 Paris, France",
         "geometry" : {
            "location" : {
               "lat" : 48.8607344,
               "lng" : 2.3456283
            },
            "location_type" : "ROOFTOP",
            "viewport" : {
               "northeast" : {
                  "lat" : 48.8620833802915,
                  "lng" : 2.346977280291502
               },
               "southwest" : {
                  "lat" : 48.8593854197085,
                  "lng" : 2.344279319708498
               }
            }
         },
         "place_id" : "ChIJa_2pTx9u5kcR1ssiR691CCY",
         "plus_code" : {
            "compound_code" : "V86W+77 Paris, France",
            "global_code" : "8FW4V86W+77"
         },
         "types" : [ "establishment", "food", "point_of_interest", "restaurant" ]
      },
      {
         "address_components" : [
            {
               "long_name" : "35",
               "short_name" : "35",
               "types" : [ "street_number" ]
            },
            {
               "long_name" : "Rue Saint-Honoré",
               "short_name" : "Rue Saint-Honoré",
               "types" : [ "route" ]
            },
            {
               "long_name" : "Paris",
               "short_name" : "Paris",
               "types" : [ "locality", "political" ]
            },
            {
               "long_name" : "France",
               "short_name" : "FR",
               "types" : [ "country", "political" ]
            },
            {
               "long_name" : "75001",
               "short_name" : "75001",
               "types" : [ "postal_code" ]
            }
         ],
         "formatted_address" : "35 Rue Saint-Honoré, 75001 Paris, France",
         "geometry" : {
            "location" : {
               "lat" : 48.8607784,
               "lng" : 2.3456837
            },
            "location_type" : "RANGE_INTERPOLATED",
            "viewport" : {
               "northeast" : {
                  "lat" : 48.8621273802915,
                  "lng" : 2.347032680291502
               },
               "southwest" : {
                  "lat" : 48.8594294197085,
                  "lng" : 2.344334719708498
               }
            }
         },
         "place_id" : "EikzNSBSdWUgU2FpbnQtSG9ub3LDqSwgNzUwMDEgUGFyaXMsIEZyYW5jZSIaEhgKFAoSCTHcVE4fbuZHEW-u9X2eTcB2ECM",
         "types" : [ "street_address" ]
      },
      {
         "address_components" : [
            {
               "long_name" : "Les Halles",
               "short_name" : "Les Halles",
               "types" : [ "neighborhood", "political" ]
            },
            {
               "long_name" : "Paris",
               "short_name" : "Paris",
               "types" : [ "locality", "political" ]
            },
            {
               "long_name" : "Paris",
               "short_name" : "Paris",
               "types" : [ "administrative_area_level_2", "political" ]
            },
            {
               "long_name" : "Île-de-France",
               "short_name" : "Île-de-France",
               "types" : [ "administrative_area_level_1", "political" ]
            },
            {
               "long_name" : "France",
               "short_name" : "FR",
               "types" : [ "country", "political" ]
            },
            {
               "long_name" : "75001",
               "short_name" : "75001",
               "types" : [ "postal_code" ]
            }
         ],
         "formatted_address" : "Les Halles, 75001 Paris, France",
         "geometry" : {
            "bounds" : {
               "northeast" : {
                  "lat" : 48.8652861,
                  "lng" : 2.350843
               },
               "southwest" : {
                  "lat" : 48.858474,
                  "lng" : 2.3407261
               }
            },
            "location" : {
               "lat" : 48.8623348,
               "lng" : 2.3447356
            },
            "location_type" : "APPROXIMATE",
            "viewport" : {
               "northeast" : {
                  "lat" : 48.8652861,
                  "lng" : 2.350843
               },
               "southwest" : {
                  "lat" : 48.858474,
                  "lng" : 2.3407261
               }
            }
         },
         "place_id" : "ChIJAUj4pRhu5kcR0uu9JKbatW4",
         "types" : [ "neighborhood", "political" ]
      },
      {
         "address_components" : [
            {
               "long_name" : "1st arrondissement",
               "short_name" : "1st arrondissement",
               "types" : [ "political", "sublocality", "sublocality_level_1" ]
            },
            {
               "long_name" : "Paris",
               "short_name" : "Paris",
               "types" : [ "locality", "political" ]
            },
            {
               "long_name" : "Paris",
               "short_name" : "Paris",
               "types" : [ "administrative_area_level_2", "political" ]
            },
            {
               "long_name" : "Île-de-France",
               "short_name" : "Île-de-France",
               "types" : [ "administrative_area_level_1", "political" ]
            },
            {
               "long_name" : "France",
               "short_name" : "FR",
               "types" : [ "country", "political" ]
            },
            {
               "long_name" : "75001",
               "short_name" : "75001",
               "types" : [ "postal_code" ]
            }
         ],
         "formatted_address" : "1st arrondissement, 75001 Paris, France",
         "geometry" : {
            "bounds" : {
               "northeast" : {
                  "lat" : 48.869911,
                  "lng" : 2.350928
               },
               "southwest" : {
                  "lat" : 48.854086,
                  "lng" : 2.320915
               }
            },
            "location" : {
               "lat" : 48.8640493,
               "lng" : 2.3310526
            },
            "location_type" : "APPROXIMATE",
            "viewport" : {
               "northeast" : {
                  "lat" : 48.869911,
                  "lng" : 2.350928
               },
               "southwest" : {
                  "lat" : 48.854086,
                  "lng" : 2.320915
               }
            }
         },
         "place_id" : "ChIJPStI0CVu5kcRUBqUaMOCCwU",
         "types" : [ "political", "sublocality", "sublocality_level_1" ]
      },
      {
         "address_components" : [
            {
               "long_name" : "75001",
               "short_name" : "75001",
               "types" : [ "postal_code" ]
            },
            {
               "long_name" : "Paris",
               "short_name" : "Paris",
               "types" : [ "locality", "political" ]
            },
            {
               "long_name" : "Paris",
               "short_name" : "Paris",
               "types" : [ "administrative_area_level_2", "political" ]
            },
            {
               "long_name" : "Île-de-France",
               "short_name" : "Île-de-France",
               "types" : [ "administrative_area_level_1", "political" ]
            },
            {
               "long_name" : "France",
               "short_name" : "FR",
               "types" : [ "country", "political" ]
            }
         ],
         "formatted_address" : "75001 Paris, France",
         "geometry" : {
            "bounds" : {
               "northeast" : {
                  "lat" : 48.86990900000001,
                  "lng" : 2.3509552
               },
               "southwest" : {
                  "lat" : 48.8540202,
                  "lng" : 2.3209301
               }
            },
            "location" : {
               "lat" : 48.8640493,
               "lng" : 2.3310526
            },
            "location_type" : "APPROXIMATE",
            "viewport" : {
               "northeast" : {
                  "lat" : 48.86990900000001,
                  "lng" : 2.3509552
               },
               "southwest" : {
                  "lat" : 48.8540202,
                  "lng" : 2.3209301
               }
            }
         },
         "place_id" : "ChIJPStI0CVu5kcRAFHY4caCCxw",
         "types" : [ "postal_code" ]
      },
      {
         "address_components" : [
            {
               "long_name" : "Paris",
               "short_name" : "Paris",
               "types" : [ "administrative_area_level_2", "political" ]
            },
            {
               "long_name" : "Paris",
               "short_name" : "Paris",
               "types" : [ "locality", "political" ]
            },
            {
               "long_name" : "Île-de-France",
               "short_name" : "Île-de-France",
               "types" : [ "administrative_area_level_1", "political" ]
            },
            {
               "long_name" : "France",
               "short_name" : "FR",
               "types" : [ "country", "political" ]
            }
         ],
         "formatted_address" : "Paris, France",
         "geometry" : {
            "bounds" : {
               "northeast" : {
                  "lat" : 48.9021449,
                  "lng" : 2.4699208
               },
               "southwest" : {
                  "lat" : 48.815573,
                  "lng" : 2.224199
               }
            },
            "location" : {
               "lat" : 48.8565823,
               "lng" : 2.3522148
            },
            "location_type" : "APPROXIMATE",
            "viewport" : {
               "northeast" : {
                  "lat" : 48.9021449,
                  "lng" : 2.4699208
               },
               "southwest" : {
                  "lat" : 48.815573,
                  "lng" : 2.224199
               }
            }
         },
         "place_id" : "ChIJD7fiBh9u5kcRMCqLaMOCCwM",
         "types" : [ "administrative_area_level_2", "political" ]
      },
      {
         "address_components" : [
            {
               "long_name" : "Paris",
               "short_name" : "Paris",
               "types" : [ "locality", "political" ]
            },
            {
               "long_name" : "Paris",
               "short_name" : "Paris",
               "types" : [ "administrative_area_level_2", "political" ]
            },
            {
               "long_name" : "Île-de-France",
               "short_name" : "Île-de-France",
               "types" : [ "administrative_area_level_1", "political" ]
            },
            {
               "long_name" : "France",
               "short_name" : "FR",
               "types" : [ "country", "political" ]
            }
         ],
         "formatted_address" : "Paris, France",
         "geometry" : {
            "bounds" : {
               "northeast" : {
                  "lat" : 48.9021449,
                  "lng" : 2.4699208
               },
               "southwest" : {
                  "lat" : 48.815573,
                  "lng" : 2.224199
               }
            },
            "location" : {
               "lat" : 48.856614,
               "lng" : 2.3522219
            },
            "location_type" : "APPROXIMATE",
            "viewport" : {
               "northeast" : {
                  "lat" : 48.9021449,
                  "lng" : 2.4699208
               },
               "southwest" : {
                  "lat" : 48.815573,
                  "lng" : 2.224199
               }
            }
         },
         "place_id" : "ChIJD7fiBh9u5kcRYJSMaMOCCwQ",
         "types" : [ "locality", "political" ]
      },
      {
         "address_components" : [
            {
               "long_name" : "Île-de-France",
               "short_name" : "Île-de-France",
               "types" : [ "administrative_area_level_1", "political" ]
            },
            {
               "long_name" : "France",
               "short_name" : "FR",
               "types" : [ "country", "political" ]
            }
         ],
         "formatted_address" : "Île-de-France, France",
         "geometry" : {
            "bounds" : {
               "northeast" : {
                  "lat" : 49.241504,
                  "lng" : 3.5590069
               },
               "southwest" : {
                  "lat" : 48.1200811,
                  "lng" : 1.44617
               }
            },
            "location" : {
               "lat" : 48.8499198,
               "lng" : 2.6370411
            },
            "location_type" : "APPROXIMATE",
            "viewport" : {
               "northeast" : {
                  "lat" : 49.241504,
                  "lng" : 3.5590069
               },
               "southwest" : {
                  "lat" : 48.1200811,
                  "lng" : 1.44617
               }
            }
         },
         "place_id" : "ChIJF4ymA8Th5UcRcCWLaMOCCwE",
         "types" : [ "administrative_area_level_1", "political" ]
      },
      {
         "address_components" : [
            {
               "long_name" : "France",
               "short_name" : "FR",
               "types" : [ "country", "political" ]
            }
         ],
         "formatted_address" : "France",
         "geometry" : {
            "bounds" : {
               "northeast" : {
                  "lat" : 51.1241999,
                  "lng" : 9.6624999
               },
               "southwest" : {
                  "lat" : 41.31433,
                  "lng" : -5.5591
               }
            },
            "location" : {
               "lat" : 46.227638,
               "lng" : 2.213749
            },
            "location_type" : "APPROXIMATE",
            "viewport" : {
               "northeast" : {
                  "lat" : 51.1241999,
                  "lng" : 9.6624999
               },
               "southwest" : {
                  "lat" : 41.31433,
                  "lng" : -5.5591
               }
            }
         },
         "place_id" : "ChIJMVd4MymgVA0R99lHx5Y__Ws",
         "types" : [ "country", "political" ]
      }
   ],
   "status" : "OK"
}
