{
   "plus_code" : {
      "compound_code" : "CV26+C3 Shimotsuke, Tochigi Prefecture, Japan",
      "global_code" : "8Q8XCV26+C3"
   },
   "results" : [
      {
         "address_components" : [
            {
               "long_name" : "3311-1",
               "short_name" : "3311-1",
               "types" : [ "premise" ]
            },
            {
               "long_name" : "Yakushiji",
               "short_name" : "Yakushiji",
               "types" : [ "political", "sublocality", "sublocality_level_2" ]
            },
            {
               "long_name" : "Shimotsuke",
               "short_name" : "Shimotsuke",
               "types" : [ "locality", "political" ]
            },
            {
               "long_name" : "Tochigi Prefecture",
               "short_name" : "Tochigi Prefecture",
               "types" : [ "administrative_area_level_1", "political" ]
            },
            {
               "long_name" : "Japan",
               "short_name" : "JP",
               "types" : [ "country", "political" ]
            },
            {
               "long_name" : "329-0498",
               "short_name" : "329-0498",
               "types" : [ "postal_code" ]
            }
         ],
         "formatted_address" : "3311-1 Yakushiji, Shimotsuke, Tochigi Prefecture 329-0498, Japan",
         "geometry" : {
            "location" : {
               "lat" : 36.4010411,
               "lng" : 139.8601784
            },
            "location_type" : "ROOFTOP",
            "viewport" : {
               "northeast" : {
                  "lat" : 36.4023900802915,
                  "lng" : 139.8615273802915
               },
               "southwest" : {
                  "lat" : 36.3996921197085,
                  "lng" : 139.8588294197085
               }
            }
         },
         "place_id" : "ChIJN75tdLZaH2ARuxl1qcVpJfQ",
         "plus_code" : {
            "compound_code" : "CV26+C3 Shimotsuke, Tochigi Prefecture, Japan",
            "global_code" : "8Q8XCV26+C3"
         },
         "types" : [ "establishment", "point_of_interest", "university" ]
      },
      {
         "address_components" : [
            {
               "long_name" : "3311-1",
               "short_name" : "3311-1",
               "types" : [ "premise" ]
            },
            {
               "long_name" : "Yakushiji",
               "short_name" : "Yakushiji",
               "types" : [ "political", "sublocality", "sublocality_level_2" ]
            },
            {
               "long_name" : "Shimotsuke-shi",
               "short_name" : "Shimotsuke-shi",
               "types" : [ "locality", "political" ]
            },
            {
               "long_name" : "Tochigi-ken",
               "short_name" : "Tochigi-ken",
               "types" : [ "administrative_area_level_1", "political" ]
            },
            {
               "long_name" : "Japan",
               "short_name" : "JP",
               "types" : [ "country", "political" ]
            },
            {
               "long_name" : "329-0431",
               "short_name" : "329-0431",
               "types" : [ "postal_code" ]
            }
         ],
         "formatted_address" : "3311-1 Yakushiji, Shimotsuke-shi, Tochigi-ken 329-0431, Japan",
         "geometry" : {
            "location" : {
               "lat" : 36.4000711,
               "lng" : 139.8605568
            },
            "location_type" : "ROOFTOP",
            "viewport" : {
               "northeast" : {
                  "lat" : 36.4014200802915,
                  "lng" : 139.8619057802915
               },
               "southwest" : {
                  "lat" : 36.3987221197085,
                  "lng" : 139.8592078197085
               }
            }
         },
         "place_id" : "ChIJOfTyEbZaH2ARc2N0BltpHNI",
         "plus_code" : {
            "compound_code" : "CV26+26 Shimotsuke, Tochigi Prefecture, Japan",
            "global_code" : "8Q8XCV26+26"
         },
         "types" : [ "street_address" ]
      },
      {
         "address_components" : [
            {
               "long_name" : "Unnamed Road",
               "short_name" : "Unnamed Road",
               "types" : [ "route" ]
            },
            {
               "long_name" : "Yakushiji",
               "short_name" : "Yakushiji",
               "types" : [ "political", "sublocality", "sublocality_level_2" ]
            },
            {
               "long_name" : "Shimotsuke-shi",
               "short_name" : "Shimotsuke-shi",
               "types" : [ "locality", "political" ]
            },
            {
               "long_name" : "Tochigi-ken",
               "short_name" : "Tochigi-ken",
               "types" : [ "administrative_area_level_1", "political" ]
            },
            {
               "long_name" : "Japan",
               "short_name" : "JP",
               "types" : [ "country", "political" ]
            },
            {
               "long_name" : "329-0431",
               "short_name" : "329-0431",
               "types" : [ "postal_code" ]
            }
         ],
         "formatted_address" : "Unnamed Road, Yakushiji, Shimotsuke-shi, Tochigi-ken 329-0431, Japan",
         "geometry" : {
            "bounds" : {
               "northeast" : {
                  "lat" : 36.4008459,
                  "lng" : 139.8607543
               },
               "southwest" : {
                  "lat" : 36.4005774,
                  "lng" : 139.8592657
               }
            },
            "location" : {
               "lat" : 36.4007116,
               "lng" : 139.86001
            },
            "location_type" : "GEOMETRIC_CENTER",
            "viewport" : {
               "northeast" : {
                  "lat" : 36.4020606302915,
                  "lng" : 139.8613589802915
               },
               "southwest" : {
                  "lat" : 36.3993626697085,
                  "lng" : 139.8586610197085
               }
            }
         },
         "place_id" : "ChIJ46My_slaH2ARani7is1d-2U",
         "types" : [ "route" ]
      },
      {
         "address_components" : [
            {
               "long_name" : "329-0431",
               "short_name" : "329-0431",
               "types" : [ "postal_code" ]
            },
            {
               "long_name" : "Yakushiji",
               "short_name" : "Yakushiji",
               "types" : [ "political", "sublocality", "sublocality_level_2" ]
            },
            {
               "long_name" : "Shimotsuke",
               "short_name" : "Shimotsuke",
               "types" : [ "locality", "political" ]
            },
            {
               "long_name" : "Tochigi Prefecture",
               "short_name" : "Tochigi Prefecture",
               "types" : [ "administrative_area_level_1", "political" ]
            },
            {
               "long_name" : "Japan",
               "short_name" : "JP",
               "types" : [ "country", "political" ]
            }
         ],
         "formatted_address" : "329-0431, Japan",
         "geometry" : {
            "bounds" : {
               "northeast" : {
                  "lat" : 36.4162608,
                  "lng" : 139.8885139
               },
               "southwest" : {
                  "lat" : 36.3805063,
                  "lng" : 139.8566639
               }
            },
            "location" : {
               "lat" : 36.400176,
               "lng" : 139.8700862
            },
            "location_type" : "APPROXIMATE",
            "viewport" : {
               "northeast" : {
                  "lat" : 36.4162608,
                  "lng" : 139.8885139
               },
               "southwest" : {
                  "lat" : 36.3805063,
                  "lng" : 139.8566639
               }
            }
         },
         "place_id" : "ChIJKTtjfphaH2ARYauredno-AU",
         "types" : [ "postal_code" ]
      },
      {
         "address_components" : [
            {
               "long_name" : "Yakushiji",
               "short_name" : "Yakushiji",
               "types" : [ "political", "sublocality", "sublocality_level_2" ]
            },
            {
               "long_name" : "Shimotsuke",
               "short_name" : "Shimotsuke",
               "types" : [ "locality", "political" ]
            },
            {
               "long_name" : "Tochigi Prefecture",
               "short_name" : "Tochigi Prefecture",
               "types" : [ "administrative_area_level_1", "political" ]
            },
            {
               "long_name" : "Japan",
               "short_name" : "JP",
               "types" : [ "country", "political" ]
            },
            {
               "long_name" : "329-0431",
               "short_name" : "329-0431",
               "types" : [ "postal_code" ]
            }
         ],
         "formatted_address" : "Yakushiji, Shimotsuke, Tochigi Prefecture 329-0431, Japan",
         "geometry" : {
            "bounds" : {
               "northeast" : {
                  "lat" : 36.4162608,
                  "lng" : 139.8885139
               },
               "southwest" : {
                  "lat" : 36.3805063,
                  "lng" : 139.8566639
               }
            },
            "location" : {
               "lat" : 36.3956388,
               "lng" : 139.8754672
            },
            "location_type" : "APPROXIMATE",
            "viewport" : {
               "northeast" : {
                  "lat" : 36.4162608,
                  "lng" : 139.8885139
               },
               "southwest" : {
                  "lat" : 36.3805063,
                  "lng" : 139.8566639
               }
            }
         },
         "place_id" : "ChIJ8f8d_bxaH2ARl-QWB3Vv3Ic",
         "types" : [ "political", "sublocality", "sublocality_level_2" ]
      },
      {
         "address_components" : [
            {
               "long_name" : "Shimotsuke",
               "short_name" : "Shimotsuke",
               "types" : [ "locality", "political" ]
            },
            {
               "long_name" : "Tochigi Prefecture",
               "short_name" : "Tochigi Prefecture",
               "types" : [ "administrative_area_level_1", "political" ]
            },
            {
               "long_name" : "Japan",
               "short_name" : "JP",
               "types" : [ "country", "political" ]
            }
         ],
         "formatted_address" : "Shimotsuke, Tochigi Prefecture, Japan",
         "geometry" : {
            "bounds" : {
               "northeast" : {
                  "lat" : 36.4880862,
                  "lng" : 139.9272025
               },
               "southwest" : {
                  "lat" : 36.3500676,
                  "lng" : 139.7984751
               }
            },
            "location" : {
               "lat" : 36.3951438,
               "lng" : 139.8520771
            },
            "location_type" : "APPROXIMATE",
            "viewport" : {
               "northeast" : {
                  "lat" : 36.4880862,
                  "lng" : 139.9272025
               },
               "southwest" : {
                  "lat" : 36.3500676,
                  "lng" : 139.7984751
               }
            }
         },
         "place_id" : "ChIJLwDhL9ZaH2ARrXvtm-02n2c",
         "types" : [ "locality", "political" ]
      },
      {
         "address_components" : [
            {
               "long_name" : "Tochigi Prefecture",
               "short_name" : "Tochigi Prefecture",
               "types" : [ "administrative_area_level_1", "political" ]
            },
            {
               "long_name" : "Japan",
               "short_name" : "JP",
               "types" : [ "country", "political" ]
            }
         ],
         "formatted_address" : "Tochigi Prefecture, Japan",
         "geometry" : {
            "bounds" : {
               "northeast" : {
                  "lat" : 37.1550836,
                  "lng" : 140.2924768
               },
               "southwest" : {
                  "lat" : 36.1979498,
                  "lng" : 139.3265574
               }
            },
            "location" : {
               "lat" : 36.565725,
               "lng" : 139.8835651
            },
            "location_type" : "APPROXIMATE",
            "viewport" : {
               "northeast" : {
                  "lat" : 37.1550836,
                  "lng" : 140.2924768
               },
               "southwest" : {
                  "lat" : 36.1979498,
                  "lng" : 139.3265574
               }
            }
         },
         "place_id" : "ChIJ7RWXa1VwH2ARB9AguZ5FZW0",
         "types" : [ "administrative_area_level_1", "political" ]
      },
      {
         "address_components" : [
            {
               "long_name" : "Japan",
               "short_name" : "JP",
               "types" : [ "country", "political" ]
            }
         ],
         "formatted_address" : "Japan",
         "geometry" : {
            "bounds" : {
               "northeast" : {
                  "lat" : 45.6412626,
                  "lng" : 154.0031455
               },
               "southwest" : {
                  "lat" : 20.3585295,
                  "lng" : 122.8554688
               }
            },
            "location" : {
               "lat" : 36.204824,
               "lng" : 138.252924
            },
            "location_type" : "APPROXIMATE",
            "viewport" : {
               "northeast" : {
                  "lat" : 45.6412626,
                  "lng" : 154.0031455
               },
               "southwest" : {
                  "lat" : 20.3585295,
                  "lng" : 122.8554688
               }
            }
         },
         "place_id" : "ChIJLxl_1w9OZzQRRFJmfNR1QvU",
         "types" : [ "country", "political" ]
      }
   ],
   "status" : "OK"
}
