{
   "results" : [
      {
         "address_components" : [
            {
               "long_name" : "301",
               "short_name" : "301",
               "types" : [ "street_number" ]
            },
            {
               "long_name" : "Calle 54a",
               "short_name" : "Cl. 54a",
               "types" : [ "route" ]
            },
            {
               "long_name" : "Sucre",
               "short_name" : "Sucre",
               "types" : [ "neighborhood", "political" ]
            },
            {
               "long_name" : "Medellín",
               "short_name" : "Medellín",
               "types" : [ "locality", "political" ]
            },
            {
               "long_name" : "Medellín",
               "short_name" : "Medellín",
               "types" : [ "administrative_area_level_2", "political" ]
            },
            {
               "long_name" : "Antioquia",
               "short_name" : "Antioquia",
               "types" : [ "administrative_area_level_1", "political" ]
            },
            {
               "long_name" : "Colombia",
               "short_name" : "CO",
               "types" : [ "country", "political" ]
            },
            {
               "long_name" : "050013",
               "short_name" : "050013",
               "types" : [ "postal_code" ]
            }
         ],
         "formatted_address" : "Cl. 54a #30-1, Medellín, Antioquia, Colombia",
         "geometry" : {
            "location" : {
               "lat" : 6.2453221,
               "lng" : -75.5515405
            },
            "location_type" : "RANGE_INTERPOLATED",
            "viewport" : {
               "northeast" : {
                  "lat" : 6.246671080291502,
                  "lng" : -75.55019151970851
               },
               "southwest" : {
                  "lat" : 6.243973119708498,
                  "lng" : -75.55288948029151
               }
            }
         },
         "place_id" : "Ei1DbC4gNTRhICMzMC0xLCBNZWRlbGzDrW4sIEFudGlvcXVpYSwgQ29sb21iaWEiGhIYChQKEgm5c0UtXihEjhG0gHUC4EkMyxAB",
         "types" : [ "street_address" ]
      },
      {
         "address_components" : [
            {
               "long_name" : "Sucre",
               "short_name" : "Sucre",
               "types" : [ "neighborhood", "political" ]
            },
            {
               "long_name" : "Medellín",
               "short_name" : "Medellín",
               "types" : [ "locality", "political" ]
            },
            {
               "long_name" : "Medellin",
               "short_name" : "Medellin",
               "types" : [ "administrative_area_level_2", "political" ]
            },
            {
               "long_name" : "Antioquia",
               "short_name" : "Antioquia",
               "types" : [ "administrative_area_level_1", "political" ]
            },
            {
               "long_name" : "Colombia",
               "short_name" : "CO",
               "types" : [ "country", "political" ]
            },
            {
               "long_name" : "050013",
               "short_name" : "050013",
               "types" : [ "postal_code" ]
            }
         ],
         "formatted_address" : "Sucre, Medellín, Medellin, Antioquia, Colombia",
         "geometry" : {
            "bounds" : {
               "northeast" : {
                  "lat" : 6.2483125,
                  "lng" : -75.5471634
               },
               "southwest" : {
                  "lat" : 6.2425242,
                  "lng" : -75.5558537
               }
            },
            "location" : {
               "lat" : 6.246082899999999,
               "lng" : -75.5531434
            },
            "location_type" : "APPROXIMATE",
            "viewport" : {
               "northeast" : {
                  "lat" : 6.2483125,
                  "lng" : -75.5471634
               },
               "southwest" : {
                  "lat" : 6.2425242,
                  "lng" : -75.5558537
               }
            }
         },
         "place_id" : "ChIJYaQ5ul8oRI4Rv77wY-mF4TQ",
         "types" : [ "neighborhood", "political" ]
      },
      {
         "address_components" : [
            {
               "long_name" : "Medellín",
               "short_name" : "Medellín",
               "types" : [ "locality", "political" ]
            },
            {
               "long_name" : "Medellin",
               "short_name" : "Medellin",
               "types" : [ "administrative_area_level_2", "political" ]
            },
            {
               "long_name" : "Antioquia",
               "short_name" : "Antioquia",
               "types" : [ "administrative_area_level_1", "political" ]
            },
            {
               "long_name" : "Colombia",
               "short_name" : "CO",
               "types" : [ "country", "political" ]
            }
         ],
         "formatted_address" : "Medellín, Medellin, Antioquia, Colombia",
         "geometry" : {
            "bounds" : {
               "northeast" : {
                  "lat" : 6.31281,
                  "lng" : -75.521507
               },
               "southwest" : {
                  "lat" : 6.1755969,
                  "lng" : -75.64091599999999
               }
            },
            "location" : {
               "lat" : 6.253040800000001,
               "lng" : -75.5645737
            },
            "location_type" : "APPROXIMATE",
            "viewport" : {
               "northeast" : {
                  "lat" : 6.31281,
                  "lng" : -75.521507
               },
               "southwest" : {
                  "lat" : 6.1755969,
                  "lng" : -75.64091599999999
               }
            }
         },
         "place_id" : "ChIJBa0PuN8oRI4RVju1x_x8E0I",
         "types" : [ "locality", "political" ]
      },
      {
         "address_components" : [
            {
               "long_name" : "050013",
               "short_name" : "050013",
               "types" : [ "postal_code" ]
            },
            {
               "long_name" : "Medellín",
               "short_name" : "Medellín",
               "types" : [ "locality", "political" ]
            },
            {
               "long_name" : "Medellin",
               "short_name" : "Medellin",
               "types" : [ "administrative_area_level_2", "political" ]
            },
            {
               "long_name" : "Antioquia",
               "short_name" : "Antioquia",
               "types" : [ "administrative_area_level_1", "political" ]
            },
            {
               "long_name" : "Colombia",
               "short_name" : "CO",
               "types" : [ "country", "political" ]
            }
         ],
         "formatted_address" : "Medellín, Medellin, Antioquia, Colombia",
         "geometry" : {
            "bounds" : {
               "northeast" : {
                  "lat" : 6.2578941,
                  "lng" : -75.5362581
               },
               "southwest" : {
                  "lat" : 6.23741,
                  "lng" : -75.56013999999999
               }
            },
            "location" : {
               "lat" : 6.2504588,
               "lng" : -75.5480491
            },
            "location_type" : "APPROXIMATE",
            "viewport" : {
               "northeast" : {
                  "lat" : 6.2578941,
                  "lng" : -75.5362581
               },
               "southwest" : {
                  "lat" : 6.23741,
                  "lng" : -75.56013999999999
               }
            }
         },
         "place_id" : "ChIJLU4MK2AoRI4RnnO2Nqydgfg",
         "types" : [ "postal_code" ]
      },
      {
         "address_components" : [
            {
               "long_name" : "Medellin",
               "short_name" : "Medellin",
               "types" : [ "administrative_area_level_2", "political" ]
            },
            {
               "long_name" : "Antioquia",
               "short_name" : "Antioquia",
               "types" : [ "administrative_area_level_1", "political" ]
            },
            {
               "long_name" : "Colombia",
               "short_name" : "CO",
               "types" : [ "country", "political" ]
            }
         ],
         "formatted_address" : "Medellin, Antioquia, Colombia",
         "geometry" : {
            "bounds" : {
               "northeast" : {
                  "lat" : 6.373637,
                  "lng" : -75.47340989999999
               },
               "southwest" : {
                  "lat" : 6.163719,
                  "lng" : -75.7193741
               }
            },
            "location" : {
               "lat" : 6.244203,
               "lng" : -75.5812119
            },
            "location_type" : "APPROXIMATE",
            "viewport" : {
               "northeast" : {
                  "lat" : 6.373637,
                  "lng" : -75.47340989999999
               },
               "southwest" : {
                  "lat" : 6.163719,
                  "lng" : -75.7193741
               }
            }
         },
         "place_id" : "ChIJ291STu8oRI4RcqxwksPWL3I",
         "types" : [ "administrative_area_level_2", "political" ]
      },
      {
         "address_components" : [
            {
               "long_name" : "Antioquia",
               "short_name" : "Antioquia",
               "types" : [ "administrative_area_level_1", "political" ]
            },
            {
               "long_name" : "Colombia",
               "short_name" : "CO",
               "types" : [ "country", "political" ]
            }
         ],
         "formatted_address" : "Antioquia, Colombia",
         "geometry" : {
            "bounds" : {
               "northeast" : {
                  "lat" : 8.883363899999999,
                  "lng" : -73.87110699999999
               },
               "southwest" : {
                  "lat" : 5.418365,
                  "lng" : -77.135572
               }
            },
            "location" : {
               "lat" : 7.1986064,
               "lng" : -75.34121789999999
            },
            "location_type" : "APPROXIMATE",
            "viewport" : {
               "northeast" : {
                  "lat" : 8.883363899999999,
                  "lng" : -73.87110699999999
               },
               "southwest" : {
                  "lat" : 5.418365,
                  "lng" : -77.135572
               }
            }
         },
         "place_id" : "ChIJg6eo2bIpRI4RmpWBdco2ClQ",
         "types" : [ "administrative_area_level_1", "political" ]
      },
      {
         "address_components" : [
            {
               "long_name" : "Colombia",
               "short_name" : "CO",
               "types" : [ "country", "political" ]
            }
         ],
         "formatted_address" : "Colombia",
         "geometry" : {
            "bounds" : {
               "northeast" : {
                  "lat" : 13.5177999,
                  "lng" : -66.8463122
               },
               "southwest" : {
                  "lat" : -4.227109899999999,
                  "lng" : -81.8317
               }
            },
            "location" : {
               "lat" : 4.570868,
               "lng" : -74.29733299999999
            },
            "location_type" : "APPROXIMATE",
            "viewport" : {
               "northeast" : {
                  "lat" : 13.5177999,
                  "lng" : -66.8463122
               },
               "southwest" : {
                  "lat" : -4.227109899999999,
                  "lng" : -81.8317
               }
            }
         },
         "place_id" : "ChIJo5QVrjqkFY4RQKPy7wSaDZo",
         "types" : [ "country", "political" ]
      }
   ],
   "status" : "OK"
}
