{
   "plus_code" : {
      "compound_code" : "MQH7+G7 Tokyo, Japan",
      "global_code" : "8Q7XMQH7+G7"
   },
   "results" : [
      {
         "address_components" : [
            {
               "long_name" : "1",
               "short_name" : "1",
               "types" : [ "premise" ]
            },
            {
               "long_name" : "6",
               "short_name" : "6",
               "types" : [ "political", "sublocality", "sublocality_level_4" ]
            },
            {
               "long_name" : "2 Chome",
               "short_name" : "2 Chome",
               "types" : [ "political", "sublocality", "sublocality_level_3" ]
            },
            {
               "long_name" : "Marunouchi",
               "short_name" : "Marunouchi",
               "types" : [ "political", "sublocality", "sublocality_level_2" ]
            },
            {
               "long_name" : "Chiyoda",
               "short_name" : "Chiyoda",
               "types" : [ "locality", "political" ]
            },
            {
               "long_name" : "Tokyo",
               "short_name" : "Tokyo",
               "types" : [ "administrative_area_level_1", "political" ]
            },
            {
               "long_name" : "Japan",
               "short_name" : "JP",
               "types" : [ "country", "political" ]
            },
            {
               "long_name" : "100-0005",
               "short_name" : "100-0005",
               "types" : [ "postal_code" ]
            }
         ],
         "formatted_address" : "2 Chome-6-1 Marunouchi, Chiyoda, Tokyo 100-0005, Japan",
         "geometry" : {
            "location" : {
               "lat" : 35.6789909,
               "lng" : 139.7630895
            },
            "location_type" : "ROOFTOP",
            "viewport" : {
               "northeast" : {
                  "lat" : 35.68033988029149,
                  "lng" : 139.7644384802915
               },
               "southwest" : {
                  "lat" : 35.6776419197085,
                  "lng" : 139.7617405197085
               }
            }
         },
         "place_id" : "ChIJ2Vc7c_qLGGARrgKYqskFk4U",
         "plus_code" : {
            "compound_code" : "MQH7+H6 Tokyo, Japan",
            "global_code" : "8Q7XMQH7+H6"
         },
         "types" : [
            "establishment",
            "food",
            "point_of_interest",
            "restaurant",
            "shopping_mall"
         ]
      },
      {
         "address_components" : [
            {
               "long_name" : "Unnamed Road",
               "short_name" : "Unnamed Road",
               "types" : [ "route" ]
            },
            {
               "long_name" : "6",
               "short_name" : "6",
               "types" : [ "political", "sublocality", "sublocality_level_4" ]
            },
            {
               "long_name" : "2 Chome",
               "short_name" : "2 Chome",
               "types" : [ "political", "sublocality", "sublocality_level_3" ]
            },
            {
               "long_name" : "Marunouchi",
               "short_name" : "Marunouchi",
               "types" : [ "political", "sublocality", "sublocality_level_2" ]
            },
            {
               "long_name" : "Chiyoda-ku",
               "short_name" : "Chiyoda-ku",
               "types" : [ "locality", "political" ]
            },
            {
               "long_name" : "Tōkyō-to",
               "short_name" : "Tōkyō-to",
               "types" : [ "administrative_area_level_1", "political" ]
            },
            {
               "long_name" : "Japan",
               "short_name" : "JP",
               "types" : [ "country", "political" ]
            },
            {
               "long_name" : "100-0005",
               "short_name" : "100-0005",
               "types" : [ "postal_code" ]
            }
         ],
         "formatted_address" : "Unnamed Road, 2 Chome-6 Marunouchi, Chiyoda-ku, Tōkyō-to 100-0005, Japan",
         "geometry" : {
            "bounds" : {
               "northeast" : {
                  "lat" : 35.6788007,
                  "lng" : 139.7633608
               },
               "southwest" : {
                  "lat" : 35.6787635,
                  "lng" : 139.7632017
               }
            },
            "location" : {
               "lat" : 35.6787821,
               "lng" : 139.7632812
            },
            "location_type" : "GEOMETRIC_CENTER",
            "viewport" : {
               "northeast" : {
                  "lat" : 35.6801310802915,
                  "lng" : 139.7646302302915
               },
               "southwest" : {
                  "lat" : 35.6774331197085,
                  "lng" : 139.7619322697085
               }
            }
         },
         "place_id" : "ChIJsyzicfqLGGARbq9g4B5r1iY",
         "types" : [ "route" ]
      },
      {
         "address_components" : [
            {
               "long_name" : "100-0005",
               "short_name" : "100-0005",
               "types" : [ "postal_code" ]
            },
            {
               "long_name" : "Marunouchi",
               "short_name" : "Marunouchi",
               "types" : [ "political", "sublocality", "sublocality_level_2" ]
            },
            {
               "long_name" : "Chiyoda",
               "short_name" : "Chiyoda",
               "types" : [ "locality", "political" ]
            },
            {
               "long_name" : "Tokyo",
               "short_name" : "Tokyo",
               "types" : [ "administrative_area_level_1", "political" ]
            },
            {
               "long_name" : "Japan",
               "short_name" : "JP",
               "types" : [ "country", "political" ]
            }
         ],
         "formatted_address" : "100-0005, Japan",
         "geometry" : {
            "bounds" : {
               "northeast" : {
                  "lat" : 35.6857582,
                  "lng" : 139.7706529
               },
               "southwest" : {
                  "lat" : 35.6752941,
                  "lng" : 139.7600514
               }
            },
            "location" : {
               "lat" : 35.6816773,
               "lng" : 139.7639301
            },
            "location_type" : "APPROXIMATE",
            "viewport" : {
               "northeast" : {
                  "lat" : 35.6857582,
                  "lng" : 139.7706529
               },
               "southwest" : {
                  "lat" : 35.6752941,
                  "lng" : 139.7600514
               }
            }
         },
         "place_id" : "ChIJlbDS1fqLGGARMedGGZF1-gE",
         "types" : [ "postal_code" ]
      },
      {
         "address_components" : [
            {
               "long_name" : "Marunouchi",
               "short_name" : "Marunouchi",
               "types" : [ "political", "sublocality", "sublocality_level_2" ]
            },
            {
               "long_name" : "Chiyoda",
               "short_name" : "Chiyoda",
               "types" : [ "locality", "political" ]
            },
            {
               "long_name" : "Tokyo",
               "short_name" : "Tokyo",
               "types" : [ "administrative_area_level_1", "political" ]
            },
            {
               "long_name" : "Japan",
               "short_name" : "JP",
               "types" : [ "country", "political" ]
            },
            {
               "long_name" : "100-0005",
               "short_name" : "100-0005",
               "types" : [ "postal_code" ]
            }
         ],
         "formatted_address" : "Marunouchi, Chiyoda, Tokyo 100-0005, Japan",
         "geometry" : {
            "bounds" : {
               "northeast" : {
                  "lat" : 35.6857557,
                  "lng" : 139.7706529
               },
               "southwest" : {
                  "lat" : 35.6752941,
                  "lng" : 139.7600514
               }
            },
            "location" : {
               "lat" : 35.6789299,
               "lng" : 139.7657476
            },
            "location_type" : "APPROXIMATE",
            "viewport" : {
               "northeast" : {
                  "lat" : 35.6857557,
                  "lng" : 139.7706529
               },
               "southwest" : {
                  "lat" : 35.6752941,
                  "lng" : 139.7600514
               }
            }
         },
         "place_id" : "ChIJdUl5zfuLGGARyfYneysknCM",
         "types" : [ "political", "sublocality", "sublocality_level_2" ]
      },
      {
         "address_components" : [
            {
               "long_name" : "6",
               "short_name" : "6",
               "types" : [ "political", "sublocality", "sublocality_level_4" ]
            },
            {
               "long_name" : "2 Chome",
               "short_name" : "2 Chome",
               "types" : [ "political", "sublocality", "sublocality_level_3" ]
            },
            {
               "long_name" : "Marunouchi",
               "short_name" : "Marunouchi",
               "types" : [ "political", "sublocality", "sublocality_level_2" ]
            },
            {
               "long_name" : "Chiyoda",
               "short_name" : "Chiyoda",
               "types" : [ "locality", "political" ]
            },
            {
               "long_name" : "Tokyo",
               "short_name" : "Tokyo",
               "types" : [ "administrative_area_level_1", "political" ]
            },
            {
               "long_name" : "Japan",
               "short_name" : "JP",
               "types" : [ "country", "political" ]
            },
            {
               "long_name" : "100-0005",
               "short_name" : "100-0005",
               "types" : [ "postal_code" ]
            }
         ],
         "formatted_address" : "2 Chome-6 Marunouchi, Chiyoda, Tokyo 100-0005, Japan",
         "geometry" : {
            "bounds" : {
               "northeast" : {
                  "lat" : 35.6795549,
                  "lng" : 139.763858
               },
               "southwest" : {
                  "lat" : 35.6779765,
                  "lng" : 139.7622529
               }
            },
            "location" : {
               "lat" : 35.678691,
               "lng" : 139.7630728
            },
            "location_type" : "GEOMETRIC_CENTER",
            "viewport" : {
               "northeast" : {
                  "lat" : 35.6801146802915,
                  "lng" : 139.7644044302915
               },
               "southwest" : {
                  "lat" : 35.6774167197085,
                  "lng" : 139.7617064697085
               }
            }
         },
         "place_id" : "ChIJhevdc_qLGGARaQ78rj4SjYE",
         "types" : [ "political", "sublocality", "sublocality_level_4" ]
      },
      {
         "address_components" : [
            {
               "long_name" : "2 Chome",
               "short_name" : "2 Chome",
               "types" : [ "political", "sublocality", "sublocality_level_3" ]
            },
            {
               "long_name" : "Marunouchi",
               "short_name" : "Marunouchi",
               "types" : [ "political", "sublocality", "sublocality_level_2" ]
            },
            {
               "long_name" : "Chiyoda",
               "short_name" : "Chiyoda",
               "types" : [ "locality", "political" ]
            },
            {
               "long_name" : "Tokyo",
               "short_name" : "Tokyo",
               "types" : [ "administrative_area_level_1", "political" ]
            },
            {
               "long_name" : "Japan",
               "short_name" : "JP",
               "types" : [ "country", "political" ]
            },
            {
               "long_name" : "100-0005",
               "short_name" : "100-0005",
               "types" : [ "postal_code" ]
            }
         ],
         "formatted_address" : "2 Chome Marunouchi, Chiyoda, Tokyo 100-0005, Japan",
         "geometry" : {
            "bounds" : {
               "northeast" : {
                  "lat" : 35.682247,
                  "lng" : 139.7657444
               },
               "southwest" : {
                  "lat" : 35.6776317,
                  "lng" : 139.7608127
               }
            },
            "location" : {
               "lat" : 35.6787688,
               "lng" : 139.7644477
            },
            "location_type" : "APPROXIMATE",
            "viewport" : {
               "northeast" : {
                  "lat" : 35.682247,
                  "lng" : 139.7657444
               },
               "southwest" : {
                  "lat" : 35.6776317,
                  "lng" : 139.7608127
               }
            }
         },
         "place_id" : "ChIJ2USyBPqLGGARq2CurOv6aKs",
         "types" : [ "political", "sublocality", "sublocality_level_3" ]
      },
      {
         "address_components" : [
            {
               "long_name" : "Chiyoda",
               "short_name" : "Chiyoda",
               "types" : [ "locality", "political" ]
            },
            {
               "long_name" : "Tokyo",
               "short_name" : "Tokyo",
               "types" : [ "administrative_area_level_1", "political" ]
            },
            {
               "long_name" : "Japan",
               "short_name" : "JP",
               "types" : [ "country", "political" ]
            }
         ],
         "formatted_address" : "Chiyoda, Tokyo, Japan",
         "geometry" : {
            "bounds" : {
               "northeast" : {
                  "lat" : 35.7052158,
                  "lng" : 139.7828336
               },
               "southwest" : {
                  "lat" : 35.6685454,
                  "lng" : 139.7298934
               }
            },
            "location" : {
               "lat" : 35.6940027,
               "lng" : 139.7535951
            },
            "location_type" : "APPROXIMATE",
            "viewport" : {
               "northeast" : {
                  "lat" : 35.7052158,
                  "lng" : 139.7828336
               },
               "southwest" : {
                  "lat" : 35.6685454,
                  "lng" : 139.7298934
               }
            }
         },
         "place_id" : "ChIJTfUTCwyMGGARiIHk7juVMLY",
         "types" : [ "locality", "political" ]
      },
      {
         "address_components" : [
            {
               "long_name" : "Tokyo",
               "short_name" : "Tokyo",
               "types" : [ "colloquial_area", "locality", "political" ]
            },
            {
               "long_name" : "Tokyo",
               "short_name" : "Tokyo",
               "types" : [ "administrative_area_level_1", "political" ]
            },
            {
               "long_name" : "Japan",
               "short_name" : "JP",
               "types" : [ "country", "political" ]
            }
         ],
         "formatted_address" : "Tokyo, Japan",
         "geometry" : {
            "bounds" : {
               "northeast" : {
                  "lat" : 35.8175167,
                  "lng" : 139.9198565
               },
               "southwest" : {
                  "lat" : 35.5208603,
                  "lng" : 139.5629048
               }
            },
            "location" : {
               "lat" : 35.7090259,
               "lng" : 139.7319925
            },
            "location_type" : "APPROXIMATE",
            "viewport" : {
               "northeast" : {
                  "lat" : 35.8175167,
                  "lng" : 139.9198565
               },
               "southwest" : {
                  "lat" : 35.5208603,
                  "lng" : 139.5629048
               }
            }
         },
         "place_id" : "ChIJXSModoWLGGARILWiCfeu2M0",
         "types" : [ "colloquial_area", "locality", "political" ]
      },
      {
         "address_components" : [
            {
               "long_name" : "Tokyo",
               "short_name" : "Tokyo",
               "types" : [ "administrative_area_level_1", "locality", "political" ]
            },
            {
               "long_name" : "Japan",
               "short_name" : "JP",
               "types" : [ "country", "political" ]
            }
         ],
         "formatted_address" : "Tokyo, Japan",
         "geometry" : {
            "bounds" : {
               "northeast" : {
                  "lat" : 35.8986468,
                  "lng" : 153.9876115
               },
               "southwest" : {
                  "lat" : 24.2242626,
                  "lng" : 138.942758
               }
            },
            "location" : {
               "lat" : 35.6894875,
               "lng" : 139.6917064
            },
            "location_type" : "APPROXIMATE",
            "viewport" : {
               "northeast" : {
                  "lat" : 35.8986468,
                  "lng" : 153.9876115
               },
               "southwest" : {
                  "lat" : 24.2242626,
                  "lng" : 138.942758
               }
            }
         },
         "place_id" : "ChIJ51cu8IcbXWARiRtXIothAS4",
         "types" : [ "administrative_area_level_1", "locality", "political" ]
      },
      {
         "address_components" : [
            {
               "long_name" : "Japan",
               "short_name" : "JP",
               "types" : [ "country", "political" ]
            }
         ],
         "formatted_address" : "Japan",
         "geometry" : {
            "bounds" : {
               "northeast" : {
                  "lat" : 45.6412626,
                  "lng" : 154.0031455
               },
               "southwest" : {
                  "lat" : 20.3585295,
                  "lng" : 122.8554688
               }
            },
            "location" : {
               "lat" : 36.204824,
               "lng" : 138.252924
            },
            "location_type" : "APPROXIMATE",
            "viewport" : {
               "northeast" : {
                  "lat" : 45.6412626,
                  "lng" : 154.0031455
               },
               "southwest" : {
                  "lat" : 20.3585295,
                  "lng" : 122.8554688
               }
            }
         },
         "place_id" : "ChIJLxl_1w9OZzQRRFJmfNR1QvU",
         "types" : [ "country", "political" ]
      }
   ],
   "status" : "OK"
}
