{
   "plus_code" : {
      "compound_code" : "CGFP+R6 Szczecin, Poland",
      "global_code" : "9F5PCGFP+R6"
   },
   "results" : [
      {
         "address_components" : [
            {
               "long_name" : "17",
               "short_name" : "17",
               "types" : [ "street_number" ]
            },
            {
               "long_name" : "aleja Piastów",
               "short_name" : "aleja Piastów",
               "types" : [ "route" ]
            },
            {
               "long_name" : "Szczecin",
               "short_name" : "Szczecin",
               "types" : [ "locality", "political" ]
            },
            {
               "long_name" : "Poland",
               "short_name" : "PL",
               "types" : [ "country", "political" ]
            }
         ],
         "formatted_address" : "70-310, aleja Piastów 17, Szczecin, Poland",
         "geometry" : {
            "location" : {
               "lat" : 53.42453649999999,
               "lng" : 14.5355133
            },
            "location_type" : "ROOFTOP",
            "viewport" : {
               "northeast" : {
                  "lat" : 53.4258854802915,
                  "lng" : 14.5368622802915
               },
               "southwest" : {
                  "lat" : 53.4231875197085,
                  "lng" : 14.5341643197085
               }
            }
         },
         "place_id" : "ChIJQ0rAHSMJqkcRJD6XS-DlGXg",
         "plus_code" : {
            "compound_code" : "CGFP+R6 Szczecin, Poland",
            "global_code" : "9F5PCGFP+R6"
         },
         "types" : [ "establishment", "point_of_interest" ]
      },
      {
         "address_components" : [
            {
               "long_name" : "17",
               "short_name" : "17",
               "types" : [ "street_number" ]
            },
            {
               "long_name" : "aleja Piastów",
               "short_name" : "aleja Piastów",
               "types" : [ "route" ]
            },
            {
               "long_name" : "Szczecin",
               "short_name" : "Szczecin",
               "types" : [ "locality", "political" ]
            },
            {
               "long_name" : "Szczecin",
               "short_name" : "Szczecin",
               "types" : [ "administrative_area_level_2", "political" ]
            },
            {
               "long_name" : "Województwo zachodniopomorskie",
               "short_name" : "Województwo zachodniopomorskie",
               "types" : [ "administrative_area_level_1", "political" ]
            },
            {
               "long_name" : "Poland",
               "short_name" : "PL",
               "types" : [ "country", "political" ]
            },
            {
               "long_name" : "70-001",
               "short_name" : "70-001",
               "types" : [ "postal_code" ]
            }
         ],
         "formatted_address" : "aleja Piastów 17, 70-001 Szczecin, Poland",
         "geometry" : {
            "location" : {
               "lat" : 53.424658,
               "lng" : 14.535524
            },
            "location_type" : "ROOFTOP",
            "viewport" : {
               "northeast" : {
                  "lat" : 53.4260069802915,
                  "lng" : 14.5368729802915
               },
               "southwest" : {
                  "lat" : 53.4233090197085,
                  "lng" : 14.5341750197085
               }
            }
         },
         "place_id" : "ChIJiVhlHiMJqkcRfAWeR-7Me3c",
         "plus_code" : {
            "compound_code" : "CGFP+V6 Szczecin, Poland",
            "global_code" : "9F5PCGFP+V6"
         },
         "types" : [ "street_address" ]
      },
      {
         "address_components" : [
            {
               "long_name" : "48",
               "short_name" : "48",
               "types" : [ "street_number" ]
            },
            {
               "long_name" : "aleja Piastów",
               "short_name" : "aleja Piastów",
               "types" : [ "route" ]
            },
            {
               "long_name" : "Szczecin",
               "short_name" : "Szczecin",
               "types" : [ "locality", "political" ]
            },
            {
               "long_name" : "Poland",
               "short_name" : "PL",
               "types" : [ "country", "political" ]
            },
            {
               "long_name" : "70-333",
               "short_name" : "70-333",
               "types" : [ "postal_code" ]
            }
         ],
         "formatted_address" : "aleja Piastów 48, 70-333 Szczecin, Poland",
         "geometry" : {
            "location" : {
               "lat" : 53.4245415,
               "lng" : 14.5361837
            },
            "location_type" : "RANGE_INTERPOLATED",
            "viewport" : {
               "northeast" : {
                  "lat" : 53.4258904802915,
                  "lng" : 14.5375326802915
               },
               "southwest" : {
                  "lat" : 53.4231925197085,
                  "lng" : 14.5348347197085
               }
            }
         },
         "place_id" : "EiphbGVqYSBQaWFzdMOzdyA0OCwgNzAtMzMzIFN6Y3plY2luLCBQb2xza2EiGhIYChQKEgl3TaDkIgmqRxFOBdavjn6IJxAw",
         "types" : [ "street_address" ]
      },
      {
         "address_components" : [
            {
               "long_name" : "70-325",
               "short_name" : "70-325",
               "types" : [ "postal_code" ]
            },
            {
               "long_name" : "Szczecin",
               "short_name" : "Szczecin",
               "types" : [ "locality", "political" ]
            },
            {
               "long_name" : "Szczecin",
               "short_name" : "Szczecin",
               "types" : [ "administrative_area_level_2", "political" ]
            },
            {
               "long_name" : "West Pomeranian Voivodeship",
               "short_name" : "West Pomeranian Voivodeship",
               "types" : [ "administrative_area_level_1", "political" ]
            },
            {
               "long_name" : "Poland",
               "short_name" : "PL",
               "types" : [ "country", "political" ]
            }
         ],
         "formatted_address" : "70-325 Szczecin, Poland",
         "geometry" : {
            "bounds" : {
               "northeast" : {
                  "lat" : 53.4344352,
                  "lng" : 14.5495525
               },
               "southwest" : {
                  "lat" : 53.4236229,
                  "lng" : 14.5327568
               }
            },
            "location" : {
               "lat" : 53.4303398,
               "lng" : 14.5382385
            },
            "location_type" : "APPROXIMATE",
            "viewport" : {
               "northeast" : {
                  "lat" : 53.4344352,
                  "lng" : 14.5495525
               },
               "southwest" : {
                  "lat" : 53.4236229,
                  "lng" : 14.5327568
               }
            }
         },
         "place_id" : "ChIJB3-a3yIJqkcRsgBsBdEWvpQ",
         "types" : [ "postal_code" ]
      },
      {
         "address_components" : [
            {
               "long_name" : "Turzyn",
               "short_name" : "Turzyn",
               "types" : [ "neighborhood", "political" ]
            },
            {
               "long_name" : "Szczecin",
               "short_name" : "Szczecin",
               "types" : [ "locality", "political" ]
            },
            {
               "long_name" : "Szczecin",
               "short_name" : "Szczecin",
               "types" : [ "administrative_area_level_2", "political" ]
            },
            {
               "long_name" : "West Pomeranian Voivodeship",
               "short_name" : "West Pomeranian Voivodeship",
               "types" : [ "administrative_area_level_1", "political" ]
            },
            {
               "long_name" : "Poland",
               "short_name" : "PL",
               "types" : [ "country", "political" ]
            },
            {
               "long_name" : "70-001",
               "short_name" : "70-001",
               "types" : [ "postal_code" ]
            }
         ],
         "formatted_address" : "Turzyn, 70-001 Szczecin, Poland",
         "geometry" : {
            "bounds" : {
               "northeast" : {
                  "lat" : 53.4388923,
                  "lng" : 14.5396006
               },
               "southwest" : {
                  "lat" : 53.4146095,
                  "lng" : 14.5226867
               }
            },
            "location" : {
               "lat" : 53.4282073,
               "lng" : 14.5315583
            },
            "location_type" : "APPROXIMATE",
            "viewport" : {
               "northeast" : {
                  "lat" : 53.4388923,
                  "lng" : 14.5396006
               },
               "southwest" : {
                  "lat" : 53.4146095,
                  "lng" : 14.5226867
               }
            }
         },
         "place_id" : "ChIJm6OTFzsJqkcRTLW3-D-dbCo",
         "types" : [ "neighborhood", "political" ]
      },
      {
         "address_components" : [
            {
               "long_name" : "Szczecin",
               "short_name" : "Szczecin",
               "types" : [ "administrative_area_level_2", "political" ]
            },
            {
               "long_name" : "Szczecin",
               "short_name" : "Szczecin",
               "types" : [ "locality", "political" ]
            },
            {
               "long_name" : "Województwo zachodniopomorskie",
               "short_name" : "Województwo zachodniopomorskie",
               "types" : [ "administrative_area_level_1", "political" ]
            },
            {
               "long_name" : "Poland",
               "short_name" : "PL",
               "types" : [ "country", "political" ]
            },
            {
               "long_name" : "70",
               "short_name" : "70",
               "types" : [ "postal_code", "postal_code_prefix" ]
            }
         ],
         "formatted_address" : "Szczecin, Poland",
         "geometry" : {
            "bounds" : {
               "northeast" : {
                  "lat" : 53.53765989999999,
                  "lng" : 14.8061335
               },
               "southwest" : {
                  "lat" : 53.3217326,
                  "lng" : 14.4431137
               }
            },
            "location" : {
               "lat" : 53.4285139,
               "lng" : 14.6067448
            },
            "location_type" : "APPROXIMATE",
            "viewport" : {
               "northeast" : {
                  "lat" : 53.53765989999999,
                  "lng" : 14.8061335
               },
               "southwest" : {
                  "lat" : 53.3217326,
                  "lng" : 14.4431137
               }
            }
         },
         "place_id" : "ChIJWafTADgJqkcRSDV4o3R2QCw",
         "types" : [ "administrative_area_level_2", "political" ]
      },
      {
         "address_components" : [
            {
               "long_name" : "Szczecin",
               "short_name" : "Szczecin",
               "types" : [ "administrative_area_level_3", "political" ]
            },
            {
               "long_name" : "Szczecin",
               "short_name" : "Szczecin",
               "types" : [ "locality", "political" ]
            },
            {
               "long_name" : "Szczecin",
               "short_name" : "Szczecin",
               "types" : [ "administrative_area_level_2", "political" ]
            },
            {
               "long_name" : "Województwo zachodniopomorskie",
               "short_name" : "Województwo zachodniopomorskie",
               "types" : [ "administrative_area_level_1", "political" ]
            },
            {
               "long_name" : "Poland",
               "short_name" : "PL",
               "types" : [ "country", "political" ]
            },
            {
               "long_name" : "70",
               "short_name" : "70",
               "types" : [ "postal_code", "postal_code_prefix" ]
            }
         ],
         "formatted_address" : "Szczecin, Poland",
         "geometry" : {
            "bounds" : {
               "northeast" : {
                  "lat" : 53.53765989999999,
                  "lng" : 14.8061335
               },
               "southwest" : {
                  "lat" : 53.3217326,
                  "lng" : 14.4431137
               }
            },
            "location" : {
               "lat" : 53.4285139,
               "lng" : 14.6067448
            },
            "location_type" : "APPROXIMATE",
            "viewport" : {
               "northeast" : {
                  "lat" : 53.53765989999999,
                  "lng" : 14.8061335
               },
               "southwest" : {
                  "lat" : 53.3217326,
                  "lng" : 14.4431137
               }
            }
         },
         "place_id" : "ChIJi-_UHuYJqkcRV-3pWQFC-i0",
         "types" : [ "administrative_area_level_3", "political" ]
      },
      {
         "address_components" : [
            {
               "long_name" : "Szczecin",
               "short_name" : "Szczecin",
               "types" : [ "locality", "political" ]
            },
            {
               "long_name" : "Szczecin",
               "short_name" : "Szczecin",
               "types" : [ "administrative_area_level_2", "political" ]
            },
            {
               "long_name" : "West Pomeranian Voivodeship",
               "short_name" : "West Pomeranian Voivodeship",
               "types" : [ "administrative_area_level_1", "political" ]
            },
            {
               "long_name" : "Poland",
               "short_name" : "PL",
               "types" : [ "country", "political" ]
            },
            {
               "long_name" : "70",
               "short_name" : "70",
               "types" : [ "postal_code", "postal_code_prefix" ]
            }
         ],
         "formatted_address" : "Szczecin, Poland",
         "geometry" : {
            "bounds" : {
               "northeast" : {
                  "lat" : 53.53765989999999,
                  "lng" : 14.8061335
               },
               "southwest" : {
                  "lat" : 53.3217326,
                  "lng" : 14.4431137
               }
            },
            "location" : {
               "lat" : 53.4285438,
               "lng" : 14.5528116
            },
            "location_type" : "APPROXIMATE",
            "viewport" : {
               "northeast" : {
                  "lat" : 53.53765989999999,
                  "lng" : 14.8061335
               },
               "southwest" : {
                  "lat" : 53.3217326,
                  "lng" : 14.4431137
               }
            }
         },
         "place_id" : "ChIJWafTADgJqkcR88SKX07cWqk",
         "types" : [ "locality", "political" ]
      },
      {
         "address_components" : [
            {
               "long_name" : "70",
               "short_name" : "70",
               "types" : [ "postal_code", "postal_code_prefix" ]
            },
            {
               "long_name" : "Szczecin",
               "short_name" : "Szczecin",
               "types" : [ "locality", "political" ]
            },
            {
               "long_name" : "Szczecin",
               "short_name" : "Szczecin",
               "types" : [ "administrative_area_level_2", "political" ]
            },
            {
               "long_name" : "West Pomeranian Voivodeship",
               "short_name" : "West Pomeranian Voivodeship",
               "types" : [ "administrative_area_level_1", "political" ]
            },
            {
               "long_name" : "Poland",
               "short_name" : "PL",
               "types" : [ "country", "political" ]
            }
         ],
         "formatted_address" : "Szczecin, Poland",
         "geometry" : {
            "bounds" : {
               "northeast" : {
                  "lat" : 53.53766,
                  "lng" : 14.8061335
               },
               "southwest" : {
                  "lat" : 53.3217326,
                  "lng" : 14.4431137
               }
            },
            "location" : {
               "lat" : 53.4285139,
               "lng" : 14.6067448
            },
            "location_type" : "APPROXIMATE",
            "viewport" : {
               "northeast" : {
                  "lat" : 53.53766,
                  "lng" : 14.8061335
               },
               "southwest" : {
                  "lat" : 53.3217326,
                  "lng" : 14.4431137
               }
            }
         },
         "place_id" : "ChIJ-xv9L-YJqkcRLQ2rcPi8g8I",
         "types" : [ "postal_code", "postal_code_prefix" ]
      },
      {
         "address_components" : [
            {
               "long_name" : "West Pomeranian Voivodeship",
               "short_name" : "West Pomeranian Voivodeship",
               "types" : [ "administrative_area_level_1", "political" ]
            },
            {
               "long_name" : "Poland",
               "short_name" : "PL",
               "types" : [ "country", "political" ]
            }
         ],
         "formatted_address" : "West Pomeranian Voivodeship, Poland",
         "geometry" : {
            "bounds" : {
               "northeast" : {
                  "lat" : 54.5692318,
                  "lng" : 16.9822089
               },
               "southwest" : {
                  "lat" : 52.62466939999999,
                  "lng" : 14.1223532
               }
            },
            "location" : {
               "lat" : 53.46578909999999,
               "lng" : 15.1822581
            },
            "location_type" : "APPROXIMATE",
            "viewport" : {
               "northeast" : {
                  "lat" : 54.5692318,
                  "lng" : 16.9822089
               },
               "southwest" : {
                  "lat" : 52.62466939999999,
                  "lng" : 14.1223532
               }
            }
         },
         "place_id" : "ChIJLy84bzblAEcREMEOrTIOAgE",
         "types" : [ "administrative_area_level_1", "political" ]
      },
      {
         "address_components" : [
            {
               "long_name" : "Poland",
               "short_name" : "PL",
               "types" : [ "country", "political" ]
            }
         ],
         "formatted_address" : "Poland",
         "geometry" : {
            "bounds" : {
               "northeast" : {
                  "lat" : 54.9054761,
                  "lng" : 24.1458931
               },
               "southwest" : {
                  "lat" : 49.002025,
                  "lng" : 14.1228641
               }
            },
            "location" : {
               "lat" : 51.919438,
               "lng" : 19.145136
            },
            "location_type" : "APPROXIMATE",
            "viewport" : {
               "northeast" : {
                  "lat" : 54.9054761,
                  "lng" : 24.1458931
               },
               "southwest" : {
                  "lat" : 49.002025,
                  "lng" : 14.1228641
               }
            }
         },
         "place_id" : "ChIJuwtkpGSZAEcR6lXMScpzdQk",
         "types" : [ "country", "political" ]
      }
   ],
   "status" : "OK"
}
