{
   "results" : [
      {
         "address_components" : [
            {
               "long_name" : "2106",
               "short_name" : "2106",
               "types" : [ "street_number" ]
            },
            {
               "long_name" : "Calle Mariano Esquillor Gómez",
               "short_name" : "Calle Mariano Esquillor Gómez",
               "types" : [ "route" ]
            },
            {
               "long_name" : "Zaragoza",
               "short_name" : "Zaragoza",
               "types" : [ "locality", "political" ]
            },
            {
               "long_name" : "Zaragoza",
               "short_name" : "Z",
               "types" : [ "administrative_area_level_2", "political" ]
            },
            {
               "long_name" : "Aragón",
               "short_name" : "Aragón",
               "types" : [ "administrative_area_level_1", "political" ]
            },
            {
               "long_name" : "Spain",
               "short_name" : "ES",
               "types" : [ "country", "political" ]
            },
            {
               "long_name" : "50018",
               "short_name" : "50018",
               "types" : [ "postal_code" ]
            }
         ],
         "formatted_address" : "Calle Mariano Esquillor Gómez, 2106, 50018 Zaragoza, Spain",
         "geometry" : {
            "location" : {
               "lat" : 41.6834725,
               "lng" : -0.8894926
            },
            "location_type" : "ROOFTOP",
            "viewport" : {
               "northeast" : {
                  "lat" : 41.6848214802915,
                  "lng" : -0.888143619708498
               },
               "southwest" : {
                  "lat" : 41.6821235197085,
                  "lng" : -0.8908415802915021
               }
            }
         },
         "place_id" : "ChIJ82VKN1wTWQ0RfIKWGXr9lD4",
         "types" : [ "street_address" ]
      },
      {
         "address_components" : [
            {
               "long_name" : "Edificio Ada Byron",
               "short_name" : "Edificio Ada Byron",
               "types" : [ "premise" ]
            },
            {
               "long_name" : "María de Luna, 3",
               "short_name" : "María de Luna, 3",
               "types" : [ "street_number" ]
            },
            {
               "long_name" : "Zaragoza",
               "short_name" : "Zaragoza",
               "types" : [ "locality", "political" ]
            },
            {
               "long_name" : "Zaragoza",
               "short_name" : "Z",
               "types" : [ "administrative_area_level_2", "political" ]
            },
            {
               "long_name" : "Aragón",
               "short_name" : "Aragón",
               "types" : [ "administrative_area_level_1", "political" ]
            },
            {
               "long_name" : "Spain",
               "short_name" : "ES",
               "types" : [ "country", "political" ]
            },
            {
               "long_name" : "50018",
               "short_name" : "50018",
               "types" : [ "postal_code" ]
            }
         ],
         "formatted_address" : "Edificio Ada Byron, María de Luna, 3, 50018 Zaragoza, Spain",
         "geometry" : {
            "location" : {
               "lat" : 41.6839454,
               "lng" : -0.8888564
            },
            "location_type" : "ROOFTOP",
            "viewport" : {
               "northeast" : {
                  "lat" : 41.6852943802915,
                  "lng" : -0.887507419708498
               },
               "southwest" : {
                  "lat" : 41.6825964197085,
                  "lng" : -0.8902053802915021
               }
            }
         },
         "place_id" : "ChIJGzPjtF0TWQ0R1HHkkaZcbEw",
         "types" : [ "premise" ]
      },
      {
         "address_components" : [
            {
               "long_name" : "Zaragoza",
               "short_name" : "Zaragoza",
               "types" : [ "locality", "political" ]
            },
            {
               "long_name" : "Zaragoza",
               "short_name" : "Zaragoza",
               "types" : [ "administrative_area_level_4", "political" ]
            },
            {
               "long_name" : "Zaragoza",
               "short_name" : "Zaragoza",
               "types" : [ "administrative_area_level_3", "political" ]
            },
            {
               "long_name" : "Zaragoza",
               "short_name" : "Z",
               "types" : [ "administrative_area_level_2", "political" ]
            },
            {
               "long_name" : "Aragon",
               "short_name" : "Aragon",
               "types" : [ "administrative_area_level_1", "political" ]
            },
            {
               "long_name" : "Spain",
               "short_name" : "ES",
               "types" : [ "country", "political" ]
            }
         ],
         "formatted_address" : "Zaragoza, Spain",
         "geometry" : {
            "bounds" : {
               "northeast" : {
                  "lat" : 41.6894079,
                  "lng" : -0.8427317
               },
               "southwest" : {
                  "lat" : 41.6139746,
                  "lng" : -0.9472301000000001
               }
            },
            "location" : {
               "lat" : 41.6488226,
               "lng" : -0.8890853
            },
            "location_type" : "APPROXIMATE",
            "viewport" : {
               "northeast" : {
                  "lat" : 41.6894079,
                  "lng" : -0.8427317
               },
               "southwest" : {
                  "lat" : 41.6139746,
                  "lng" : -0.9472301000000001
               }
            }
         },
         "place_id" : "ChIJkY5hXt0UWQ0RqImEFfET30k",
         "types" : [ "locality", "political" ]
      },
      {
         "address_components" : [
            {
               "long_name" : "50015",
               "short_name" : "50015",
               "types" : [ "postal_code" ]
            },
            {
               "long_name" : "Zaragoza",
               "short_name" : "Zaragoza",
               "types" : [ "locality", "political" ]
            },
            {
               "long_name" : "Zaragoza",
               "short_name" : "Z",
               "types" : [ "administrative_area_level_2", "political" ]
            },
            {
               "long_name" : "Aragon",
               "short_name" : "Aragon",
               "types" : [ "administrative_area_level_1", "political" ]
            },
            {
               "long_name" : "Spain",
               "short_name" : "ES",
               "types" : [ "country", "political" ]
            }
         ],
         "formatted_address" : "50015 Zaragoza, Spain",
         "geometry" : {
            "bounds" : {
               "northeast" : {
                  "lat" : 41.74510069999999,
                  "lng" : -0.8313589
               },
               "southwest" : {
                  "lat" : 41.6567486,
                  "lng" : -0.8896373
               }
            },
            "location" : {
               "lat" : 41.692694,
               "lng" : -0.8627473
            },
            "location_type" : "APPROXIMATE",
            "viewport" : {
               "northeast" : {
                  "lat" : 41.74510069999999,
                  "lng" : -0.8313589
               },
               "southwest" : {
                  "lat" : 41.6567486,
                  "lng" : -0.8896373
               }
            }
         },
         "place_id" : "ChIJcc3rEYMTWQ0RQNxzYWiMARw",
         "types" : [ "postal_code" ]
      },
      {
         "address_components" : [
            {
               "long_name" : "Zaragoza",
               "short_name" : "Zaragoza",
               "types" : [ "administrative_area_level_4", "political" ]
            },
            {
               "long_name" : "Zaragoza",
               "short_name" : "Zaragoza",
               "types" : [ "administrative_area_level_3", "political" ]
            },
            {
               "long_name" : "Zaragoza",
               "short_name" : "Z",
               "types" : [ "administrative_area_level_2", "political" ]
            },
            {
               "long_name" : "Aragon",
               "short_name" : "Aragon",
               "types" : [ "administrative_area_level_1", "political" ]
            },
            {
               "long_name" : "Spain",
               "short_name" : "ES",
               "types" : [ "country", "political" ]
            }
         ],
         "formatted_address" : "Zaragoza, Spain",
         "geometry" : {
            "bounds" : {
               "northeast" : {
                  "lat" : 41.9314872,
                  "lng" : -0.6803895
               },
               "southwest" : {
                  "lat" : 41.4516624,
                  "lng" : -1.173729
               }
            },
            "location" : {
               "lat" : 41.6488696,
               "lng" : -0.8897421
            },
            "location_type" : "APPROXIMATE",
            "viewport" : {
               "northeast" : {
                  "lat" : 41.9314872,
                  "lng" : -0.6803895
               },
               "southwest" : {
                  "lat" : 41.4516624,
                  "lng" : -1.173729
               }
            }
         },
         "place_id" : "ChIJ-W5lP-4UWQ0Rzr7HPj6Jae0",
         "types" : [ "administrative_area_level_4", "political" ]
      },
      {
         "address_components" : [
            {
               "long_name" : "Zaragoza",
               "short_name" : "Zaragoza",
               "types" : [ "administrative_area_level_3", "political" ]
            },
            {
               "long_name" : "Zaragoza",
               "short_name" : "Z",
               "types" : [ "administrative_area_level_2", "political" ]
            },
            {
               "long_name" : "Aragon",
               "short_name" : "Aragon",
               "types" : [ "administrative_area_level_1", "political" ]
            },
            {
               "long_name" : "Spain",
               "short_name" : "ES",
               "types" : [ "country", "political" ]
            }
         ],
         "formatted_address" : "Zaragoza, Spain",
         "geometry" : {
            "bounds" : {
               "northeast" : {
                  "lat" : 42.0149778,
                  "lng" : -0.5088675
               },
               "southwest" : {
                  "lat" : 41.385502,
                  "lng" : -1.1739432
               }
            },
            "location" : {
               "lat" : 41.64882009999999,
               "lng" : -0.8890616
            },
            "location_type" : "APPROXIMATE",
            "viewport" : {
               "northeast" : {
                  "lat" : 42.0149778,
                  "lng" : -0.5088675
               },
               "southwest" : {
                  "lat" : 41.385502,
                  "lng" : -1.1739432
               }
            }
         },
         "place_id" : "ChIJ6UMWVcITWQ0RbayVzPDzLTg",
         "types" : [ "administrative_area_level_3", "political" ]
      },
      {
         "address_components" : [
            {
               "long_name" : "Zaragoza",
               "short_name" : "Z",
               "types" : [ "administrative_area_level_2", "political" ]
            },
            {
               "long_name" : "Aragon",
               "short_name" : "Aragon",
               "types" : [ "administrative_area_level_1", "political" ]
            },
            {
               "long_name" : "Spain",
               "short_name" : "ES",
               "types" : [ "country", "political" ]
            }
         ],
         "formatted_address" : "Zaragoza, Spain",
         "geometry" : {
            "bounds" : {
               "northeast" : {
                  "lat" : 42.744052,
                  "lng" : 0.3856641
               },
               "southwest" : {
                  "lat" : 40.9362157,
                  "lng" : -2.1736712
               }
            },
            "location" : {
               "lat" : 41.6488224,
               "lng" : -0.8895362
            },
            "location_type" : "APPROXIMATE",
            "viewport" : {
               "northeast" : {
                  "lat" : 42.744052,
                  "lng" : 0.3856641
               },
               "southwest" : {
                  "lat" : 40.9362157,
                  "lng" : -2.1736712
               }
            }
         },
         "place_id" : "ChIJe4uZsFkLWQ0RUMzNCGWMAQM",
         "types" : [ "administrative_area_level_2", "political" ]
      },
      {
         "address_components" : [
            {
               "long_name" : "Aragon",
               "short_name" : "Aragon",
               "types" : [ "administrative_area_level_1", "political" ]
            },
            {
               "long_name" : "Spain",
               "short_name" : "ES",
               "types" : [ "country", "political" ]
            }
         ],
         "formatted_address" : "Aragon, Spain",
         "geometry" : {
            "bounds" : {
               "northeast" : {
                  "lat" : 42.9244952,
                  "lng" : 0.7713066
               },
               "southwest" : {
                  "lat" : 39.846778,
                  "lng" : -2.1736712
               }
            },
            "location" : {
               "lat" : 41.5976275,
               "lng" : -0.9056623
            },
            "location_type" : "APPROXIMATE",
            "viewport" : {
               "northeast" : {
                  "lat" : 42.9244952,
                  "lng" : 0.7713066
               },
               "southwest" : {
                  "lat" : 39.846778,
                  "lng" : -2.1736712
               }
            }
         },
         "place_id" : "ChIJ-W5lP-4UWQ0RWP14-ZVCICA",
         "types" : [ "administrative_area_level_1", "political" ]
      },
      {
         "address_components" : [
            {
               "long_name" : "Spain",
               "short_name" : "ES",
               "types" : [ "country", "political" ]
            }
         ],
         "formatted_address" : "Spain",
         "geometry" : {
            "bounds" : {
               "northeast" : {
                  "lat" : 43.8504,
                  "lng" : 4.6362
               },
               "southwest" : {
                  "lat" : 27.4985,
                  "lng" : -18.2648001
               }
            },
            "location" : {
               "lat" : 40.46366700000001,
               "lng" : -3.74922
            },
            "location_type" : "APPROXIMATE",
            "viewport" : {
               "northeast" : {
                  "lat" : 45.244,
                  "lng" : 5.098
               },
               "southwest" : {
                  "lat" : 35.17300000000001,
                  "lng" : -12.524
               }
            }
         },
         "place_id" : "ChIJi7xhMnjjQgwR7KNoB5Qs7KY",
         "types" : [ "country", "political" ]
      }
   ],
   "status" : "OK"
}
