{
   "plus_code" : {
      "compound_code" : "82JJ+9R Leioa, Spain",
      "global_code" : "8CMV82JJ+9R"
   },
   "results" : [
      {
         "address_components" : [
            {
               "long_name" : "Universidad del País Vasco",
               "short_name" : "Universidad del País Vasco",
               "types" : [ "premise" ]
            },
            {
               "long_name" : "S/N",
               "short_name" : "S/N",
               "types" : [ "street_number" ]
            },
            {
               "long_name" : "Barrio Sarriena",
               "short_name" : "Barrio Sarriena",
               "types" : [ "route" ]
            },
            {
               "long_name" : "Leioa",
               "short_name" : "Leioa",
               "types" : [ "locality", "political" ]
            },
            {
               "long_name" : "Bizkaia",
               "short_name" : "BI",
               "types" : [ "administrative_area_level_2", "political" ]
            },
            {
               "long_name" : "Euskadi",
               "short_name" : "PV",
               "types" : [ "administrative_area_level_1", "political" ]
            },
            {
               "long_name" : "Spain",
               "short_name" : "ES",
               "types" : [ "country", "political" ]
            },
            {
               "long_name" : "48940",
               "short_name" : "48940",
               "types" : [ "postal_code" ]
            }
         ],
         "formatted_address" : "Universidad del País Vasco, Barrio Sarriena, S/N, 48940 Leioa, Bizkaia, Spain",
         "geometry" : {
            "location" : {
               "lat" : 43.3318705,
               "lng" : -2.9699091
            },
            "location_type" : "ROOFTOP",
            "viewport" : {
               "northeast" : {
                  "lat" : 43.3332194802915,
                  "lng" : -2.968560119708498
               },
               "southwest" : {
                  "lat" : 43.3305215197085,
                  "lng" : -2.971258080291502
               }
            }
         },
         "place_id" : "ChIJqdrf_gJbTg0RoczU0H1pOlg",
         "plus_code" : {
            "compound_code" : "82JJ+P2 Leioa, Spain",
            "global_code" : "8CMV82JJ+P2"
         },
         "types" : [ "establishment", "point_of_interest" ]
      },
      {
         "address_components" : [
            {
               "long_name" : "Unnamed Road",
               "short_name" : "Unnamed Road",
               "types" : [ "route" ]
            },
            {
               "long_name" : "Leioa",
               "short_name" : "Leioa",
               "types" : [ "locality", "political" ]
            },
            {
               "long_name" : "Bizkaia",
               "short_name" : "BI",
               "types" : [ "administrative_area_level_2", "political" ]
            },
            {
               "long_name" : "Euskadi",
               "short_name" : "PV",
               "types" : [ "administrative_area_level_1", "political" ]
            },
            {
               "long_name" : "Spain",
               "short_name" : "ES",
               "types" : [ "country", "political" ]
            },
            {
               "long_name" : "48940",
               "short_name" : "48940",
               "types" : [ "postal_code" ]
            }
         ],
         "formatted_address" : "Unnamed Road, 48940 Leioa, Bizkaia, Spain",
         "geometry" : {
            "bounds" : {
               "northeast" : {
                  "lat" : 43.3312466,
                  "lng" : -2.967607
               },
               "southwest" : {
                  "lat" : 43.3306316,
                  "lng" : -2.9684402
               }
            },
            "location" : {
               "lat" : 43.33093909999999,
               "lng" : -2.9680236
            },
            "location_type" : "GEOMETRIC_CENTER",
            "viewport" : {
               "northeast" : {
                  "lat" : 43.3322880802915,
                  "lng" : -2.966674619708498
               },
               "southwest" : {
                  "lat" : 43.3295901197085,
                  "lng" : -2.969372580291501
               }
            }
         },
         "place_id" : "ChIJ8yNLyQJbTg0RBojc8-e5G0M",
         "types" : [ "route" ]
      },
      {
         "address_components" : [
            {
               "long_name" : "Leioa",
               "short_name" : "Leioa",
               "types" : [ "locality", "political" ]
            },
            {
               "long_name" : "Biscay",
               "short_name" : "BI",
               "types" : [ "administrative_area_level_2", "political" ]
            },
            {
               "long_name" : "Basque Country",
               "short_name" : "PV",
               "types" : [ "administrative_area_level_1", "political" ]
            },
            {
               "long_name" : "Spain",
               "short_name" : "ES",
               "types" : [ "country", "political" ]
            }
         ],
         "formatted_address" : "Leioa, Biscay, Spain",
         "geometry" : {
            "bounds" : {
               "northeast" : {
                  "lat" : 43.3387142,
                  "lng" : -2.9635293
               },
               "southwest" : {
                  "lat" : 43.3150244,
                  "lng" : -3.0106147
               }
            },
            "location" : {
               "lat" : 43.32670359999999,
               "lng" : -2.990057
            },
            "location_type" : "APPROXIMATE",
            "viewport" : {
               "northeast" : {
                  "lat" : 43.3387142,
                  "lng" : -2.9635293
               },
               "southwest" : {
                  "lat" : 43.3150244,
                  "lng" : -3.0106147
               }
            }
         },
         "place_id" : "ChIJSYZaUFBaTg0R9ZgvUby2WyM",
         "types" : [ "locality", "political" ]
      },
      {
         "address_components" : [
            {
               "long_name" : "48940",
               "short_name" : "48940",
               "types" : [ "postal_code" ]
            },
            {
               "long_name" : "Leioa",
               "short_name" : "Leioa",
               "types" : [ "locality", "political" ]
            },
            {
               "long_name" : "Biscay",
               "short_name" : "BI",
               "types" : [ "administrative_area_level_2", "political" ]
            },
            {
               "long_name" : "Basque Country",
               "short_name" : "PV",
               "types" : [ "administrative_area_level_1", "political" ]
            },
            {
               "long_name" : "Spain",
               "short_name" : "ES",
               "types" : [ "country", "political" ]
            }
         ],
         "formatted_address" : "48940 Leioa, Biscay, Spain",
         "geometry" : {
            "bounds" : {
               "northeast" : {
                  "lat" : 43.34357199999999,
                  "lng" : -2.9606179
               },
               "southwest" : {
                  "lat" : 43.3136994,
                  "lng" : -3.0110876
               }
            },
            "location" : {
               "lat" : 43.33413530000001,
               "lng" : -2.9825559
            },
            "location_type" : "APPROXIMATE",
            "viewport" : {
               "northeast" : {
                  "lat" : 43.34357199999999,
                  "lng" : -2.9606179
               },
               "southwest" : {
                  "lat" : 43.3136994,
                  "lng" : -3.0110876
               }
            }
         },
         "place_id" : "ChIJG_h8t1JaTg0R8Nriv4X1BBw",
         "types" : [ "postal_code" ]
      },
      {
         "address_components" : [
            {
               "long_name" : "Leioa",
               "short_name" : "Leioa",
               "types" : [ "administrative_area_level_4", "political" ]
            },
            {
               "long_name" : "Biscay",
               "short_name" : "BI",
               "types" : [ "administrative_area_level_2", "political" ]
            },
            {
               "long_name" : "Basque Country",
               "short_name" : "PV",
               "types" : [ "administrative_area_level_1", "political" ]
            },
            {
               "long_name" : "Spain",
               "short_name" : "ES",
               "types" : [ "country", "political" ]
            }
         ],
         "formatted_address" : "Leioa, Biscay, Spain",
         "geometry" : {
            "bounds" : {
               "northeast" : {
                  "lat" : 43.3437431,
                  "lng" : -2.9608891
               },
               "southwest" : {
                  "lat" : 43.3135148,
                  "lng" : -3.0111806
               }
            },
            "location" : {
               "lat" : 43.3246703,
               "lng" : -2.9854477
            },
            "location_type" : "APPROXIMATE",
            "viewport" : {
               "northeast" : {
                  "lat" : 43.3437431,
                  "lng" : -2.9608891
               },
               "southwest" : {
                  "lat" : 43.3135148,
                  "lng" : -3.0111806
               }
            }
         },
         "place_id" : "ChIJSYZaUFBaTg0RzyeiDBWn8jo",
         "types" : [ "administrative_area_level_4", "political" ]
      },
      {
         "address_components" : [
            {
               "long_name" : "Greater Bilbao",
               "short_name" : "Greater Bilbao",
               "types" : [ "administrative_area_level_3", "political" ]
            },
            {
               "long_name" : "Biscay",
               "short_name" : "BI",
               "types" : [ "administrative_area_level_2", "political" ]
            },
            {
               "long_name" : "Basque Country",
               "short_name" : "PV",
               "types" : [ "administrative_area_level_1", "political" ]
            },
            {
               "long_name" : "Spain",
               "short_name" : "ES",
               "types" : [ "country", "political" ]
            }
         ],
         "formatted_address" : "Greater Bilbao, Biscay, Spain",
         "geometry" : {
            "bounds" : {
               "northeast" : {
                  "lat" : 43.38396030000001,
                  "lng" : -2.7404329
               },
               "southwest" : {
                  "lat" : 43.1687923,
                  "lng" : -3.1543196
               }
            },
            "location" : {
               "lat" : 43.2720326,
               "lng" : -2.9575607
            },
            "location_type" : "APPROXIMATE",
            "viewport" : {
               "northeast" : {
                  "lat" : 43.38396030000001,
                  "lng" : -2.7404329
               },
               "southwest" : {
                  "lat" : 43.1687923,
                  "lng" : -3.1543196
               }
            }
         },
         "place_id" : "ChIJ9bgH4xlQTg0RTGaxDfCowtE",
         "types" : [ "administrative_area_level_3", "political" ]
      },
      {
         "address_components" : [
            {
               "long_name" : "Biscay",
               "short_name" : "Biscay",
               "types" : [ "administrative_area_level_2", "political" ]
            },
            {
               "long_name" : "Basque Country",
               "short_name" : "PV",
               "types" : [ "administrative_area_level_1", "political" ]
            },
            {
               "long_name" : "Spain",
               "short_name" : "ES",
               "types" : [ "country", "political" ]
            }
         ],
         "formatted_address" : "Biscay, Spain",
         "geometry" : {
            "bounds" : {
               "northeast" : {
                  "lat" : 43.4572461,
                  "lng" : -2.4126037
               },
               "southwest" : {
                  "lat" : 42.9818773,
                  "lng" : -3.4492758
               }
            },
            "location" : {
               "lat" : 43.2204286,
               "lng" : -2.6983868
            },
            "location_type" : "APPROXIMATE",
            "viewport" : {
               "northeast" : {
                  "lat" : 43.4572461,
                  "lng" : -2.4126037
               },
               "southwest" : {
                  "lat" : 42.9818773,
                  "lng" : -3.4492758
               }
            }
         },
         "place_id" : "ChIJzxBUoQZOTg0RMMzJc4L1BAM",
         "types" : [ "administrative_area_level_2", "political" ]
      },
      {
         "address_components" : [
            {
               "long_name" : "Basque Country",
               "short_name" : "Basque Country",
               "types" : [ "administrative_area_level_1", "political" ]
            },
            {
               "long_name" : "Spain",
               "short_name" : "ES",
               "types" : [ "country", "political" ]
            }
         ],
         "formatted_address" : "Basque Country, Spain",
         "geometry" : {
            "bounds" : {
               "northeast" : {
                  "lat" : 43.4572461,
                  "lng" : -1.7293434
               },
               "southwest" : {
                  "lat" : 42.4722552,
                  "lng" : -3.4492758
               }
            },
            "location" : {
               "lat" : 42.9896248,
               "lng" : -2.6189273
            },
            "location_type" : "APPROXIMATE",
            "viewport" : {
               "northeast" : {
                  "lat" : 43.4572461,
                  "lng" : -1.7293434
               },
               "southwest" : {
                  "lat" : 42.4722552,
                  "lng" : -3.4492758
               }
            }
         },
         "place_id" : "ChIJb6xU497RTw0RPL3jSqEwgjA",
         "types" : [ "administrative_area_level_1", "political" ]
      },
      {
         "address_components" : [
            {
               "long_name" : "Spain",
               "short_name" : "ES",
               "types" : [ "country", "political" ]
            }
         ],
         "formatted_address" : "Spain",
         "geometry" : {
            "bounds" : {
               "northeast" : {
                  "lat" : 43.8504,
                  "lng" : 4.6362
               },
               "southwest" : {
                  "lat" : 27.4985,
                  "lng" : -18.2648001
               }
            },
            "location" : {
               "lat" : 40.46366700000001,
               "lng" : -3.74922
            },
            "location_type" : "APPROXIMATE",
            "viewport" : {
               "northeast" : {
                  "lat" : 43.8504,
                  "lng" : 4.6362
               },
               "southwest" : {
                  "lat" : 27.4985,
                  "lng" : -18.2648001
               }
            }
         },
         "place_id" : "ChIJi7xhMnjjQgwR7KNoB5Qs7KY",
         "types" : [ "country", "political" ]
      }
   ],
   "status" : "OK"
}
