{
   "plus_code" : {
      "compound_code" : "CC82+XV Trondheim, Norway",
      "global_code" : "9FMGCC82+XV"
   },
   "results" : [
      {
         "address_components" : [
            {
               "long_name" : "11",
               "short_name" : "11",
               "types" : [ "street_number" ]
            },
            {
               "long_name" : "Sem Sælands vei",
               "short_name" : "Sem Sælands vei",
               "types" : [ "route" ]
            },
            {
               "long_name" : "Trondheim",
               "short_name" : "Trondheim",
               "types" : [ "postal_town" ]
            },
            {
               "long_name" : "Trondheim",
               "short_name" : "Trondheim",
               "types" : [ "administrative_area_level_2", "political" ]
            },
            {
               "long_name" : "Sør-Trøndelag",
               "short_name" : "Sør-Trøndelag",
               "types" : [ "administrative_area_level_1", "political" ]
            },
            {
               "long_name" : "Norway",
               "short_name" : "NO",
               "types" : [ "country", "political" ]
            },
            {
               "long_name" : "7034",
               "short_name" : "7034",
               "types" : [ "postal_code" ]
            }
         ],
         "formatted_address" : "Sem Sælands vei 11, 7034 Trondheim, Norway",
         "geometry" : {
            "location" : {
               "lat" : 63.4174452,
               "lng" : 10.402194
            },
            "location_type" : "ROOFTOP",
            "viewport" : {
               "northeast" : {
                  "lat" : 63.4187941802915,
                  "lng" : 10.4035429802915
               },
               "southwest" : {
                  "lat" : 63.41609621970849,
                  "lng" : 10.4008450197085
               }
            }
         },
         "place_id" : "ChIJiXTEDZUxbUYRjw8zCy_lCHc",
         "plus_code" : {
            "compound_code" : "CC82+XV Trondheim, Trondheim Municipality, Norway",
            "global_code" : "9FMGCC82+XV"
         },
         "types" : [ "establishment", "point_of_interest" ]
      },
      {
         "address_components" : [
            {
               "long_name" : "13",
               "short_name" : "13",
               "types" : [ "street_number" ]
            },
            {
               "long_name" : "Sem Sælands vei",
               "short_name" : "Sem Sælands vei",
               "types" : [ "route" ]
            },
            {
               "long_name" : "Trondheim",
               "short_name" : "Trondheim",
               "types" : [ "postal_town" ]
            },
            {
               "long_name" : "Trondheim",
               "short_name" : "Trondheim",
               "types" : [ "administrative_area_level_2", "political" ]
            },
            {
               "long_name" : "Sør-Trøndelag",
               "short_name" : "Sør-Trøndelag",
               "types" : [ "administrative_area_level_1", "political" ]
            },
            {
               "long_name" : "Norway",
               "short_name" : "NO",
               "types" : [ "country", "political" ]
            },
            {
               "long_name" : "7034",
               "short_name" : "7034",
               "types" : [ "postal_code" ]
            }
         ],
         "formatted_address" : "Sem Sælands vei 13, 7034 Trondheim, Norway",
         "geometry" : {
            "location" : {
               "lat" : 63.4175431,
               "lng" : 10.4018983
            },
            "location_type" : "ROOFTOP",
            "viewport" : {
               "northeast" : {
                  "lat" : 63.41889208029151,
                  "lng" : 10.4032472802915
               },
               "southwest" : {
                  "lat" : 63.41619411970849,
                  "lng" : 10.4005493197085
               }
            }
         },
         "place_id" : "ChIJzfTyDpUxbUYRw6V-idj0law",
         "plus_code" : {
            "compound_code" : "CC92+2Q Trondheim, Trondheim Municipality, Norway",
            "global_code" : "9FMGCC92+2Q"
         },
         "types" : [ "street_address" ]
      },
      {
         "address_components" : [
            {
               "long_name" : "13",
               "short_name" : "13",
               "types" : [ "street_number" ]
            },
            {
               "long_name" : "Sem Sælands vei",
               "short_name" : "Sem Sælands vei",
               "types" : [ "route" ]
            },
            {
               "long_name" : "Trondheim",
               "short_name" : "Trondheim",
               "types" : [ "locality", "political" ]
            },
            {
               "long_name" : "Trondheim",
               "short_name" : "Trondheim",
               "types" : [ "administrative_area_level_2", "political" ]
            },
            {
               "long_name" : "Norway",
               "short_name" : "NO",
               "types" : [ "country", "political" ]
            },
            {
               "long_name" : "7034",
               "short_name" : "7034",
               "types" : [ "postal_code" ]
            }
         ],
         "formatted_address" : "Sem Sælands vei 13, 7034 Trondheim, Norway",
         "geometry" : {
            "location" : {
               "lat" : 63.41732679999999,
               "lng" : 10.4021388
            },
            "location_type" : "RANGE_INTERPOLATED",
            "viewport" : {
               "northeast" : {
                  "lat" : 63.4186757802915,
                  "lng" : 10.4034877802915
               },
               "southwest" : {
                  "lat" : 63.41597781970849,
                  "lng" : 10.4007898197085
               }
            }
         },
         "place_id" : "EipTZW0gU8OmbGFuZHMgdmVpIDEzLCA3MDM0IFRyb25kaGVpbSwgTm9yZ2UiGhIYChQKEgn1Cm8SlTFtRhGjvwlrupC6WBAN",
         "types" : [ "street_address" ]
      },
      {
         "address_components" : [
            {
               "long_name" : "7034",
               "short_name" : "7034",
               "types" : [ "postal_code" ]
            },
            {
               "long_name" : "Trondheim",
               "short_name" : "Trondheim",
               "types" : [ "postal_town" ]
            },
            {
               "long_name" : "Trondheim Municipality",
               "short_name" : "Trondheim Municipality",
               "types" : [ "administrative_area_level_2", "political" ]
            },
            {
               "long_name" : "Sor-Trondelag",
               "short_name" : "Sor-Trondelag",
               "types" : [ "administrative_area_level_1", "political" ]
            },
            {
               "long_name" : "Norway",
               "short_name" : "NO",
               "types" : [ "country", "political" ]
            }
         ],
         "formatted_address" : "7034 Trondheim, Norway",
         "geometry" : {
            "bounds" : {
               "northeast" : {
                  "lat" : 63.421378,
                  "lng" : 10.4118249
               },
               "southwest" : {
                  "lat" : 63.4128138,
                  "lng" : 10.3974384
               }
            },
            "location" : {
               "lat" : 63.4171678,
               "lng" : 10.403915
            },
            "location_type" : "APPROXIMATE",
            "viewport" : {
               "northeast" : {
                  "lat" : 63.421378,
                  "lng" : 10.4118249
               },
               "southwest" : {
                  "lat" : 63.4128138,
                  "lng" : 10.3974384
               }
            }
         },
         "place_id" : "ChIJv8-lfJUxbUYRxoP8RovrQKI",
         "types" : [ "postal_code" ]
      },
      {
         "address_components" : [
            {
               "long_name" : "Trondheim",
               "short_name" : "Trondheim",
               "types" : [ "locality", "political" ]
            },
            {
               "long_name" : "Sor-Trondelag",
               "short_name" : "Sor-Trondelag",
               "types" : [ "administrative_area_level_1", "political" ]
            },
            {
               "long_name" : "Norway",
               "short_name" : "NO",
               "types" : [ "country", "political" ]
            }
         ],
         "formatted_address" : "Trondheim, Norway",
         "geometry" : {
            "bounds" : {
               "northeast" : {
                  "lat" : 63.45691890000001,
                  "lng" : 10.5793655
               },
               "southwest" : {
                  "lat" : 63.3805535,
                  "lng" : 10.2981588
               }
            },
            "location" : {
               "lat" : 63.4305149,
               "lng" : 10.3950528
            },
            "location_type" : "APPROXIMATE",
            "viewport" : {
               "northeast" : {
                  "lat" : 63.45691890000001,
                  "lng" : 10.5793655
               },
               "southwest" : {
                  "lat" : 63.3805535,
                  "lng" : 10.2981588
               }
            }
         },
         "place_id" : "ChIJU34DR5cxbUYR1PM8jyjI9ws",
         "types" : [ "locality", "political" ]
      },
      {
         "address_components" : [
            {
               "long_name" : "Trondheim",
               "short_name" : "Trondheim",
               "types" : [ "postal_town" ]
            },
            {
               "long_name" : "Trondheim",
               "short_name" : "Trondheim",
               "types" : [ "administrative_area_level_2", "political" ]
            },
            {
               "long_name" : "Sør-Trøndelag",
               "short_name" : "Sør-Trøndelag",
               "types" : [ "administrative_area_level_1", "political" ]
            },
            {
               "long_name" : "Norway",
               "short_name" : "NO",
               "types" : [ "country", "political" ]
            },
            {
               "long_name" : "7050",
               "short_name" : "7050",
               "types" : [ "postal_code" ]
            }
         ],
         "formatted_address" : "7050 Trondheim, Norway",
         "geometry" : {
            "bounds" : {
               "northeast" : {
                  "lat" : 63.51659480000001,
                  "lng" : 10.7429604
               },
               "southwest" : {
                  "lat" : 63.26938380000001,
                  "lng" : 10.187501
               }
            },
            "location" : {
               "lat" : 63.4149085,
               "lng" : 10.4042134
            },
            "location_type" : "APPROXIMATE",
            "viewport" : {
               "northeast" : {
                  "lat" : 63.51659480000001,
                  "lng" : 10.7429604
               },
               "southwest" : {
                  "lat" : 63.26938380000001,
                  "lng" : 10.187501
               }
            }
         },
         "place_id" : "ChIJSYnbNykwbUYRHLY7Dw2nZgQ",
         "types" : [ "postal_town" ]
      },
      {
         "address_components" : [
            {
               "long_name" : "Trondheim Municipality",
               "short_name" : "Trondheim Municipality",
               "types" : [ "administrative_area_level_2", "political" ]
            },
            {
               "long_name" : "Sor-Trondelag",
               "short_name" : "Sor-Trondelag",
               "types" : [ "administrative_area_level_1", "political" ]
            },
            {
               "long_name" : "Norway",
               "short_name" : "NO",
               "types" : [ "country", "political" ]
            }
         ],
         "formatted_address" : "Trondheim Municipality, Norway",
         "geometry" : {
            "bounds" : {
               "northeast" : {
                  "lat" : 63.5165944,
                  "lng" : 10.7251711
               },
               "southwest" : {
                  "lat" : 63.3027029,
                  "lng" : 10.00353
               }
            },
            "location" : {
               "lat" : 63.4209561,
               "lng" : 10.321571
            },
            "location_type" : "APPROXIMATE",
            "viewport" : {
               "northeast" : {
                  "lat" : 63.5165944,
                  "lng" : 10.7251711
               },
               "southwest" : {
                  "lat" : 63.3027029,
                  "lng" : 10.00353
               }
            }
         },
         "place_id" : "ChIJ96h6VB0ubUYRVNnGf4YJrlc",
         "types" : [ "administrative_area_level_2", "political" ]
      },
      {
         "address_components" : [
            {
               "long_name" : "Sor-Trondelag",
               "short_name" : "Sor-Trondelag",
               "types" : [ "administrative_area_level_1", "political" ]
            },
            {
               "long_name" : "Norway",
               "short_name" : "NO",
               "types" : [ "country", "political" ]
            }
         ],
         "formatted_address" : "Sor-Trondelag, Norway",
         "geometry" : {
            "bounds" : {
               "northeast" : {
                  "lat" : 64.72845149999999,
                  "lng" : 12.2546636
               },
               "southwest" : {
                  "lat" : 62.2557267,
                  "lng" : 7.6480963
               }
            },
            "location" : {
               "lat" : 63.0136823,
               "lng" : 10.3487136
            },
            "location_type" : "APPROXIMATE",
            "viewport" : {
               "northeast" : {
                  "lat" : 64.72845149999999,
                  "lng" : 12.2546636
               },
               "southwest" : {
                  "lat" : 62.2557267,
                  "lng" : 7.6480963
               }
            }
         },
         "place_id" : "ChIJTdvEdy3TEkYRAB3dD6sIAgM",
         "types" : [ "administrative_area_level_1", "political" ]
      },
      {
         "address_components" : [
            {
               "long_name" : "Norway",
               "short_name" : "NO",
               "types" : [ "country", "political" ]
            }
         ],
         "formatted_address" : "Norway",
         "geometry" : {
            "bounds" : {
               "northeast" : {
                  "lat" : 71.30780000000001,
                  "lng" : 31.3549999
               },
               "southwest" : {
                  "lat" : 57.8097,
                  "lng" : 4.0649
               }
            },
            "location" : {
               "lat" : 60.47202399999999,
               "lng" : 8.468945999999999
            },
            "location_type" : "APPROXIMATE",
            "viewport" : {
               "northeast" : {
                  "lat" : 71.30780000000001,
                  "lng" : 31.3549999
               },
               "southwest" : {
                  "lat" : 57.8097,
                  "lng" : 4.0649
               }
            }
         },
         "place_id" : "ChIJv-VNj0VoEkYRK9BkuJ07sKE",
         "types" : [ "country", "political" ]
      }
   ],
   "status" : "OK"
}
