{
   "plus_code" : {
      "compound_code" : "MQPF+Q6 Tokyo, Japan",
      "global_code" : "8Q7XMQPF+Q6"
   },
   "results" : [
      {
         "address_components" : [
            {
               "long_name" : "8Ｆ",
               "short_name" : "8Ｆ",
               "types" : [ "floor" ]
            },
            {
               "long_name" : "日本橋三井タワー",
               "short_name" : "日本橋三井タワー",
               "types" : [ "premise" ]
            },
            {
               "long_name" : "1",
               "short_name" : "1",
               "types" : [ "premise" ]
            },
            {
               "long_name" : "1",
               "short_name" : "1",
               "types" : [ "political", "sublocality", "sublocality_level_4" ]
            },
            {
               "long_name" : "2 Chome",
               "short_name" : "2 Chome",
               "types" : [ "political", "sublocality", "sublocality_level_3" ]
            },
            {
               "long_name" : "Nihonbashimuromachi",
               "short_name" : "Nihonbashimuromachi",
               "types" : [ "political", "sublocality", "sublocality_level_2" ]
            },
            {
               "long_name" : "Chūō",
               "short_name" : "Chūō",
               "types" : [ "locality", "political" ]
            },
            {
               "long_name" : "Tokyo",
               "short_name" : "Tokyo",
               "types" : [ "administrative_area_level_1", "political" ]
            },
            {
               "long_name" : "Japan",
               "short_name" : "JP",
               "types" : [ "country", "political" ]
            },
            {
               "long_name" : "103-0022",
               "short_name" : "103-0022",
               "types" : [ "postal_code" ]
            }
         ],
         "formatted_address" : "Japan, 〒103-0022 Tokyo, Chūō, Nihonbashimuromachi, 2 Chome−1−１ 日本橋三井タワー 8Ｆ",
         "geometry" : {
            "location" : {
               "lat" : 35.6868816,
               "lng" : 139.7731096
            },
            "location_type" : "ROOFTOP",
            "viewport" : {
               "northeast" : {
                  "lat" : 35.6882305802915,
                  "lng" : 139.7744585802915
               },
               "southwest" : {
                  "lat" : 35.6855326197085,
                  "lng" : 139.7717606197085
               }
            }
         },
         "place_id" : "ChIJ8yBCfFWJGGARk5zzq2V6Yl0",
         "plus_code" : {
            "compound_code" : "MQPF+Q6 Tokyo, Japan",
            "global_code" : "8Q7XMQPF+Q6"
         },
         "types" : [ "establishment", "point_of_interest" ]
      },
      {
         "address_components" : [
            {
               "long_name" : "Unnamed Road",
               "short_name" : "Unnamed Road",
               "types" : [ "route" ]
            },
            {
               "long_name" : "1",
               "short_name" : "1",
               "types" : [ "political", "sublocality", "sublocality_level_4" ]
            },
            {
               "long_name" : "2 Chome",
               "short_name" : "2 Chome",
               "types" : [ "political", "sublocality", "sublocality_level_3" ]
            },
            {
               "long_name" : "Nihonbashimuromachi",
               "short_name" : "Nihonbashimuromachi",
               "types" : [ "political", "sublocality", "sublocality_level_2" ]
            },
            {
               "long_name" : "Chūō-ku",
               "short_name" : "Chūō-ku",
               "types" : [ "locality", "political" ]
            },
            {
               "long_name" : "Tōkyō-to",
               "short_name" : "Tōkyō-to",
               "types" : [ "administrative_area_level_1", "political" ]
            },
            {
               "long_name" : "Japan",
               "short_name" : "JP",
               "types" : [ "country", "political" ]
            },
            {
               "long_name" : "103-0022",
               "short_name" : "103-0022",
               "types" : [ "postal_code" ]
            }
         ],
         "formatted_address" : "Unnamed Road, 2 Chome-1 Nihonbashimuromachi, Chūō-ku, Tōkyō-to 103-0022, Japan",
         "geometry" : {
            "bounds" : {
               "northeast" : {
                  "lat" : 35.6868739,
                  "lng" : 139.7735305
               },
               "southwest" : {
                  "lat" : 35.6867767,
                  "lng" : 139.7733572
               }
            },
            "location" : {
               "lat" : 35.6868253,
               "lng" : 139.7734438
            },
            "location_type" : "GEOMETRIC_CENTER",
            "viewport" : {
               "northeast" : {
                  "lat" : 35.6881742802915,
                  "lng" : 139.7747928302915
               },
               "southwest" : {
                  "lat" : 35.68547631970851,
                  "lng" : 139.7720948697085
               }
            }
         },
         "place_id" : "ChIJN6zHeVWJGGARgLLkuvKVNew",
         "types" : [ "route" ]
      },
      {
         "address_components" : [
            {
               "long_name" : "1",
               "short_name" : "1",
               "types" : [ "political", "sublocality", "sublocality_level_4" ]
            },
            {
               "long_name" : "2 Chome",
               "short_name" : "2 Chome",
               "types" : [ "political", "sublocality", "sublocality_level_3" ]
            },
            {
               "long_name" : "Nihonbashimuromachi",
               "short_name" : "Nihonbashimuromachi",
               "types" : [ "political", "sublocality", "sublocality_level_2" ]
            },
            {
               "long_name" : "Chūō",
               "short_name" : "Chūō",
               "types" : [ "locality", "political" ]
            },
            {
               "long_name" : "Tokyo",
               "short_name" : "Tokyo",
               "types" : [ "administrative_area_level_1", "political" ]
            },
            {
               "long_name" : "Japan",
               "short_name" : "JP",
               "types" : [ "country", "political" ]
            },
            {
               "long_name" : "103-0022",
               "short_name" : "103-0022",
               "types" : [ "postal_code" ]
            }
         ],
         "formatted_address" : "2 Chome-1 Nihonbashimuromachi, Chūō, Tokyo 103-0022, Japan",
         "geometry" : {
            "bounds" : {
               "northeast" : {
                  "lat" : 35.6875404,
                  "lng" : 139.7739621
               },
               "southwest" : {
                  "lat" : 35.68585789999999,
                  "lng" : 139.7720931
               }
            },
            "location" : {
               "lat" : 35.6869347,
               "lng" : 139.7733858
            },
            "location_type" : "GEOMETRIC_CENTER",
            "viewport" : {
               "northeast" : {
                  "lat" : 35.6880481302915,
                  "lng" : 139.7743765802915
               },
               "southwest" : {
                  "lat" : 35.6853501697085,
                  "lng" : 139.7716786197085
               }
            }
         },
         "place_id" : "ChIJmaRhflWJGGARVGIiZgm4qVs",
         "types" : [ "political", "sublocality", "sublocality_level_4" ]
      },
      {
         "address_components" : [
            {
               "long_name" : "Nihonbashimuromachi",
               "short_name" : "Nihonbashimuromachi",
               "types" : [ "political", "sublocality", "sublocality_level_2" ]
            },
            {
               "long_name" : "Chūō",
               "short_name" : "Chūō",
               "types" : [ "locality", "political" ]
            },
            {
               "long_name" : "Tokyo",
               "short_name" : "Tokyo",
               "types" : [ "administrative_area_level_1", "political" ]
            },
            {
               "long_name" : "Japan",
               "short_name" : "JP",
               "types" : [ "country", "political" ]
            },
            {
               "long_name" : "103-0022",
               "short_name" : "103-0022",
               "types" : [ "postal_code" ]
            }
         ],
         "formatted_address" : "Nihonbashimuromachi, Chūō, Tokyo 103-0022, Japan",
         "geometry" : {
            "bounds" : {
               "northeast" : {
                  "lat" : 35.690024,
                  "lng" : 139.7769478
               },
               "southwest" : {
                  "lat" : 35.6840525,
                  "lng" : 139.7710504
               }
            },
            "location" : {
               "lat" : 35.68541,
               "lng" : 139.7753635
            },
            "location_type" : "APPROXIMATE",
            "viewport" : {
               "northeast" : {
                  "lat" : 35.690024,
                  "lng" : 139.7769478
               },
               "southwest" : {
                  "lat" : 35.6840525,
                  "lng" : 139.7710504
               }
            }
         },
         "place_id" : "ChIJryL4dFWJGGARp404D66ywsM",
         "types" : [ "political", "sublocality", "sublocality_level_2" ]
      },
      {
         "address_components" : [
            {
               "long_name" : "2 Chome",
               "short_name" : "2 Chome",
               "types" : [ "political", "sublocality", "sublocality_level_3" ]
            },
            {
               "long_name" : "Nihonbashimuromachi",
               "short_name" : "Nihonbashimuromachi",
               "types" : [ "political", "sublocality", "sublocality_level_2" ]
            },
            {
               "long_name" : "Chūō",
               "short_name" : "Chūō",
               "types" : [ "locality", "political" ]
            },
            {
               "long_name" : "Tokyo",
               "short_name" : "Tokyo",
               "types" : [ "administrative_area_level_1", "political" ]
            },
            {
               "long_name" : "Japan",
               "short_name" : "JP",
               "types" : [ "country", "political" ]
            },
            {
               "long_name" : "103-0022",
               "short_name" : "103-0022",
               "types" : [ "postal_code" ]
            }
         ],
         "formatted_address" : "2 Chome Nihonbashimuromachi, Chūō, Tokyo 103-0022, Japan",
         "geometry" : {
            "bounds" : {
               "northeast" : {
                  "lat" : 35.6877487,
                  "lng" : 139.7753968
               },
               "southwest" : {
                  "lat" : 35.68585789999999,
                  "lng" : 139.7720931
               }
            },
            "location" : {
               "lat" : 35.6870597,
               "lng" : 139.7742052
            },
            "location_type" : "APPROXIMATE",
            "viewport" : {
               "northeast" : {
                  "lat" : 35.6881522802915,
                  "lng" : 139.7753968
               },
               "southwest" : {
                  "lat" : 35.6854543197085,
                  "lng" : 139.7720931
               }
            }
         },
         "place_id" : "ChIJpQE9dlWJGGAR7Pg0wZ13J_I",
         "types" : [ "political", "sublocality", "sublocality_level_3" ]
      },
      {
         "address_components" : [
            {
               "long_name" : "103-0022",
               "short_name" : "103-0022",
               "types" : [ "postal_code" ]
            },
            {
               "long_name" : "Nihonbashimuromachi",
               "short_name" : "Nihonbashimuromachi",
               "types" : [ "political", "sublocality", "sublocality_level_2" ]
            },
            {
               "long_name" : "Chūō",
               "short_name" : "Chūō",
               "types" : [ "locality", "political" ]
            },
            {
               "long_name" : "Tokyo",
               "short_name" : "Tokyo",
               "types" : [ "administrative_area_level_1", "political" ]
            },
            {
               "long_name" : "Japan",
               "short_name" : "JP",
               "types" : [ "country", "political" ]
            }
         ],
         "formatted_address" : "103-0022, Japan",
         "geometry" : {
            "bounds" : {
               "northeast" : {
                  "lat" : 35.690024,
                  "lng" : 139.7769478
               },
               "southwest" : {
                  "lat" : 35.6840478,
                  "lng" : 139.7710504
               }
            },
            "location" : {
               "lat" : 35.6860931,
               "lng" : 139.7735148
            },
            "location_type" : "APPROXIMATE",
            "viewport" : {
               "northeast" : {
                  "lat" : 35.690024,
                  "lng" : 139.7769478
               },
               "southwest" : {
                  "lat" : 35.6840478,
                  "lng" : 139.7710504
               }
            }
         },
         "place_id" : "ChIJQS221v-LGGARlUvAbWouXPo",
         "types" : [ "postal_code" ]
      },
      {
         "address_components" : [
            {
               "long_name" : "Chūō",
               "short_name" : "Chūō",
               "types" : [ "locality", "political" ]
            },
            {
               "long_name" : "Tokyo",
               "short_name" : "Tokyo",
               "types" : [ "administrative_area_level_1", "political" ]
            },
            {
               "long_name" : "Japan",
               "short_name" : "JP",
               "types" : [ "country", "political" ]
            }
         ],
         "formatted_address" : "Chūō, Tokyo, Japan",
         "geometry" : {
            "bounds" : {
               "northeast" : {
                  "lat" : 35.696634,
                  "lng" : 139.7931975
               },
               "southwest" : {
                  "lat" : 35.6441494,
                  "lng" : 139.7584941
               }
            },
            "location" : {
               "lat" : 35.6706505,
               "lng" : 139.7718614
            },
            "location_type" : "APPROXIMATE",
            "viewport" : {
               "northeast" : {
                  "lat" : 35.696634,
                  "lng" : 139.7931975
               },
               "southwest" : {
                  "lat" : 35.6441494,
                  "lng" : 139.7584941
               }
            }
         },
         "place_id" : "ChIJyZrIjGCJGGARonG69OLd0ag",
         "types" : [ "locality", "political" ]
      },
      {
         "address_components" : [
            {
               "long_name" : "Tokyo",
               "short_name" : "Tokyo",
               "types" : [ "colloquial_area", "locality", "political" ]
            },
            {
               "long_name" : "Tokyo",
               "short_name" : "Tokyo",
               "types" : [ "administrative_area_level_1", "political" ]
            },
            {
               "long_name" : "Japan",
               "short_name" : "JP",
               "types" : [ "country", "political" ]
            }
         ],
         "formatted_address" : "Tokyo, Japan",
         "geometry" : {
            "bounds" : {
               "northeast" : {
                  "lat" : 35.8175167,
                  "lng" : 139.9198565
               },
               "southwest" : {
                  "lat" : 35.5208603,
                  "lng" : 139.5629048
               }
            },
            "location" : {
               "lat" : 35.7090259,
               "lng" : 139.7319925
            },
            "location_type" : "APPROXIMATE",
            "viewport" : {
               "northeast" : {
                  "lat" : 35.8175167,
                  "lng" : 139.9198565
               },
               "southwest" : {
                  "lat" : 35.5208603,
                  "lng" : 139.5629048
               }
            }
         },
         "place_id" : "ChIJXSModoWLGGARILWiCfeu2M0",
         "types" : [ "colloquial_area", "locality", "political" ]
      },
      {
         "address_components" : [
            {
               "long_name" : "Tokyo",
               "short_name" : "Tokyo",
               "types" : [ "administrative_area_level_1", "locality", "political" ]
            },
            {
               "long_name" : "Japan",
               "short_name" : "JP",
               "types" : [ "country", "political" ]
            }
         ],
         "formatted_address" : "Tokyo, Japan",
         "geometry" : {
            "bounds" : {
               "northeast" : {
                  "lat" : 35.8986468,
                  "lng" : 153.9876115
               },
               "southwest" : {
                  "lat" : 24.2242626,
                  "lng" : 138.942758
               }
            },
            "location" : {
               "lat" : 35.6894875,
               "lng" : 139.6917064
            },
            "location_type" : "APPROXIMATE",
            "viewport" : {
               "northeast" : {
                  "lat" : 35.8986468,
                  "lng" : 153.9876115
               },
               "southwest" : {
                  "lat" : 24.2242626,
                  "lng" : 138.942758
               }
            }
         },
         "place_id" : "ChIJ51cu8IcbXWARiRtXIothAS4",
         "types" : [ "administrative_area_level_1", "locality", "political" ]
      },
      {
         "address_components" : [
            {
               "long_name" : "Japan",
               "short_name" : "JP",
               "types" : [ "country", "political" ]
            }
         ],
         "formatted_address" : "Japan",
         "geometry" : {
            "bounds" : {
               "northeast" : {
                  "lat" : 45.6412626,
                  "lng" : 154.0031455
               },
               "southwest" : {
                  "lat" : 20.3585295,
                  "lng" : 122.8554688
               }
            },
            "location" : {
               "lat" : 36.204824,
               "lng" : 138.252924
            },
            "location_type" : "APPROXIMATE",
            "viewport" : {
               "northeast" : {
                  "lat" : 45.6412626,
                  "lng" : 154.0031455
               },
               "southwest" : {
                  "lat" : 20.3585295,
                  "lng" : 122.8554688
               }
            }
         },
         "place_id" : "ChIJLxl_1w9OZzQRRFJmfNR1QvU",
         "types" : [ "country", "political" ]
      }
   ],
   "status" : "OK"
}
