{
   "plus_code" : {
      "compound_code" : "2JM5+FX Taipei, Taiwan",
      "global_code" : "7QQ32JM5+FX"
   },
   "results" : [
      {
         "address_components" : [
            {
               "long_name" : "245號",
               "short_name" : "245號",
               "types" : [ "street_number" ]
            },
            {
               "long_name" : "Section 3, Yanjiuyuan Road",
               "short_name" : "Section 3, Yanjiuyuan Road",
               "types" : [ "route" ]
            },
            {
               "long_name" : "Nangang District",
               "short_name" : "Nangang District",
               "types" : [ "administrative_area_level_3", "political" ]
            },
            {
               "long_name" : "Taipei City",
               "short_name" : "Taipei City",
               "types" : [ "administrative_area_level_1", "political" ]
            },
            {
               "long_name" : "Taiwan",
               "short_name" : "TW",
               "types" : [ "country", "political" ]
            },
            {
               "long_name" : "115",
               "short_name" : "115",
               "types" : [ "postal_code" ]
            }
         ],
         "formatted_address" : "No. 245號, Section 3, Yanjiuyuan Road, Nangang District, Taipei City, Taiwan 115",
         "geometry" : {
            "location" : {
               "lat" : 25.0336571,
               "lng" : 121.6099018
            },
            "location_type" : "ROOFTOP",
            "viewport" : {
               "northeast" : {
                  "lat" : 25.0350060802915,
                  "lng" : 121.6112507802915
               },
               "southwest" : {
                  "lat" : 25.0323081197085,
                  "lng" : 121.6085528197085
               }
            }
         },
         "place_id" : "ChIJh90goz6rQjQRG_ju86ZWDJ8",
         "types" : [ "establishment", "point_of_interest", "university" ]
      },
      {
         "address_components" : [
            {
               "long_name" : "245",
               "short_name" : "245",
               "types" : [ "street_number" ]
            },
            {
               "long_name" : "Section 3, Yanjiuyuan Road",
               "short_name" : "Section 3, Yanjiuyuan Road",
               "types" : [ "route" ]
            },
            {
               "long_name" : "Nangang District",
               "short_name" : "Nangang District",
               "types" : [ "administrative_area_level_3", "political" ]
            },
            {
               "long_name" : "Taipei City",
               "short_name" : "Taipei City",
               "types" : [ "administrative_area_level_1", "political" ]
            },
            {
               "long_name" : "Taiwan",
               "short_name" : "TW",
               "types" : [ "country", "political" ]
            },
            {
               "long_name" : "115",
               "short_name" : "115",
               "types" : [ "postal_code" ]
            }
         ],
         "formatted_address" : "No. 245, Section 3, Yanjiuyuan Road, Nangang District, Taipei City, Taiwan 115",
         "geometry" : {
            "location" : {
               "lat" : 25.0335957,
               "lng" : 121.6098889
            },
            "location_type" : "ROOFTOP",
            "viewport" : {
               "northeast" : {
                  "lat" : 25.0349446802915,
                  "lng" : 121.6112378802915
               },
               "southwest" : {
                  "lat" : 25.0322467197085,
                  "lng" : 121.6085399197085
               }
            }
         },
         "place_id" : "ChIJlXE83T6rQjQRrhvFI2uPcT4",
         "types" : [ "street_address" ]
      },
      {
         "address_components" : [
            {
               "long_name" : "240",
               "short_name" : "240",
               "types" : [ "street_number" ]
            },
            {
               "long_name" : "Section 3, Yanjiuyuan Road",
               "short_name" : "Section 3, Yanjiuyuan Road",
               "types" : [ "route" ]
            },
            {
               "long_name" : "Nangang District",
               "short_name" : "Nangang District",
               "types" : [ "administrative_area_level_3", "political" ]
            },
            {
               "long_name" : "Taipei City",
               "short_name" : "Taipei City",
               "types" : [ "administrative_area_level_1", "political" ]
            },
            {
               "long_name" : "Taiwan",
               "short_name" : "TW",
               "types" : [ "country", "political" ]
            },
            {
               "long_name" : "115",
               "short_name" : "115",
               "types" : [ "postal_code" ]
            }
         ],
         "formatted_address" : "No. 240, Section 3, Yanjiuyuan Road, Nangang District, Taipei City, Taiwan 115",
         "geometry" : {
            "location" : {
               "lat" : 25.0336802,
               "lng" : 121.6098642
            },
            "location_type" : "RANGE_INTERPOLATED",
            "viewport" : {
               "northeast" : {
                  "lat" : 25.0350291802915,
                  "lng" : 121.6112131802915
               },
               "southwest" : {
                  "lat" : 25.0323312197085,
                  "lng" : 121.6085152197085
               }
            }
         },
         "place_id" : "EjMxMTXlj7DngaPlj7DljJfluILljZfmuK_ljYDnoJTnqbbpmaLot6_kuInmrrUyNDDomZ8iGxIZChQKEglD3YrnPqtCNBGzs906tKmABxDwAQ",
         "types" : [ "street_address" ]
      },
      {
         "address_components" : [
            {
               "long_name" : "九如里",
               "short_name" : "九如里",
               "types" : [ "administrative_area_level_4", "political" ]
            },
            {
               "long_name" : "南港區",
               "short_name" : "南港區",
               "types" : [ "administrative_area_level_3", "political" ]
            },
            {
               "long_name" : "台北市",
               "short_name" : "台北市",
               "types" : [ "administrative_area_level_1", "political" ]
            },
            {
               "long_name" : "Taiwan",
               "short_name" : "TW",
               "types" : [ "country", "political" ]
            },
            {
               "long_name" : "115",
               "short_name" : "115",
               "types" : [ "postal_code" ]
            }
         ],
         "formatted_address" : "115, Taiwan, 台北市南港區九如里",
         "geometry" : {
            "bounds" : {
               "northeast" : {
                  "lat" : 25.0387045,
                  "lng" : 121.6211409
               },
               "southwest" : {
                  "lat" : 25.0122231,
                  "lng" : 121.5780338
               }
            },
            "location" : {
               "lat" : 25.0253005,
               "lng" : 121.6026364
            },
            "location_type" : "APPROXIMATE",
            "viewport" : {
               "northeast" : {
                  "lat" : 25.0387045,
                  "lng" : 121.6211409
               },
               "southwest" : {
                  "lat" : 25.0122231,
                  "lng" : 121.5780338
               }
            }
         },
         "place_id" : "ChIJ17zM0BurQjQRotEhJt9mQIY",
         "types" : [ "administrative_area_level_4", "political" ]
      },
      {
         "address_components" : [
            {
               "long_name" : "Nangang District",
               "short_name" : "Nangang District",
               "types" : [ "administrative_area_level_3", "political" ]
            },
            {
               "long_name" : "Taipei City",
               "short_name" : "Taipei City",
               "types" : [ "administrative_area_level_1", "political" ]
            },
            {
               "long_name" : "Taiwan",
               "short_name" : "TW",
               "types" : [ "country", "political" ]
            },
            {
               "long_name" : "115",
               "short_name" : "115",
               "types" : [ "postal_code" ]
            }
         ],
         "formatted_address" : "Nangang District, Taipei City, Taiwan 115",
         "geometry" : {
            "bounds" : {
               "northeast" : {
                  "lat" : 25.0645607,
                  "lng" : 121.6659421
               },
               "southwest" : {
                  "lat" : 25.0122231,
                  "lng" : 121.5780338
               }
            },
            "location" : {
               "lat" : 25.0312347,
               "lng" : 121.6111949
            },
            "location_type" : "APPROXIMATE",
            "viewport" : {
               "northeast" : {
                  "lat" : 25.0645607,
                  "lng" : 121.6659421
               },
               "southwest" : {
                  "lat" : 25.0122231,
                  "lng" : 121.5780338
               }
            }
         },
         "place_id" : "ChIJQ6MVW0mrQjQRud8twpj6SWw",
         "types" : [ "administrative_area_level_3", "political" ]
      },
      {
         "address_components" : [
            {
               "long_name" : "115",
               "short_name" : "115",
               "types" : [ "postal_code" ]
            },
            {
               "long_name" : "Nangang District",
               "short_name" : "Nangang District",
               "types" : [ "administrative_area_level_3", "political" ]
            },
            {
               "long_name" : "Taipei City",
               "short_name" : "Taipei City",
               "types" : [ "administrative_area_level_1", "political" ]
            },
            {
               "long_name" : "Taiwan",
               "short_name" : "TW",
               "types" : [ "country", "political" ]
            }
         ],
         "formatted_address" : "Nangang District, Taipei City, Taiwan 115",
         "geometry" : {
            "bounds" : {
               "northeast" : {
                  "lat" : 25.0645607,
                  "lng" : 121.6659421
               },
               "southwest" : {
                  "lat" : 25.0122231,
                  "lng" : 121.5780338
               }
            },
            "location" : {
               "lat" : 25.0312347,
               "lng" : 121.6111949
            },
            "location_type" : "APPROXIMATE",
            "viewport" : {
               "northeast" : {
                  "lat" : 25.0645607,
                  "lng" : 121.6659421
               },
               "southwest" : {
                  "lat" : 25.0122231,
                  "lng" : 121.5780338
               }
            }
         },
         "place_id" : "ChIJN2JgW0mrQjQRn35WlVL2-rg",
         "types" : [ "postal_code" ]
      },
      {
         "address_components" : [
            {
               "long_name" : "Taipei City",
               "short_name" : "Taipei City",
               "types" : [ "administrative_area_level_1", "political" ]
            },
            {
               "long_name" : "Taiwan",
               "short_name" : "TW",
               "types" : [ "country", "political" ]
            }
         ],
         "formatted_address" : "Taipei City, Taiwan",
         "geometry" : {
            "bounds" : {
               "northeast" : {
                  "lat" : 25.2103038,
                  "lng" : 121.6659421
               },
               "southwest" : {
                  "lat" : 24.9605084,
                  "lng" : 121.4570603
               }
            },
            "location" : {
               "lat" : 25.0329636,
               "lng" : 121.5654268
            },
            "location_type" : "APPROXIMATE",
            "viewport" : {
               "northeast" : {
                  "lat" : 25.2103038,
                  "lng" : 121.6659421
               },
               "southwest" : {
                  "lat" : 24.9605084,
                  "lng" : 121.4570603
               }
            }
         },
         "place_id" : "ChIJi73bYWusQjQRgqQGXK260bw",
         "types" : [ "administrative_area_level_1", "political" ]
      },
      {
         "address_components" : [
            {
               "long_name" : "Taipei",
               "short_name" : "Taipei",
               "types" : [ "colloquial_area", "locality", "political" ]
            },
            {
               "long_name" : "Taiwan",
               "short_name" : "TW",
               "types" : [ "country", "political" ]
            }
         ],
         "formatted_address" : "Taipei, Taiwan",
         "geometry" : {
            "bounds" : {
               "northeast" : {
                  "lat" : 25.2443731,
                  "lng" : 121.7300824
               },
               "southwest" : {
                  "lat" : 24.7900797,
                  "lng" : 121.2826735
               }
            },
            "location" : {
               "lat" : 25.0329694,
               "lng" : 121.5654177
            },
            "location_type" : "APPROXIMATE",
            "viewport" : {
               "northeast" : {
                  "lat" : 25.2443731,
                  "lng" : 121.7300824
               },
               "southwest" : {
                  "lat" : 24.7900797,
                  "lng" : 121.2826735
               }
            }
         },
         "place_id" : "ChIJmQrivHKsQjQR4MIK3c41aj8",
         "types" : [ "colloquial_area", "locality", "political" ]
      },
      {
         "address_components" : [
            {
               "long_name" : "Taiwan",
               "short_name" : "TW",
               "types" : [ "country", "political" ]
            }
         ],
         "formatted_address" : "Taiwan",
         "geometry" : {
            "bounds" : {
               "northeast" : {
                  "lat" : 26.4545,
                  "lng" : 123.5021012
               },
               "southwest" : {
                  "lat" : 20.5170001,
                  "lng" : 116.6665
               }
            },
            "location" : {
               "lat" : 23.69781,
               "lng" : 120.960515
            },
            "location_type" : "APPROXIMATE",
            "viewport" : {
               "northeast" : {
                  "lat" : 26.4545,
                  "lng" : 123.5021012
               },
               "southwest" : {
                  "lat" : 20.5170001,
                  "lng" : 116.6665
               }
            }
         },
         "place_id" : "ChIJL1cHXAbzbjQRaVScvwTwEec",
         "types" : [ "country", "political" ]
      }
   ],
   "status" : "OK"
}
