{
   "plus_code" : {
      "compound_code" : "JVM8+6R Montpellier, France",
      "global_code" : "8FM5JVM8+6R"
   },
   "results" : [
      {
         "address_components" : [
            {
               "long_name" : "Montpellier",
               "short_name" : "Montpellier",
               "types" : [ "locality", "political" ]
            },
            {
               "long_name" : "France",
               "short_name" : "FR",
               "types" : [ "country", "political" ]
            },
            {
               "long_name" : "34095",
               "short_name" : "34095",
               "types" : [ "postal_code" ]
            }
         ],
         "formatted_address" : "Batiment 21. Campus Triolet. Université de Montpellier. CC069, 34095 Montpellier, France",
         "geometry" : {
            "location" : {
               "lat" : 43.6330582,
               "lng" : 3.8670556
            },
            "location_type" : "GEOMETRIC_CENTER",
            "viewport" : {
               "northeast" : {
                  "lat" : 43.6344071802915,
                  "lng" : 3.868404580291502
               },
               "southwest" : {
                  "lat" : 43.6317092197085,
                  "lng" : 3.865706619708498
               }
            }
         },
         "place_id" : "ChIJ4eHEfd-uthIRfXi4V5mekZ0",
         "plus_code" : {
            "compound_code" : "JVM8+6R Montpellier, France",
            "global_code" : "8FM5JVM8+6R"
         },
         "types" : [ "establishment", "point_of_interest" ]
      },
      {
         "address_components" : [
            {
               "long_name" : "1359",
               "short_name" : "1359",
               "types" : [ "street_number" ]
            },
            {
               "long_name" : "Route de Mende",
               "short_name" : "Route de Mende",
               "types" : [ "route" ]
            },
            {
               "long_name" : "Montpellier",
               "short_name" : "Montpellier",
               "types" : [ "locality", "political" ]
            },
            {
               "long_name" : "Hérault",
               "short_name" : "Hérault",
               "types" : [ "administrative_area_level_2", "political" ]
            },
            {
               "long_name" : "Occitanie",
               "short_name" : "Occitanie",
               "types" : [ "administrative_area_level_1", "political" ]
            },
            {
               "long_name" : "France",
               "short_name" : "FR",
               "types" : [ "country", "political" ]
            },
            {
               "long_name" : "34090",
               "short_name" : "34090",
               "types" : [ "postal_code" ]
            }
         ],
         "formatted_address" : "1359 Route de Mende, 34090 Montpellier, France",
         "geometry" : {
            "location" : {
               "lat" : 43.6328374,
               "lng" : 3.867957
            },
            "location_type" : "ROOFTOP",
            "viewport" : {
               "northeast" : {
                  "lat" : 43.6341863802915,
                  "lng" : 3.869305980291502
               },
               "southwest" : {
                  "lat" : 43.6314884197085,
                  "lng" : 3.866608019708498
               }
            }
         },
         "place_id" : "ChIJpQPO4iCvthIRz7du6YGJ9oc",
         "plus_code" : {
            "compound_code" : "JVM9+45 Montpellier, France",
            "global_code" : "8FM5JVM9+45"
         },
         "types" : [ "street_address" ]
      },
      {
         "address_components" : [
            {
               "long_name" : "1245",
               "short_name" : "1245",
               "types" : [ "street_number" ]
            },
            {
               "long_name" : "Route de Mende",
               "short_name" : "Route de Mende",
               "types" : [ "route" ]
            },
            {
               "long_name" : "Montpellier",
               "short_name" : "Montpellier",
               "types" : [ "locality", "political" ]
            },
            {
               "long_name" : "France",
               "short_name" : "FR",
               "types" : [ "country", "political" ]
            },
            {
               "long_name" : "34090",
               "short_name" : "34090",
               "types" : [ "postal_code" ]
            }
         ],
         "formatted_address" : "1245 Route de Mende, 34090 Montpellier, France",
         "geometry" : {
            "location" : {
               "lat" : 43.6331085,
               "lng" : 3.868019
            },
            "location_type" : "RANGE_INTERPOLATED",
            "viewport" : {
               "northeast" : {
                  "lat" : 43.63445748029149,
                  "lng" : 3.869367980291503
               },
               "southwest" : {
                  "lat" : 43.6317595197085,
                  "lng" : 3.866670019708498
               }
            }
         },
         "place_id" : "Ei4xMjQ1IFJvdXRlIGRlIE1lbmRlLCAzNDA5MCBNb250cGVsbGllciwgRnJhbmNlIhsSGQoUChIJv_P64SCvthIRhJ9aR1hI84YQ3Qk",
         "types" : [ "street_address" ]
      },
      {
         "address_components" : [
            {
               "long_name" : "Hôpitaux-Facultés",
               "short_name" : "Hôpitaux-Facultés",
               "types" : [ "neighborhood", "political" ]
            },
            {
               "long_name" : "Montpellier",
               "short_name" : "Montpellier",
               "types" : [ "locality", "political" ]
            },
            {
               "long_name" : "Hérault",
               "short_name" : "Hérault",
               "types" : [ "administrative_area_level_2", "political" ]
            },
            {
               "long_name" : "Occitanie",
               "short_name" : "Occitanie",
               "types" : [ "administrative_area_level_1", "political" ]
            },
            {
               "long_name" : "France",
               "short_name" : "FR",
               "types" : [ "country", "political" ]
            }
         ],
         "formatted_address" : "Hôpitaux-Facultés, Montpellier, France",
         "geometry" : {
            "bounds" : {
               "northeast" : {
                  "lat" : 43.65049399999999,
                  "lng" : 3.873781
               },
               "southwest" : {
                  "lat" : 43.620714,
                  "lng" : 3.822495
               }
            },
            "location" : {
               "lat" : 43.6328997,
               "lng" : 3.8477173
            },
            "location_type" : "APPROXIMATE",
            "viewport" : {
               "northeast" : {
                  "lat" : 43.65049399999999,
                  "lng" : 3.873781
               },
               "southwest" : {
                  "lat" : 43.620714,
                  "lng" : 3.822495
               }
            }
         },
         "place_id" : "ChIJkTZhGcGuthIRLZI7c6wblRM",
         "types" : [ "neighborhood", "political" ]
      },
      {
         "address_components" : [
            {
               "long_name" : "34090",
               "short_name" : "34090",
               "types" : [ "postal_code" ]
            },
            {
               "long_name" : "Montpellier",
               "short_name" : "Montpellier",
               "types" : [ "locality", "political" ]
            },
            {
               "long_name" : "Hérault",
               "short_name" : "Hérault",
               "types" : [ "administrative_area_level_2", "political" ]
            },
            {
               "long_name" : "Occitanie",
               "short_name" : "Occitanie",
               "types" : [ "administrative_area_level_1", "political" ]
            },
            {
               "long_name" : "France",
               "short_name" : "FR",
               "types" : [ "country", "political" ]
            }
         ],
         "formatted_address" : "34090 Montpellier, France",
         "geometry" : {
            "bounds" : {
               "northeast" : {
                  "lat" : 43.6534408,
                  "lng" : 3.8945266
               },
               "southwest" : {
                  "lat" : 43.612405,
                  "lng" : 3.82345
               }
            },
            "location" : {
               "lat" : 43.6348676,
               "lng" : 3.8604402
            },
            "location_type" : "APPROXIMATE",
            "viewport" : {
               "northeast" : {
                  "lat" : 43.6534408,
                  "lng" : 3.8945266
               },
               "southwest" : {
                  "lat" : 43.612405,
                  "lng" : 3.82345
               }
            }
         },
         "place_id" : "ChIJw-EOSdyuthIRAOOMaSSIBxw",
         "types" : [ "postal_code" ]
      },
      {
         "address_components" : [
            {
               "long_name" : "Montpellier",
               "short_name" : "Montpellier",
               "types" : [ "locality", "political" ]
            },
            {
               "long_name" : "Hérault",
               "short_name" : "Hérault",
               "types" : [ "administrative_area_level_2", "political" ]
            },
            {
               "long_name" : "Occitanie",
               "short_name" : "Occitanie",
               "types" : [ "administrative_area_level_1", "political" ]
            },
            {
               "long_name" : "France",
               "short_name" : "FR",
               "types" : [ "country", "political" ]
            }
         ],
         "formatted_address" : "Montpellier, France",
         "geometry" : {
            "bounds" : {
               "northeast" : {
                  "lat" : 43.6532999,
                  "lng" : 3.941279
               },
               "southwest" : {
                  "lat" : 43.566744,
                  "lng" : 3.807044
               }
            },
            "location" : {
               "lat" : 43.610769,
               "lng" : 3.876716
            },
            "location_type" : "APPROXIMATE",
            "viewport" : {
               "northeast" : {
                  "lat" : 43.6532999,
                  "lng" : 3.941279
               },
               "southwest" : {
                  "lat" : 43.566744,
                  "lng" : 3.807044
               }
            }
         },
         "place_id" : "ChIJsZ3dJQevthIRAuiUKHRWh60",
         "types" : [ "locality", "political" ]
      },
      {
         "address_components" : [
            {
               "long_name" : "Hérault",
               "short_name" : "Hérault",
               "types" : [ "administrative_area_level_2", "political" ]
            },
            {
               "long_name" : "Occitanie",
               "short_name" : "Occitanie",
               "types" : [ "administrative_area_level_1", "political" ]
            },
            {
               "long_name" : "France",
               "short_name" : "FR",
               "types" : [ "country", "political" ]
            }
         ],
         "formatted_address" : "Hérault, France",
         "geometry" : {
            "bounds" : {
               "northeast" : {
                  "lat" : 43.9727599,
                  "lng" : 4.1945401
               },
               "southwest" : {
                  "lat" : 43.2102099,
                  "lng" : 2.539549
               }
            },
            "location" : {
               "lat" : 43.5912356,
               "lng" : 3.2583626
            },
            "location_type" : "APPROXIMATE",
            "viewport" : {
               "northeast" : {
                  "lat" : 43.9727599,
                  "lng" : 4.1945401
               },
               "southwest" : {
                  "lat" : 43.2102099,
                  "lng" : 2.539549
               }
            }
         },
         "place_id" : "ChIJ7TGrfiZmsRIRoCdlFiGIBwM",
         "types" : [ "administrative_area_level_2", "political" ]
      },
      {
         "address_components" : [
            {
               "long_name" : "Occitanie",
               "short_name" : "Occitanie",
               "types" : [ "administrative_area_level_1", "political" ]
            },
            {
               "long_name" : "France",
               "short_name" : "FR",
               "types" : [ "country", "political" ]
            }
         ],
         "formatted_address" : "Occitanie, France",
         "geometry" : {
            "bounds" : {
               "northeast" : {
                  "lat" : 45.046684,
                  "lng" : 4.8455639
               },
               "southwest" : {
                  "lat" : 42.333014,
                  "lng" : -0.327159
               }
            },
            "location" : {
               "lat" : 43.8927232,
               "lng" : 3.2827625
            },
            "location_type" : "APPROXIMATE",
            "viewport" : {
               "northeast" : {
                  "lat" : 45.046684,
                  "lng" : 4.8455639
               },
               "southwest" : {
                  "lat" : 42.333014,
                  "lng" : -0.327159
               }
            }
         },
         "place_id" : "ChIJR21206wDshIRXMk7aLMSs6s",
         "types" : [ "administrative_area_level_1", "political" ]
      },
      {
         "address_components" : [
            {
               "long_name" : "France",
               "short_name" : "FR",
               "types" : [ "country", "political" ]
            }
         ],
         "formatted_address" : "France",
         "geometry" : {
            "bounds" : {
               "northeast" : {
                  "lat" : 51.1241999,
                  "lng" : 9.6624999
               },
               "southwest" : {
                  "lat" : 41.31433,
                  "lng" : -5.5591
               }
            },
            "location" : {
               "lat" : 46.227638,
               "lng" : 2.213749
            },
            "location_type" : "APPROXIMATE",
            "viewport" : {
               "northeast" : {
                  "lat" : 51.1241999,
                  "lng" : 9.6624999
               },
               "southwest" : {
                  "lat" : 41.31433,
                  "lng" : -5.5591
               }
            }
         },
         "place_id" : "ChIJMVd4MymgVA0R99lHx5Y__Ws",
         "types" : [ "country", "political" ]
      }
   ],
   "status" : "OK"
}
