{
   "plus_code" : {
      "compound_code" : "RWH7+9M Ardon, France",
      "global_code" : "8FV3RWH7+9M"
   },
   "results" : [
      {
         "address_components" : [
            {
               "long_name" : "2163",
               "short_name" : "2163",
               "types" : [ "street_number" ]
            },
            {
               "long_name" : "Avenue de la Pomme de Pin",
               "short_name" : "Avenue de la Pomme de Pin",
               "types" : [ "route" ]
            },
            {
               "long_name" : "Orléans",
               "short_name" : "Orléans",
               "types" : [ "locality", "political" ]
            },
            {
               "long_name" : "Loiret",
               "short_name" : "Loiret",
               "types" : [ "administrative_area_level_2", "political" ]
            },
            {
               "long_name" : "Centre-Val de Loire",
               "short_name" : "Centre-Val de Loire",
               "types" : [ "administrative_area_level_1", "political" ]
            },
            {
               "long_name" : "France",
               "short_name" : "FR",
               "types" : [ "country", "political" ]
            },
            {
               "long_name" : "45075",
               "short_name" : "45075",
               "types" : [ "postal_code" ]
            }
         ],
         "formatted_address" : "2163 Avenue de la Pomme de Pin, 45075 Orléans, France",
         "geometry" : {
            "location" : {
               "lat" : 47.8284622,
               "lng" : 1.9141721
            },
            "location_type" : "ROOFTOP",
            "viewport" : {
               "northeast" : {
                  "lat" : 47.82981118029149,
                  "lng" : 1.915521080291501
               },
               "southwest" : {
                  "lat" : 47.8271132197085,
                  "lng" : 1.912823119708498
               }
            }
         },
         "place_id" : "ChIJHxMaRyDk5EcRZ3eobWmxI0E",
         "plus_code" : {
            "compound_code" : "RWH7+9M Ardon, France",
            "global_code" : "8FV3RWH7+9M"
         },
         "types" : [ "establishment", "point_of_interest" ]
      },
      {
         "address_components" : [
            {
               "long_name" : "Allée de la Pomme de Pin",
               "short_name" : "D326",
               "types" : [ "route" ]
            },
            {
               "long_name" : "Ardon",
               "short_name" : "Ardon",
               "types" : [ "locality", "political" ]
            },
            {
               "long_name" : "Loiret",
               "short_name" : "Loiret",
               "types" : [ "administrative_area_level_2", "political" ]
            },
            {
               "long_name" : "Centre-Val de Loire",
               "short_name" : "Centre-Val de Loire",
               "types" : [ "administrative_area_level_1", "political" ]
            },
            {
               "long_name" : "France",
               "short_name" : "FR",
               "types" : [ "country", "political" ]
            },
            {
               "long_name" : "45160",
               "short_name" : "45160",
               "types" : [ "postal_code" ]
            }
         ],
         "formatted_address" : "D326, 45160 Ardon, France",
         "geometry" : {
            "bounds" : {
               "northeast" : {
                  "lat" : 47.8285765,
                  "lng" : 1.9146694
               },
               "southwest" : {
                  "lat" : 47.82832399999999,
                  "lng" : 1.9145076
               }
            },
            "location" : {
               "lat" : 47.8284503,
               "lng" : 1.9145885
            },
            "location_type" : "GEOMETRIC_CENTER",
            "viewport" : {
               "northeast" : {
                  "lat" : 47.8297992302915,
                  "lng" : 1.915937480291502
               },
               "southwest" : {
                  "lat" : 47.8271012697085,
                  "lng" : 1.913239519708498
               }
            }
         },
         "place_id" : "ChIJd8toOSDk5EcRMELLKkcKEWU",
         "types" : [ "route" ]
      },
      {
         "address_components" : [
            {
               "long_name" : "Ardon",
               "short_name" : "Ardon",
               "types" : [ "locality", "political" ]
            },
            {
               "long_name" : "Loiret",
               "short_name" : "Loiret",
               "types" : [ "administrative_area_level_2", "political" ]
            },
            {
               "long_name" : "Centre-Val de Loire",
               "short_name" : "Centre-Val de Loire",
               "types" : [ "administrative_area_level_1", "political" ]
            },
            {
               "long_name" : "France",
               "short_name" : "FR",
               "types" : [ "country", "political" ]
            },
            {
               "long_name" : "45160",
               "short_name" : "45160",
               "types" : [ "postal_code" ]
            }
         ],
         "formatted_address" : "45160 Ardon, France",
         "geometry" : {
            "bounds" : {
               "northeast" : {
                  "lat" : 47.83635899999999,
                  "lng" : 1.9274671
               },
               "southwest" : {
                  "lat" : 47.72871689999999,
                  "lng" : 1.822322
               }
            },
            "location" : {
               "lat" : 47.782461,
               "lng" : 1.874874
            },
            "location_type" : "APPROXIMATE",
            "viewport" : {
               "northeast" : {
                  "lat" : 47.83635899999999,
                  "lng" : 1.9274671
               },
               "southwest" : {
                  "lat" : 47.72871689999999,
                  "lng" : 1.822322
               }
            }
         },
         "place_id" : "ChIJoU1rqrbn5EcR0OU3BdfIDQQ",
         "types" : [ "locality", "political" ]
      },
      {
         "address_components" : [
            {
               "long_name" : "45160",
               "short_name" : "45160",
               "types" : [ "postal_code" ]
            },
            {
               "long_name" : "Olivet",
               "short_name" : "Olivet",
               "types" : [ "locality", "political" ]
            },
            {
               "long_name" : "Loiret",
               "short_name" : "Loiret",
               "types" : [ "administrative_area_level_2", "political" ]
            },
            {
               "long_name" : "Centre-Val de Loire",
               "short_name" : "Centre-Val de Loire",
               "types" : [ "administrative_area_level_1", "political" ]
            },
            {
               "long_name" : "France",
               "short_name" : "FR",
               "types" : [ "country", "political" ]
            }
         ],
         "formatted_address" : "45160 Olivet, France",
         "geometry" : {
            "bounds" : {
               "northeast" : {
                  "lat" : 47.8799826,
                  "lng" : 1.9327645
               },
               "southwest" : {
                  "lat" : 47.7287227,
                  "lng" : 1.8014798
               }
            },
            "location" : {
               "lat" : 47.8174587,
               "lng" : 1.882656
            },
            "location_type" : "APPROXIMATE",
            "viewport" : {
               "northeast" : {
                  "lat" : 47.8799826,
                  "lng" : 1.9327645
               },
               "southwest" : {
                  "lat" : 47.7287227,
                  "lng" : 1.8014798
               }
            }
         },
         "place_id" : "ChIJ614U6z7m5EcR0EVIRdrIDRw",
         "postcode_localities" : [ "Ardon", "Olivet", "Saint-Hilaire-Saint-Mesmin" ],
         "types" : [ "postal_code" ]
      },
      {
         "address_components" : [
            {
               "long_name" : "Loiret",
               "short_name" : "Loiret",
               "types" : [ "administrative_area_level_2", "political" ]
            },
            {
               "long_name" : "Centre-Val de Loire",
               "short_name" : "Centre-Val de Loire",
               "types" : [ "administrative_area_level_1", "political" ]
            },
            {
               "long_name" : "France",
               "short_name" : "FR",
               "types" : [ "country", "political" ]
            }
         ],
         "formatted_address" : "Loiret, France",
         "geometry" : {
            "bounds" : {
               "northeast" : {
                  "lat" : 48.344954,
                  "lng" : 3.1284099
               },
               "southwest" : {
                  "lat" : 47.483027,
                  "lng" : 1.51145
               }
            },
            "location" : {
               "lat" : 47.900771,
               "lng" : 2.2018172
            },
            "location_type" : "APPROXIMATE",
            "viewport" : {
               "northeast" : {
                  "lat" : 48.344954,
                  "lng" : 3.1284099
               },
               "southwest" : {
                  "lat" : 47.483027,
                  "lng" : 1.51145
               }
            }
         },
         "place_id" : "ChIJBQbIKJcN5UcRUCgzBdfIDQM",
         "types" : [ "administrative_area_level_2", "political" ]
      },
      {
         "address_components" : [
            {
               "long_name" : "Centre-Val de Loire",
               "short_name" : "Centre-Val de Loire",
               "types" : [ "administrative_area_level_1", "political" ]
            },
            {
               "long_name" : "France",
               "short_name" : "FR",
               "types" : [ "country", "political" ]
            }
         ],
         "formatted_address" : "Centre-Val de Loire, France",
         "geometry" : {
            "bounds" : {
               "northeast" : {
                  "lat" : 48.941029,
                  "lng" : 3.1284099
               },
               "southwest" : {
                  "lat" : 46.3469059,
                  "lng" : 0.0527369
               }
            },
            "location" : {
               "lat" : 47.7515686,
               "lng" : 1.6750631
            },
            "location_type" : "APPROXIMATE",
            "viewport" : {
               "northeast" : {
                  "lat" : 48.941029,
                  "lng" : 3.1284099
               },
               "southwest" : {
                  "lat" : 46.3469059,
                  "lng" : 0.0527369
               }
            }
         },
         "place_id" : "ChIJiV0INnu55EcRMCUzBdfIDQE",
         "types" : [ "administrative_area_level_1", "political" ]
      },
      {
         "address_components" : [
            {
               "long_name" : "France",
               "short_name" : "FR",
               "types" : [ "country", "political" ]
            }
         ],
         "formatted_address" : "France",
         "geometry" : {
            "bounds" : {
               "northeast" : {
                  "lat" : 51.1241999,
                  "lng" : 9.6624999
               },
               "southwest" : {
                  "lat" : 41.31433,
                  "lng" : -5.5591
               }
            },
            "location" : {
               "lat" : 46.227638,
               "lng" : 2.213749
            },
            "location_type" : "APPROXIMATE",
            "viewport" : {
               "northeast" : {
                  "lat" : 51.1241999,
                  "lng" : 9.6624999
               },
               "southwest" : {
                  "lat" : 41.31433,
                  "lng" : -5.5591
               }
            }
         },
         "place_id" : "ChIJMVd4MymgVA0R99lHx5Y__Ws",
         "types" : [ "country", "political" ]
      }
   ],
   "status" : "OK"
}
