{
   "plus_code" : {
      "compound_code" : "7C7M+CH Nantes, France",
      "global_code" : "8CVW7C7M+CH"
   },
   "results" : [
      {
         "address_components" : [
            {
               "long_name" : "2",
               "short_name" : "2",
               "types" : [ "street_number" ]
            },
            {
               "long_name" : "impasse Thérèse Bertrand Fontaine",
               "short_name" : "impasse Thérèse Bertrand Fontaine",
               "types" : [ "route" ]
            },
            {
               "long_name" : "Nantes",
               "short_name" : "Nantes",
               "types" : [ "locality", "political" ]
            },
            {
               "long_name" : "Loire-Atlantique",
               "short_name" : "Loire-Atlantique",
               "types" : [ "administrative_area_level_2", "political" ]
            },
            {
               "long_name" : "Pays de la Loire",
               "short_name" : "Pays de la Loire",
               "types" : [ "administrative_area_level_1", "political" ]
            },
            {
               "long_name" : "France",
               "short_name" : "FR",
               "types" : [ "country", "political" ]
            },
            {
               "long_name" : "44300",
               "short_name" : "44300",
               "types" : [ "postal_code" ]
            }
         ],
         "formatted_address" : "2 impasse Thérèse Bertrand Fontaine, 44300 Nantes, France",
         "geometry" : {
            "location" : {
               "lat" : 47.2634733,
               "lng" : -1.5659299
            },
            "location_type" : "ROOFTOP",
            "viewport" : {
               "northeast" : {
                  "lat" : 47.2648222802915,
                  "lng" : -1.564580919708498
               },
               "southwest" : {
                  "lat" : 47.26212431970851,
                  "lng" : -1.567278880291502
               }
            }
         },
         "place_id" : "ChIJxVvn8uDtBUgReEg24UOLx_s",
         "plus_code" : {
            "compound_code" : "7C7M+9J Nantes, France",
            "global_code" : "8CVW7C7M+9J"
         },
         "types" : [ "establishment", "point_of_interest" ]
      },
      {
         "address_components" : [
            {
               "long_name" : "59",
               "short_name" : "59",
               "types" : [ "street_number" ]
            },
            {
               "long_name" : "Rue de la Geraudière",
               "short_name" : "Rue de la Geraudière",
               "types" : [ "route" ]
            },
            {
               "long_name" : "Nantes",
               "short_name" : "Nantes",
               "types" : [ "locality", "political" ]
            },
            {
               "long_name" : "Loire-Atlantique",
               "short_name" : "Loire-Atlantique",
               "types" : [ "administrative_area_level_2", "political" ]
            },
            {
               "long_name" : "Pays de la Loire",
               "short_name" : "Pays de la Loire",
               "types" : [ "administrative_area_level_1", "political" ]
            },
            {
               "long_name" : "France",
               "short_name" : "FR",
               "types" : [ "country", "political" ]
            },
            {
               "long_name" : "44300",
               "short_name" : "44300",
               "types" : [ "postal_code" ]
            }
         ],
         "formatted_address" : "59 Rue de la Geraudière, 44300 Nantes, France",
         "geometry" : {
            "location" : {
               "lat" : 47.2633494,
               "lng" : -1.5658935
            },
            "location_type" : "ROOFTOP",
            "viewport" : {
               "northeast" : {
                  "lat" : 47.26469838029149,
                  "lng" : -1.564544519708498
               },
               "southwest" : {
                  "lat" : 47.2620004197085,
                  "lng" : -1.567242480291502
               }
            }
         },
         "place_id" : "ChIJiV7YjODtBUgRrwpLRusY5_U",
         "plus_code" : {
            "compound_code" : "7C7M+8J Nantes, France",
            "global_code" : "8CVW7C7M+8J"
         },
         "types" : [ "street_address" ]
      },
      {
         "address_components" : [
            {
               "long_name" : "60",
               "short_name" : "60",
               "types" : [ "street_number" ]
            },
            {
               "long_name" : "Rue de la Geraudière",
               "short_name" : "Rue de la Geraudière",
               "types" : [ "route" ]
            },
            {
               "long_name" : "Nantes",
               "short_name" : "Nantes",
               "types" : [ "locality", "political" ]
            },
            {
               "long_name" : "France",
               "short_name" : "FR",
               "types" : [ "country", "political" ]
            },
            {
               "long_name" : "44300",
               "short_name" : "44300",
               "types" : [ "postal_code" ]
            }
         ],
         "formatted_address" : "60 Rue de la Geraudière, 44300 Nantes, France",
         "geometry" : {
            "location" : {
               "lat" : 47.26356819999999,
               "lng" : -1.5661067
            },
            "location_type" : "RANGE_INTERPOLATED",
            "viewport" : {
               "northeast" : {
                  "lat" : 47.26491718029149,
                  "lng" : -1.564757719708498
               },
               "southwest" : {
                  "lat" : 47.26221921970849,
                  "lng" : -1.567455680291502
               }
            }
         },
         "place_id" : "Ei42MCBSdWUgZGUgbGEgR2VyYXVkacOocmUsIDQ0MzAwIE5hbnRlcywgRnJhbmNlIhoSGAoUChIJ93VO8eDtBUgRxKJLd42SfzcQPA",
         "types" : [ "street_address" ]
      },
      {
         "address_components" : [
            {
               "long_name" : "Quartiers Nord",
               "short_name" : "Quartiers Nord",
               "types" : [ "neighborhood", "political" ]
            },
            {
               "long_name" : "Nantes",
               "short_name" : "Nantes",
               "types" : [ "locality", "political" ]
            },
            {
               "long_name" : "Loire-Atlantique",
               "short_name" : "Loire-Atlantique",
               "types" : [ "administrative_area_level_2", "political" ]
            },
            {
               "long_name" : "Pays de la Loire",
               "short_name" : "Pays de la Loire",
               "types" : [ "administrative_area_level_1", "political" ]
            },
            {
               "long_name" : "France",
               "short_name" : "FR",
               "types" : [ "country", "political" ]
            }
         ],
         "formatted_address" : "Quartiers Nord, Nantes, France",
         "geometry" : {
            "bounds" : {
               "northeast" : {
                  "lat" : 47.274795,
                  "lng" : -1.5390878
               },
               "southwest" : {
                  "lat" : 47.242539,
                  "lng" : -1.5934641
               }
            },
            "location" : {
               "lat" : 47.257264,
               "lng" : -1.5676923
            },
            "location_type" : "APPROXIMATE",
            "viewport" : {
               "northeast" : {
                  "lat" : 47.274795,
                  "lng" : -1.5390878
               },
               "southwest" : {
                  "lat" : 47.242539,
                  "lng" : -1.5934641
               }
            }
         },
         "place_id" : "ChIJy7stFX3uBUgRZOD2veu_la4",
         "types" : [ "neighborhood", "political" ]
      },
      {
         "address_components" : [
            {
               "long_name" : "44300",
               "short_name" : "44300",
               "types" : [ "postal_code" ]
            },
            {
               "long_name" : "Nantes",
               "short_name" : "Nantes",
               "types" : [ "locality", "political" ]
            },
            {
               "long_name" : "Loire-Atlantique",
               "short_name" : "Loire-Atlantique",
               "types" : [ "administrative_area_level_2", "political" ]
            },
            {
               "long_name" : "Pays de la Loire",
               "short_name" : "Pays de la Loire",
               "types" : [ "administrative_area_level_1", "political" ]
            },
            {
               "long_name" : "France",
               "short_name" : "FR",
               "types" : [ "country", "political" ]
            }
         ],
         "formatted_address" : "44300 Nantes, France",
         "geometry" : {
            "bounds" : {
               "northeast" : {
                  "lat" : 47.29577889999999,
                  "lng" : -1.4790433
               },
               "southwest" : {
                  "lat" : 47.2168502,
                  "lng" : -1.592763
               }
            },
            "location" : {
               "lat" : 47.2482829,
               "lng" : -1.5439361
            },
            "location_type" : "APPROXIMATE",
            "viewport" : {
               "northeast" : {
                  "lat" : 47.29577889999999,
                  "lng" : -1.4790433
               },
               "southwest" : {
                  "lat" : 47.2168502,
                  "lng" : -1.592763
               }
            }
         },
         "place_id" : "ChIJE8qBc0TuBUgRwH_hoFU3DRw",
         "types" : [ "postal_code" ]
      },
      {
         "address_components" : [
            {
               "long_name" : "Nantes",
               "short_name" : "Nantes",
               "types" : [ "locality", "political" ]
            },
            {
               "long_name" : "Loire-Atlantique",
               "short_name" : "Loire-Atlantique",
               "types" : [ "administrative_area_level_2", "political" ]
            },
            {
               "long_name" : "Pays de la Loire",
               "short_name" : "Pays de la Loire",
               "types" : [ "administrative_area_level_1", "political" ]
            },
            {
               "long_name" : "France",
               "short_name" : "FR",
               "types" : [ "country", "political" ]
            }
         ],
         "formatted_address" : "Nantes, France",
         "geometry" : {
            "bounds" : {
               "northeast" : {
                  "lat" : 47.29582689999999,
                  "lng" : -1.4783261
               },
               "southwest" : {
                  "lat" : 47.1806171,
                  "lng" : -1.6417861
               }
            },
            "location" : {
               "lat" : 47.218371,
               "lng" : -1.553621
            },
            "location_type" : "APPROXIMATE",
            "viewport" : {
               "northeast" : {
                  "lat" : 47.29582689999999,
                  "lng" : -1.4783261
               },
               "southwest" : {
                  "lat" : 47.1806171,
                  "lng" : -1.6417861
               }
            }
         },
         "place_id" : "ChIJra6o8IHuBUgRMO0NHlI3DQQ",
         "types" : [ "locality", "political" ]
      },
      {
         "address_components" : [
            {
               "long_name" : "Loire-Atlantique",
               "short_name" : "Loire-Atlantique",
               "types" : [ "administrative_area_level_2", "political" ]
            },
            {
               "long_name" : "Pays de la Loire",
               "short_name" : "Pays de la Loire",
               "types" : [ "administrative_area_level_1", "political" ]
            },
            {
               "long_name" : "France",
               "short_name" : "FR",
               "types" : [ "country", "political" ]
            }
         ],
         "formatted_address" : "Loire-Atlantique, France",
         "geometry" : {
            "bounds" : {
               "northeast" : {
                  "lat" : 47.835927,
                  "lng" : -0.9232159999999998
               },
               "southwest" : {
                  "lat" : 46.860073,
                  "lng" : -2.559609
               }
            },
            "location" : {
               "lat" : 47.27804680000001,
               "lng" : -1.8157647
            },
            "location_type" : "APPROXIMATE",
            "viewport" : {
               "northeast" : {
                  "lat" : 47.835927,
                  "lng" : -0.9232159999999998
               },
               "southwest" : {
                  "lat" : 46.860073,
                  "lng" : -2.559609
               }
            }
         },
         "place_id" : "ChIJnbJ5rKiOBUgRQCgJHlI3DQM",
         "types" : [ "administrative_area_level_2", "political" ]
      },
      {
         "address_components" : [
            {
               "long_name" : "Pays de la Loire",
               "short_name" : "Pays de la Loire",
               "types" : [ "administrative_area_level_1", "political" ]
            },
            {
               "long_name" : "France",
               "short_name" : "FR",
               "types" : [ "country", "political" ]
            }
         ],
         "formatted_address" : "Pays de la Loire, France",
         "geometry" : {
            "bounds" : {
               "northeast" : {
                  "lat" : 48.567985,
                  "lng" : 0.9166388999999999
               },
               "southwest" : {
                  "lat" : 46.26653899999999,
                  "lng" : -2.559609
               }
            },
            "location" : {
               "lat" : 47.7632836,
               "lng" : -0.3299687
            },
            "location_type" : "APPROXIMATE",
            "viewport" : {
               "northeast" : {
                  "lat" : 48.567985,
                  "lng" : 0.9166388999999999
               },
               "southwest" : {
                  "lat" : 46.26653899999999,
                  "lng" : -2.559609
               }
            }
         },
         "place_id" : "ChIJQQUJqjgXBUgRtkcc2Asrls8",
         "types" : [ "administrative_area_level_1", "political" ]
      },
      {
         "address_components" : [
            {
               "long_name" : "France",
               "short_name" : "FR",
               "types" : [ "country", "political" ]
            }
         ],
         "formatted_address" : "France",
         "geometry" : {
            "bounds" : {
               "northeast" : {
                  "lat" : 51.1241999,
                  "lng" : 9.6624999
               },
               "southwest" : {
                  "lat" : 41.31433,
                  "lng" : -5.5591
               }
            },
            "location" : {
               "lat" : 46.227638,
               "lng" : 2.213749
            },
            "location_type" : "APPROXIMATE",
            "viewport" : {
               "northeast" : {
                  "lat" : 51.1241999,
                  "lng" : 9.6624999
               },
               "southwest" : {
                  "lat" : 41.31433,
                  "lng" : -5.5591
               }
            }
         },
         "place_id" : "ChIJMVd4MymgVA0R99lHx5Y__Ws",
         "types" : [ "country", "political" ]
      }
   ],
   "status" : "OK"
}
